~Version Information
 VERS.                  2.0:   CWLS log ASCII Standard -VERSION 2.0
 WRAP.                   NO:   One line per depth step
~Well Information Block
#MNEM.UNIT     VALUE/NAME     DESCRIPTION
#---------     -----------    ---------------------------
 STRT.F             14200.0000: START DEPTH
 STOP.F             16770.0000: STOP DEPTH
 STEP.F                 0.5000: STEP DEPTH
 NULL.               -999.2500: NULL VALUE
 UNIT.                12318515:  LOGGING EQUIPMENT ID
 CNTY.             HAIR DALMAH:  COUNTY NAME
 JOBN.        AD-XX-0905995035:  JOB TICKET NUMB
 FLD .             HAIR DALMAH:  FIELD NAME
 PDAT.          Mean Sea Level:  PERMANENT DATUM
 RIG .                     PN8:  RIG NAME
 MWDS.                    ICAD:  MWD SHOP
 CTRY.     United Arab Emirates:  COUNTRY NAME
 REGN.     Middle East/North Africa:  REGION
 BASE.               Abu Dhabi:  LOGGING EQUIPMENT BASE LOCATION
 WTYP.                Vertical:  WELL TYPE
 XYGR.     UTM Zones, Northern Hemisphere, Meters:  XYGROUP
 LLGR.      Latitude/Longitude:  LLGROUP
 MDS .              Win MagUTM:  MAG DATA SOURCE
 MMDD.       05 December, 2019:  MAG DATA DATE
 MMDL.            bggm2019.dat:  MAGNETIC MODEL
 CREF.     Ellipsoid Clarke - 1880:  CART REFERENCE
 GREF.     Ellipsoid World Geodetic System :  GEO REFERENCE
 CGSY.               SS CLRK51:  CART GRID SYS
 GGSY.                      LL:  GEO GRID SYS
 CCDE.     UTM Clarke 1880 (CM 51), Meters:  CART COORD DESC
 GCDE.     Generic Lat/Long's, Degrees, -180 ==> +180:  GEO COORD DESC
 SON .        AD-XX-0905995035:  JOB NUMBER
 COMP.          ADNOC Offshore:  COMPANY
 WELL.               HD011-02D:  WELL NAME
 FTOP.          Formation Tops:  FORM TOPS DESC
 ILTD.               Lithology:  INTERP LTH DESC
 SVYD.                  Survey:  SURVEY DESC
 DMOD.             Drill Model:  DRILL MOD DESC
 HPTY.       Minimum Curvature:  HOLE POS TYPE
 NREF.                    Grid:  NORTH REFERENCE
 SPUD.               17-Feb-20:  SPUD DATE
 DATE.      21.00.00 29-Aug-20:  END TIME
 STIM.      12.00.00 26-Jul-20:  START TIME
 DMF .             Drill Floor:  DRILL MEAS FROM
 DFST.                        :  DIST FSL TEXT
 DFWT.                        :  DIST FWL TEXT
 PROV.               Abu Dhabi:  PROVINCE
 STAT.               Abu Dhabi:  STATE NAME
 API .                        :  API NUMBER
 SRVC.             Halliburton:  SERVICE COMPANY
 UWI .                        :  UNIQUE WELL IDENTIFIER
 LOC .                        :  LOCATION
 LMF .             Drill Floor:  LOG MEASURED FROM
 DEP .ft              0.000000:  DEPTH
 AGAP.ft            118.000000:  AIR GAP
 CMER.deg            51.000000:  CENTRL MERIDIAN
 MMDE.ft              0.000000:  MAGUTM CALC DEP
 APD .ft            118.000000:  DEPTH ABOVE PD
 WDMS.ft             65.000000:  WD ELEV
 EGL .ft              0.000000:  GROUND ELEVATION
 EPD .ft              0.000000:  ELEVATION
 AZTC.deg             1.750428:  AZM TOTAL CORR
 GRDC.deg             0.592532:  GRID CORRECTION
 MDEC.deg             2.342959:  MAGNETIC DECL
 MDIP.deg            38.394272:  MAGNETIC DIP
 MFLD.nT          43612.476563:  MAGNETIC FIELD
 GVFD.g               1.000000:  GRAVITY FIELD
 VSDR.deg            91.860001:  VERT SEC DIRECT
 TDD .ft          16770.000000:  TOTAL DEPTH (DRILLER)
 SDEP.ft          14436.000000:  START DEPTH
 DFSL.ft              0.000000:  DISTANCE FSL
 DFWL.ft              0.000000:  DISTANCE FWL
 UTMY.m         2710911.810000:  UTM Y
 UTMX.m          644702.250000:  UTM X
 WHEW.ft              0.000000:  WELL HEAD E/W
 WHNS.ft              0.000000:  WELL HEAD N/S
 LONG.deg            52.428197:  LONGITUDE
 LATI.deg            24.507246:  LATITUDE
 TVDS.ft            118.000000:  TVDSS CORRECTN
 EKB .ft            118.000000:  KB ELEVATION
 EDF .ft            118.000000:  DF ELEVATION
 MAGU.                 1512580:  MAGUTM CHECKSUM
 VSC .                       0:  VS TO CLOSURE
~Parameter Information Block
#MNEM.UNIT       Value        Description
#---------     -----------    ---------------------------
 AV  .fpm           484.999969:  Ann Velocity 
 AVMX.fpm           969.999939:  Max Ann Veloc 
 AZIF.deg           166.490005:  Azm, Final 
 BHAT.               Mud Motor:  BHA Type 
 BROT.°/100'          0.030000:  Build Rotating 
 BS  .in              8.375000:  Bit Size 
 BSZ .in              8.375000:  Bit Size 
 BTPL.psig          415.000000:  Bit Press Loss 
 CABU.                      No:  Customer Abuse 
 CGEO.             Carey Mills:  Customer Geo 
 COMM.                     ÜhT:  Run Comments 1 
 TCS .hr             21.141129:  Time Ciculation Ended 
 CV  .fpm           564.000000:  Crit Velocity 
 CVMX.fpm           702.000000:  Max Crit Veloc 
 DD1 .     Mohamed Gayed Barakat:  Direct Drillr 1 
 DDSV.               Mud Motor:  DD Service 
 DEFF.%              98.000000:  % Det Eff 
 DLRX.°/100'          0.100000:  Dogleg Rot Max 
 DLSO.°/100'          0.070000:  Dogleg Oriented 
 DLSX.°/100'          0.100000:  Dogleg Str Max 
 DRET.      23.59.00 10-Aug-20:  Drill End Time 
 DRST.      15.30.00 10-Aug-20:  Drill Start Tim 
 DTIM.hr              4.412436:  Time Drilling 
 EDEP.ft          15118.000000:  End Depth 
 ENG1.             Ahmed Aleem:  Engineer 1 
 ETIM.      16.00.00 11-Aug-20:  End Time 
 FLOI.gpm           550.000000:  Flow In 
 FLON.gpm           499.999969:  Flow In Min 
 FLOS.mptm            3.000000:  Fluid Loss 
 FLOX.gpm           550.000000:  Flow In Max 
 DFT .                 Polymer:  Mud Type 
 HFLO.                      No:  High Flow 
 HPRE.                      No:  High Pressure 
 HTEM.                      No:  High Temp 
 HYDO.ft              0.000000:  Hydro Offset 
 IFIN.deg             1.530000:  Inc, Final 
 IMAX.deg             1.590000:  Inc Max 
 IMIN.deg             1.560000:  Inc Min 
 IMND.ft          14992.000000:  Inc Min Depth 
 IMXD.ft          14895.000000:  Inc Max Depth 
 JARR.                      No:  Jarring 
 LETM.      23.59.00 10-Aug-20:  Log End Time 
 LOST.hr                    42:  Lost Rig Time 
 LSTM.      11.00.00 10-Aug-20:  Log Start Time 
 MDCL.ppm        140000.000000:  Mud Chlorides 
 MDES.             Fresh Water:  Mud Desc 
 DFD .ppg            12.000000:  Mud Density 
 MDMN.ppg            12.000000:  Dens Mud Min 
 MDMX.ppg            12.000000:  Dens Mud Max 
 PH  .pH             10.000000:  Mud pH 
 MOWR.                    0 83:  Run Mud OWR 
 MSND.                       0:  Run Mud Sand % 
 MSOL.                      17:  Run Mud Solids% 
 MTV .                GeoForce:  Motor Variant 
 DFV .spqt           50.000000:  Mud Viscosity 
 MWOD.in              6.900000:  MWD Tool OD 
 MWSI.                     Yes:  Serv Intrp, MWD 
 OTIM.hr             49.000000:  Time Operating 
 PMAX.psig        10491.233398:  Press Op, Max 
 PV  .cP             22.000000:  Mud PV 
 RMS .ohmm            0.022000:  Mud Resistivity 
 RMCS.ohmm            0.033000:  Mud Cake Resistivity 
 MCST.degF          212.000000:  Mud Cake Sample Temperature 
 RMFS.ohmm            0.020000:  Mud Filtrate Resistivity 
 RMFT.degF          212.000000:  Mud Filtrate Sample Temperature 
 RMMT.ohmm            0.018000:  Rm @ Max Temp 
 MST .degF          212.000000:  Mud Sample Temperature 
 RUN .                    4200:  Run Number 
 ROPA.fph            20.629999:  ROP Avg 
 ROPN.fph            20.000000:  ROP Min 
 ROPX.fph            31.250002:  ROP Max 
 RPMA.rpm            90.000000:  RPM Surface Avg 
 RPMN.rpm            90.000000:  RPM Surface Min 
 RPMX.rpm            90.000000:  RPM Surface Max 
 RRUN.                    4200:  Rig Run Number 
 RTIM.hr              8.500000:  Time Reaming 
 SAZI.deg           168.300003:  Azm, Start 
 SDEP.ft          14972.500000:  Start Depth 
 SIDD.                      No:  Serv Intrp, DD 
 SINC.deg             1.570000:  Inc, Start 
 SPPA.psig         3000.000000:  SPP Avg 
 SPPN.psig         3000.000000:  SPP Min 
 SPPX.psig         3000.000000:  SPP Max 
 STIM.      21.30.00 09-Aug-20:  Start Time 
 SVCS.                 DD, MWD:  Services 
 SVER.                9.200000:  Sperry Version 
 TDAT.ft            348.000000:  Tot Depth Attmp 
 TDDF.                      No:  Trip for DD 
 TDLG.ft            145.500000:  Tot Depth Loggd 
 TFF .                     Yes:  Trip for Fail 
 TQAA.f-p            22.000000:  Torque Abs Avg 
 TQAN.f-p            22.000000:  Torque Abs Min 
 TQAX.f-p            22.000000:  Torque Abs Max 
 TRRT.°/100'          1.010000:  Turn Rotating 
 MRT .                     AFR:  Maximum Recorded Temperature 
 TTMX.degF          260.000000:  Max Tool Temp 
 VS01.     AD90608221 H7V5WCOF1 (6):  Virtual Str1 SN 
 VS02.     90608207 R11GV2CO (6):  Virtual Str2 SN 
 WBMN.klb            15.000000:  WOB Min 
 WITN.         Ricardo Vasquez:  Customer Rep 
 WOBA.klb            17.500000:  WOB Avg 
 WOBX.klb            20.000000:  WOB Max 
 YP  .lhf2           35.000000:  Yield Point 
~Curve Information Block
#MNEM.UNIT                 API CODE     Curve Description
#---------               -----------    ---------------------------
 DEPT.F                 00 000 000 000:  Depth
 RPTVD.ft               00 000 000 000:  ROP True Vertical Depth
 ROPA.fph               00 000 000 000:  Avg Rate of Penetration
 DGRCC.api              00 000 000 000:  DGR Comb Gamma Ray BCorr
 ALHSI.in               00 000 000 000:  ALD Hole Size Indicator
 ABR .ohmm              00 000 000 000:  At-Bit Resistivity
 AFXT.hr                00 000 000 000:  AFR Form Exp Time
 RM  .ohmm              00 000 000 000:  AFR Medium Avg Res
 RS  .ohmm              00 000 000 000:  AFR Shallow Avg Res
 RD  .ohmm              00 000 000 000:  AFR Deep Avg Res
 TNPL.pu                00 000 000 000:  CTN Porosity Limestone
 ALCDLC.g/cc            00 000 000 000:  ALD LCRB Comp Density
 ALDCLC.g/cc            00 000 000 000:  ALD LCRB Den Correction
 ALPELC.                00 000 000 000:  ALD LCRB Pe Factor
#Other Information
#
#WARRANTY: Halliburton will use its best efforts to furnish customers with 
#accurate information and interpretations that are part of, and incident to, the services 
#provided.  However, Halliburton cannot and does not warrant the accuracy 
#or correctness of such information and interpretations.  Under no circumstances should any 
#such information or interpretation be relied upon as the sole basis for any drilling, 
#completion, production, or financial decision or any procedure involving any risk to the 
#safety of any drilling venture, drilling rig or its crew or any other third party.  The 
#Customer has full responsibility for all drilling, completion and production operation.  
#Halliburton makes no representations or warranties, either expressed or 
#implied, including, but not limited to, the implied warranties of merchantability or fitness 
#for a particular purpose, with respect to the services rendered.  In no event will 
#Halliburton be liable for failure to obtain any particular results or for 
#any damages, including, but not limited to, indirect, special or consequential damages, 
#resulting from the use of any information or interpretation provided by Halliburton.
#
~A    DEPT      RPTVD      ROPA      DGRCC     ALHSI      ABR      AFXT        RM        RS         RD       TNPL     ALCDLC    ALDCLC    ALPELC   
# ...
   15052.5000  -999.2500 -999.2500   35.2225    8.4174   84.1621  299.2755    66.6853   38.3462   112.7922    5.1702    2.8331    0.0087    5.2532
   15053.0000  -999.2500 -999.2500   37.3745    8.4580   81.2762  299.2639    87.5947   50.5694   139.7639    4.6808    2.8627    0.0174    5.3593
   15053.5000  -999.2500 -999.2500   42.4884    8.4181   81.1377  299.2480   102.7982   62.2509   167.0668    4.6751    2.8414    0.0089    5.0918
   15054.0000  -999.2500 -999.2500   34.9531    8.4388   86.1778  299.2320    99.9319   63.4003   178.4447    4.7154    2.8392    0.0131    4.9921
   15054.5000  -999.2500 -999.2500   33.5979    8.4396   93.1987  299.2206    85.3226   58.7512   159.7319    4.5928    2.8232    0.0130    4.9835
   15055.0000  -999.2500 -999.2500   27.2732    8.4285   96.7455  299.2101    72.1112   54.6447   131.2260    4.5311    2.8044    0.0106    5.0969
   15055.5000  -999.2500 -999.2500   21.8344    8.3828   97.8273  299.1996    72.7510   57.2143   126.2446    4.5313    2.8118    0.0005    4.6715
   15056.0000  -999.2500 -999.2500   25.2718    8.3750  100.7881  299.1892    96.7520   71.8399   164.9893    4.6306    2.8014   -0.0087    4.6499
   15056.5000  -999.2500 -999.2500   23.4104    8.3834  102.9004  299.1789   172.1370  114.0461   309.6761    5.0808    2.8230   -0.0025    5.0358
   15057.0000  -999.2500 -999.2500   27.1095    8.4109  104.6233  299.1684   237.2257  154.0043   441.8055    5.5815    2.8198    0.0069    4.7272
   15057.5000  -999.2500 -999.2500   31.5827    8.3893  105.3352  299.1580    91.4616   69.5625   161.3590    5.9215    2.7548   -0.0031    4.3209
   15058.0000  -999.2500 -999.2500   36.0528    8.4245  105.8324  299.1474    58.3335   45.7566   104.1408    6.8141    2.7648    0.0053    5.0441
   15058.5000  -999.2500 -999.2500   38.0543    8.4714  105.1322  299.1371    82.7372   57.9642   159.6805    6.8504    2.7811    0.0132    5.0041
   15059.0000  -999.2500 -999.2500   42.2201    8.3873  102.4249  299.1266    55.4192   38.5790    97.2257    6.9760    2.7127   -0.0032    4.7676
   15059.5000  -999.2500 -999.2500   51.1949    8.3750   99.1939  299.1160    34.9622   23.8378    52.1756    7.7503    2.6835   -0.0075    4.9309
   15060.0000  -999.2500 -999.2500   47.4545    8.3750   98.1337  299.1057    59.7335   31.0619    86.1632    6.7726    2.7238   -0.0130    4.8666
   15060.5000  -999.2500 -999.2500   36.5141    8.3750   99.9888  299.0954   126.1773   50.0031   203.2671    6.6664    2.7784   -0.0056    4.9306
   15061.0000  -999.2500 -999.2500   45.3950    8.3750  101.7587  299.0851    60.0108   33.8328    95.9015    6.2670    2.7424   -0.0074    5.1222
   15061.5000  -999.2500 -999.2500   61.4095    8.3750  103.5533  299.0745    17.3308   15.0098    23.5119    7.7294    2.6914   -0.0145    5.0430
   15062.0000  -999.2500 -999.2500   50.9543    8.3754  104.6967  299.0640    15.8091   13.9775    20.7140    8.6321    2.7344   -0.0177    4.6949
   15062.5000  -999.2500 -999.2500   34.0390    8.3790  105.2444  299.0536    46.1085   29.1617    67.2685    7.2790    2.7852   -0.0010    4.6943
   15063.0000  -999.2500 -999.2500   37.9433    8.3779  105.7227  299.0431    85.6074   42.3041   135.0620    6.2703    2.7597   -0.0017    4.5576
   15063.5000  -999.2500 -999.2500   41.6925    8.3752  106.4932  299.0327    45.1560   28.1775    69.6857    6.9676    2.7098   -0.0075    4.6649
   15064.0000  -999.2500 -999.2500   40.0423    8.3750  107.7265  299.0222    32.8574   25.0493    53.1607    7.6014    2.7185   -0.0072    5.0976
   15064.5000  -999.2500 -999.2500   34.4175    8.3757  108.2261  299.0120    62.4785   46.1126   126.1336    5.9788    2.7869   -0.0063    4.9347
   15065.0000  -999.2500 -999.2500   40.5319    8.3827  108.6153  299.0014   163.7311   93.7672   409.2831    4.7377    2.8263    0.0009    4.7248
   15065.5000  -999.2500 -999.2500   45.5743    8.3792  108.6507  298.9909   138.1187   76.6760   292.3224    5.6981    2.7924    0.0004    4.7109
   15066.0000  -999.2500 -999.2500   39.5970    8.3753  107.6184  298.9806    59.6717   39.0380    93.9777    5.8311    2.7567   -0.0060    4.8746
   15066.5000  -999.2500 -999.2500   33.2394    8.3768  106.9989  298.9705    51.5960   36.4863    76.1440    6.4315    2.7583   -0.0109    4.5908
   15067.0000  -999.2500 -999.2500   33.0422    8.3792  106.6062  298.9605    50.7751   37.8548    74.7171    5.9202    2.7657    0.0006    4.7741
   15067.5000  -999.2500 -999.2500   30.4627    8.3750  106.6898  298.9528    46.5791   34.9997    68.0932    5.8754    2.7641    0.0023    5.0396
   15068.0000  -999.2500 -999.2500   34.1024    8.3776  107.1695  298.9454    71.7458   49.6949   106.3390    6.0084    2.7864   -0.0032    4.9596
   15068.5000  -999.2500 -999.2500   41.6535    8.4031  107.9256  298.9380   115.9707   72.6642   189.5581    4.8019    2.8181    0.0056    4.8520
   15069.0000  -999.2500 -999.2500   41.1650    8.3963  109.3895  298.9300   117.7896   76.0003   218.7614    4.8264    2.7970    0.0036    4.6408
   15069.5000  -999.2500 -999.2500   36.7315    8.3769  110.6191  298.9222   110.1998   72.1807   215.1251    5.0821    2.7805   -0.0046    4.6621
   15070.0000  -999.2500 -999.2500   27.2529    8.3780  111.0610  298.9144   123.8132   75.6125   239.2095    5.0641    2.8010   -0.0039    4.7280
   15070.5000  -999.2500 -999.2500   30.3841    8.3950  110.9004  298.9069   123.3566   71.8539   218.6833    5.3040    2.7910    0.0039    4.8408
   15071.0000  -999.2500 -999.2500   35.4714    8.4086  110.7073  298.8996    90.4189   55.6098   143.6309    5.4944    2.7667    0.0064    5.0999
   15071.5000  -999.2500 -999.2500   34.5020    8.3867  110.3155  298.8932    60.3600   42.5629    88.8801    5.7495    2.7651    0.0022    5.0218
   15072.0000  -999.2500 -999.2500   30.2834    8.3763  110.0231  298.8870    50.0733   38.5884    71.8218    5.8618    2.7640    0.0001    4.8509
   15072.5000  -999.2500 -999.2500   30.8742    8.3751  109.8151  298.8807    60.0606   44.5795    87.2402    5.1604    2.7735    0.0096    5.0045
   15073.0000  -999.2500 -999.2500   29.6296    8.3865  109.3783  298.8744    82.8663   55.7279   122.9242    5.4317    2.7791    0.0346    5.7005
   15073.5000  -999.2500 -999.2500   29.2454    8.4023  109.0713  298.8682    99.1941   64.9543   147.8825    5.5715    2.7804    0.0047    5.0740
   15074.0000  -999.2500 -999.2500   28.5930    8.3803  108.2867  298.8620   117.6960   78.3394   182.7142    5.3182    2.7787    0.0004    4.9513
   15074.5000  -999.2500 -999.2500   23.8226    8.3772  107.6587  298.8555   147.5561  101.6765   255.5863    5.1363    2.7950    0.0011    4.8719
   15075.0000  -999.2500 -999.2500   27.7746    8.3765  107.4325  298.8494   136.7659  106.4891   255.7040    4.8413    2.7923    0.0025    5.0971
   15075.5000  -999.2500 -999.2500   33.2202    8.3923  107.3570  298.8431    90.4159   81.7735   160.5739    4.8977    2.8182    0.0031    5.0232
   15076.0000  -999.2500 -999.2500   39.7253    8.4072  108.9554  298.8368    90.4132   78.6756   151.2855    4.7298    2.8224    0.0065    4.9998
   15076.5000  -999.2500 -999.2500   57.0034    8.4025  109.1878  298.8304   133.7973   90.9726   218.1398    4.7016    2.8215    0.0055    4.9255
   15077.0000  -999.2500 -999.2500   61.2446    8.4156  109.6789  298.8240   152.1577   86.3028   249.3529    4.9678    2.8104    0.0080    4.9287
   15077.5000  -999.2500 -999.2500   79.8559    8.3916  109.9328  298.8178   121.9698   70.0388   200.4593    5.1040    2.7511    0.0017    4.8196
   15078.0000  -999.2500 -999.2500   97.0138    8.3750  110.3773  298.8115    83.3032   53.8227   133.7634    6.0931    2.7257   -0.0067    4.7856
   15078.5000  -999.2500 -999.2500   60.6403    8.3750  110.7698  298.8051    68.4787   45.2847   108.3770    6.9179    2.7195   -0.0110    4.7411
   15079.0000  -999.2500 -999.2500   52.2044    8.3779  110.6367  298.7990    92.0566   52.8485   154.5856    7.1177    2.7628   -0.0066    4.7805
   15079.5000  -999.2500 -999.2500   47.8017    8.3971  110.5651  298.7929   155.9579   73.5367   302.7727    6.8011    2.8026    0.0038    4.7854
