~Version Information
 VERS.                  2.0:   CWLS log ASCII Standard -VERSION 2.0
 WRAP.                   NO:   One line per depth step
~Well Information Block
#MNEM.UNIT     VALUE/NAME     DESCRIPTION
#---------     -----------    ---------------------------
 STRT.F             14200.0000: START DEPTH
 STOP.F             16770.0000: STOP DEPTH
 STEP.F                 0.5000: STEP DEPTH
 NULL.               -999.2500: NULL VALUE
 UNIT.                12318515:  LOGGING EQUIPMENT ID
 CNTY.             HAIR DALMAH:  COUNTY NAME
 JOBN.        AD-XX-0905995035:  JOB TICKET NUMB
 FLD .             HAIR DALMAH:  FIELD NAME
 PDAT.          Mean Sea Level:  PERMANENT DATUM
 RIG .                     PN8:  RIG NAME
 MWDS.                    ICAD:  MWD SHOP
 CTRY.     United Arab Emirates:  COUNTRY NAME
 REGN.     Middle East/North Africa:  REGION
 BASE.               Abu Dhabi:  LOGGING EQUIPMENT BASE LOCATION
 WTYP.                Vertical:  WELL TYPE
 XYGR.     UTM Zones, Northern Hemisphere, Meters:  XYGROUP
 LLGR.      Latitude/Longitude:  LLGROUP
 MDS .              Win MagUTM:  MAG DATA SOURCE
 MMDD.       05 December, 2019:  MAG DATA DATE
 MMDL.            bggm2019.dat:  MAGNETIC MODEL
 CREF.     Ellipsoid Clarke - 1880:  CART REFERENCE
 GREF.     Ellipsoid World Geodetic System :  GEO REFERENCE
 CGSY.               SS CLRK51:  CART GRID SYS
 GGSY.                      LL:  GEO GRID SYS
 CCDE.     UTM Clarke 1880 (CM 51), Meters:  CART COORD DESC
 GCDE.     Generic Lat/Long's, Degrees, -180 ==> +180:  GEO COORD DESC
 SON .        AD-XX-0905995035:  JOB NUMBER
 COMP.          ADNOC Offshore:  COMPANY
 WELL.               HD011-02D:  WELL NAME
 FTOP.          Formation Tops:  FORM TOPS DESC
 ILTD.               Lithology:  INTERP LTH DESC
 SVYD.                  Survey:  SURVEY DESC
 DMOD.             Drill Model:  DRILL MOD DESC
 HPTY.       Minimum Curvature:  HOLE POS TYPE
 NREF.                    Grid:  NORTH REFERENCE
 SPUD.               17-Feb-20:  SPUD DATE
 DATE.      21.00.00 29-Aug-20:  END TIME
 STIM.      12.00.00 26-Jul-20:  START TIME
 DMF .             Drill Floor:  DRILL MEAS FROM
 DFST.                        :  DIST FSL TEXT
 DFWT.                        :  DIST FWL TEXT
 PROV.               Abu Dhabi:  PROVINCE
 STAT.               Abu Dhabi:  STATE NAME
 API .                        :  API NUMBER
 SRVC.             Halliburton:  SERVICE COMPANY
 UWI .                        :  UNIQUE WELL IDENTIFIER
 LOC .                        :  LOCATION
 LMF .             Drill Floor:  LOG MEASURED FROM
 DEP .ft              0.000000:  DEPTH
 AGAP.ft            118.000000:  AIR GAP
 CMER.deg            51.000000:  CENTRL MERIDIAN
 MMDE.ft              0.000000:  MAGUTM CALC DEP
 APD .ft            118.000000:  DEPTH ABOVE PD
 WDMS.ft             65.000000:  WD ELEV
 EGL .ft              0.000000:  GROUND ELEVATION
 EPD .ft              0.000000:  ELEVATION
 AZTC.deg             1.750428:  AZM TOTAL CORR
 GRDC.deg             0.592532:  GRID CORRECTION
 MDEC.deg             2.342959:  MAGNETIC DECL
 MDIP.deg            38.394272:  MAGNETIC DIP
 MFLD.nT          43612.476563:  MAGNETIC FIELD
 GVFD.g               1.000000:  GRAVITY FIELD
 VSDR.deg            91.860001:  VERT SEC DIRECT
 TDD .ft          16770.000000:  TOTAL DEPTH (DRILLER)
 SDEP.ft          14436.000000:  START DEPTH
 DFSL.ft              0.000000:  DISTANCE FSL
 DFWL.ft              0.000000:  DISTANCE FWL
 UTMY.m         2710911.810000:  UTM Y
 UTMX.m          644702.250000:  UTM X
 WHEW.ft              0.000000:  WELL HEAD E/W
 WHNS.ft              0.000000:  WELL HEAD N/S
 LONG.deg            52.428197:  LONGITUDE
 LATI.deg            24.507246:  LATITUDE
 TVDS.ft            118.000000:  TVDSS CORRECTN
 EKB .ft            118.000000:  KB ELEVATION
 EDF .ft            118.000000:  DF ELEVATION
 MAGU.                 1512580:  MAGUTM CHECKSUM
 VSC .                       0:  VS TO CLOSURE
~Parameter Information Block
#MNEM.UNIT       Value        Description
#---------     -----------    ---------------------------
 AV  .fpm           484.999969:  Ann Velocity 
 AVMX.fpm           969.999939:  Max Ann Veloc 
 AZIF.deg           166.490005:  Azm, Final 
 BHAT.               Mud Motor:  BHA Type 
 BROT.°/100'          0.030000:  Build Rotating 
 BS  .in              8.375000:  Bit Size 
 BSZ .in              8.375000:  Bit Size 
 BTPL.psig          415.000000:  Bit Press Loss 
 CABU.                      No:  Customer Abuse 
 CGEO.             Carey Mills:  Customer Geo 
 COMM.                     ÜhT:  Run Comments 1 
 TCS .hr             21.141129:  Time Ciculation Ended 
 CV  .fpm           564.000000:  Crit Velocity 
 CVMX.fpm           702.000000:  Max Crit Veloc 
 DD1 .     Mohamed Gayed Barakat:  Direct Drillr 1 
 DDSV.               Mud Motor:  DD Service 
 DEFF.%              98.000000:  % Det Eff 
 DLRX.°/100'          0.100000:  Dogleg Rot Max 
 DLSO.°/100'          0.070000:  Dogleg Oriented 
 DLSX.°/100'          0.100000:  Dogleg Str Max 
 DRET.      23.59.00 10-Aug-20:  Drill End Time 
 DRST.      15.30.00 10-Aug-20:  Drill Start Tim 
 DTIM.hr              4.412436:  Time Drilling 
 EDEP.ft          15118.000000:  End Depth 
 ENG1.             Ahmed Aleem:  Engineer 1 
 ETIM.      16.00.00 11-Aug-20:  End Time 
 FLOI.gpm           550.000000:  Flow In 
 FLON.gpm           499.999969:  Flow In Min 
 FLOS.mptm            3.000000:  Fluid Loss 
 FLOX.gpm           550.000000:  Flow In Max 
 DFT .                 Polymer:  Mud Type 
 HFLO.                      No:  High Flow 
 HPRE.                      No:  High Pressure 
 HTEM.                      No:  High Temp 
 HYDO.ft              0.000000:  Hydro Offset 
 IFIN.deg             1.530000:  Inc, Final 
 IMAX.deg             1.590000:  Inc Max 
 IMIN.deg             1.560000:  Inc Min 
 IMND.ft          14992.000000:  Inc Min Depth 
 IMXD.ft          14895.000000:  Inc Max Depth 
 JARR.                      No:  Jarring 
 LETM.      23.59.00 10-Aug-20:  Log End Time 
 LOST.hr                    42:  Lost Rig Time 
 LSTM.      11.00.00 10-Aug-20:  Log Start Time 
 MDCL.ppm        140000.000000:  Mud Chlorides 
 MDES.             Fresh Water:  Mud Desc 
 DFD .ppg            12.000000:  Mud Density 
 MDMN.ppg            12.000000:  Dens Mud Min 
 MDMX.ppg            12.000000:  Dens Mud Max 
 PH  .pH             10.000000:  Mud pH 
 MOWR.                    0 83:  Run Mud OWR 
 MSND.                       0:  Run Mud Sand % 
 MSOL.                      17:  Run Mud Solids% 
 MTV .                GeoForce:  Motor Variant 
 DFV .spqt           50.000000:  Mud Viscosity 
 MWOD.in              6.900000:  MWD Tool OD 
 MWSI.                     Yes:  Serv Intrp, MWD 
 OTIM.hr             49.000000:  Time Operating 
 PMAX.psig        10491.233398:  Press Op, Max 
 PV  .cP             22.000000:  Mud PV 
 RMS .ohmm            0.022000:  Mud Resistivity 
 RMCS.ohmm            0.033000:  Mud Cake Resistivity 
 MCST.degF          212.000000:  Mud Cake Sample Temperature 
 RMFS.ohmm            0.020000:  Mud Filtrate Resistivity 
 RMFT.degF          212.000000:  Mud Filtrate Sample Temperature 
 RMMT.ohmm            0.018000:  Rm @ Max Temp 
 MST .degF          212.000000:  Mud Sample Temperature 
 RUN .                    4200:  Run Number 
 ROPA.fph            20.629999:  ROP Avg 
 ROPN.fph            20.000000:  ROP Min 
 ROPX.fph            31.250002:  ROP Max 
 RPMA.rpm            90.000000:  RPM Surface Avg 
 RPMN.rpm            90.000000:  RPM Surface Min 
 RPMX.rpm            90.000000:  RPM Surface Max 
 RRUN.                    4200:  Rig Run Number 
 RTIM.hr              8.500000:  Time Reaming 
 SAZI.deg           168.300003:  Azm, Start 
 SDEP.ft          14972.500000:  Start Depth 
 SIDD.                      No:  Serv Intrp, DD 
 SINC.deg             1.570000:  Inc, Start 
 SPPA.psig         3000.000000:  SPP Avg 
 SPPN.psig         3000.000000:  SPP Min 
 SPPX.psig         3000.000000:  SPP Max 
 STIM.      21.30.00 09-Aug-20:  Start Time 
 SVCS.                 DD, MWD:  Services 
 SVER.                9.200000:  Sperry Version 
 TDAT.ft            348.000000:  Tot Depth Attmp 
 TDDF.                      No:  Trip for DD 
 TDLG.ft            145.500000:  Tot Depth Loggd 
 TFF .                     Yes:  Trip for Fail 
 TQAA.f-p            22.000000:  Torque Abs Avg 
 TQAN.f-p            22.000000:  Torque Abs Min 
 TQAX.f-p            22.000000:  Torque Abs Max 
 TRRT.°/100'          1.010000:  Turn Rotating 
 MRT .                     AFR:  Maximum Recorded Temperature 
 TTMX.degF          260.000000:  Max Tool Temp 
 VS01.     AD90608221 H7V5WCOF1 (6):  Virtual Str1 SN 
 VS02.     90608207 R11GV2CO (6):  Virtual Str2 SN 
 WBMN.klb            15.000000:  WOB Min 
 WITN.         Ricardo Vasquez:  Customer Rep 
 WOBA.klb            17.500000:  WOB Avg 
 WOBX.klb            20.000000:  WOB Max 
 YP  .lhf2           35.000000:  Yield Point 
~Curve Information Block
#MNEM.UNIT                 API CODE     Curve Description
#---------               -----------    ---------------------------
 DEPT.F                 00 000 000 000:  Depth
 RPTVD.ft               00 000 000 000:  ROP True Vertical Depth
 ROPA.fph               00 000 000 000:  Avg Rate of Penetration
 DGRCC.api              00 000 000 000:  DGR Comb Gamma Ray BCorr
 ALHSI.in               00 000 000 000:  ALD Hole Size Indicator
 ABR .ohmm              00 000 000 000:  At-Bit Resistivity
 AFXT.hr                00 000 000 000:  AFR Form Exp Time
 RM  .ohmm              00 000 000 000:  AFR Medium Avg Res
 RS  .ohmm              00 000 000 000:  AFR Shallow Avg Res
 RD  .ohmm              00 000 000 000:  AFR Deep Avg Res
 TNPL.pu                00 000 000 000:  CTN Porosity Limestone
 ALCDLC.g/cc            00 000 000 000:  ALD LCRB Comp Density
 ALDCLC.g/cc            00 000 000 000:  ALD LCRB Den Correction
 ALPELC.                00 000 000 000:  ALD LCRB Pe Factor
#Other Information
#
#WARRANTY: Halliburton will use its best efforts to furnish customers with 
#accurate information and interpretations that are part of, and incident to, the services 
#provided.  However, Halliburton cannot and does not warrant the accuracy 
#or correctness of such information and interpretations.  Under no circumstances should any 
#such information or interpretation be relied upon as the sole basis for any drilling, 
#completion, production, or financial decision or any procedure involving any risk to the 
#safety of any drilling venture, drilling rig or its crew or any other third party.  The 
#Customer has full responsibility for all drilling, completion and production operation.  
#Halliburton makes no representations or warranties, either expressed or 
#implied, including, but not limited to, the implied warranties of merchantability or fitness 
#for a particular purpose, with respect to the services rendered.  In no event will 
#Halliburton be liable for failure to obtain any particular results or for 
#any damages, including, but not limited to, indirect, special or consequential damages, 
#resulting from the use of any information or interpretation provided by Halliburton.
#
~A    DEPT      RPTVD      ROPA      DGRCC     ALHSI      ABR      AFXT        RM        RS         RD       TNPL     ALCDLC    ALDCLC    ALPELC   
# ...
   14777.5000  -999.2500 -999.2500   31.9818    8.4350   38.8321  618.3269   220.1776  154.9839   371.4821    5.0008    2.8340    0.0122    6.4255
   14778.0000  -999.2500 -999.2500   27.7825    8.4301   38.7642  618.3213   230.9648  164.1920   416.6257    5.3391    2.8421    0.0113    5.4709
   14778.5000  -999.2500 -999.2500   31.9207    8.4635   38.7351  618.3159   231.0191  168.4782   414.9839    5.4656    2.8421    0.0181    5.6098
   14779.0000  -999.2500 -999.2500   23.9143    8.4787   38.8307  618.3118   216.7098  168.4472   362.7870    5.8236    2.8216    0.0208    5.2449
   14779.5000  -999.2500 -999.2500   23.9300    8.4736   39.0203  618.3065   131.4059  118.5079   191.8123    7.0838    2.8083    0.0197    5.0025
   14780.0000  -999.2500 -999.2500   49.7430    8.3787   38.5333  618.3010    90.1675   86.6228   121.7077    8.3139    2.7764   -0.0029    4.9841
   14780.5000  -999.2500 -999.2500   67.9964    8.3750   38.0515  618.2951   119.7968  102.4150   162.8567    7.9788    2.8036   -0.0040    4.9952
   14781.0000  -999.2500 -999.2500   63.0482    8.4652   39.2114  618.2889   124.4111  101.3974   167.0218    6.1130    2.8456    0.0184    5.5687
   14781.5000  -999.2500 -999.2500   41.5094    8.4591   42.0658  618.2826    80.4284   69.0121   101.8786    5.4274    2.8430    0.0173    5.6060
   14782.0000  -999.2500 -999.2500   28.4213    8.4451   44.8008  618.2765    93.9974   77.6152   119.2355    6.4429    2.8398    0.0143    5.2014
   14782.5000  -999.2500 -999.2500   20.8976    8.5477   45.7165  618.2682   131.1609  107.6051   175.0762    7.3117    2.8318    0.0346    5.4239
   14783.0000  -999.2500 -999.2500   23.7310    8.5133   46.0040  618.0214    87.3325   81.0357   114.6637    8.4924    2.8187    0.0278    5.5206
   14783.5000  -999.2500 -999.2500   39.3897    8.5163   46.2971  616.8452    82.4566   81.7985   107.4300   10.0829    2.8122    0.0282    5.4476
   14784.0000  -999.2500 -999.2500   54.0823    8.4586   46.5939  615.6676    83.3822   83.8861   111.1055    8.7754    2.7974    0.0166    5.3824
   14784.5000  -999.2500 -999.2500   69.5651    8.3844   47.1339  615.4186    85.7778   81.6040   116.2371    8.9629    2.7898    0.0010    5.3553
   14785.0000  -999.2500 -999.2500   77.6543    8.4542   49.8676  615.4091   141.9436  110.9534   203.2554    7.1194    2.8361    0.0161    5.3644
   14785.5000  -999.2500 -999.2500   56.6566    8.4929   52.9117  615.4014   167.2991  114.1205   256.0465    4.6020    2.8447    0.0231    5.3091
   14786.0000  -999.2500 -999.2500   17.0255    8.3861   54.8959  615.3939   144.1448   98.6405   230.5112    4.4259    2.8230   -0.0055    4.6960
   14786.5000  -999.2500 -999.2500   15.6168    8.3889   56.2720  615.3873   145.7656  101.1912   244.0664    4.5800    2.8330   -0.0036    4.7958
   14787.0000  -999.2500 -999.2500   20.0730    8.3870   58.3538  615.3809   156.2874  109.7509   273.4296    4.6696    2.8370    0.0011    4.8480
   14787.5000  -999.2500 -999.2500   22.9839    8.3772   60.5293  615.3747   161.0398  111.7987   279.5623    4.5933    2.8424   -0.0011    4.6642
   14788.0000  -999.2500 -999.2500   31.0474    8.4005   64.7602  615.3685   196.0681  130.3256   336.0522    4.8794    2.8510    0.0051    4.8843
   14788.5000  -999.2500 -999.2500   32.2438    8.4120   69.7904  615.3620   181.6797  123.1793   303.8010    4.8727    2.8494    0.0073    5.0230
   14789.0000  -999.2500 -999.2500   20.8581    8.3829   69.9148  615.3558   123.1945   93.0328   196.9118    4.3319    2.8395   -0.0005    5.0266
   14789.5000  -999.2500 -999.2500   13.3127    8.4133   69.4512  615.3495    92.9646   74.9767   145.8725    4.1237    2.8532    0.0078    5.0897
   14790.0000  -999.2500 -999.2500   14.8638    8.4368   69.4856  615.3432   102.3281   79.5295   162.9085    4.2240    2.8566    0.0129    5.0355
   14790.5000  -999.2500 -999.2500   19.6722    8.3964   69.1233  615.3367   130.2659   91.4978   210.6115    4.3704    2.8517    0.0045    5.0937
   14791.0000  -999.2500 -999.2500   21.3036    8.4239   69.6162  615.3304   143.9002   93.7103   236.1627    4.2542    2.8597    0.0103    5.3540
   14791.5000  -999.2500 -999.2500   20.8822    8.3922   73.4364  615.3242   145.7764   92.8236   249.5714    1.5735    2.8413    0.0026    5.2624
   14792.0000  -999.2500 -999.2500   18.2692    8.3807   76.1770  615.3179   133.0535   86.8602   239.6822    3.2492    2.8302   -0.0055    4.8945
   14792.5000  -999.2500 -999.2500   19.2300    8.3911   75.8955  615.3119   115.5158   78.0746   214.0948    3.7641    2.8419    0.0026    5.1059
   14793.0000  -999.2500 -999.2500   20.6790    8.3750   75.0212  615.3047   108.8970   72.0773   203.7594    3.9637    2.8524   -0.0014    4.7719
   14793.5000  -999.2500 -999.2500   18.4434    8.3892   73.8476  615.2938   107.8466   68.9483   199.6269    3.9798    2.8522    0.0019    4.9990
   14794.0000  -999.2500 -999.2500   16.1825    8.3957   73.5032  615.2781   105.2758   67.6104   189.8834    3.8950    2.8457    0.0043    4.9469
   14794.5000  -999.2500 -999.2500   15.8324    8.4377   73.5846  615.2477    97.6262   64.7530   174.3503    3.9708    2.8575    0.0125    5.2710
   14795.0000  -999.2500 -999.2500   20.7092    8.3821   73.6076  615.2177    88.6673   61.3612   161.1974    4.0508    2.8295   -0.0050    5.0023
   14795.5000  -999.2500 -999.2500   25.4652    8.3768   73.6311  615.2047    86.7022   60.2115   162.2650    4.3462    2.8383   -0.0043    4.7558
   14796.0000  -999.2500 -999.2500   21.9229    8.3818   73.4151  615.1966    86.7808   58.3892   165.5793    4.3820    2.8426    0.0008    4.9435
   14796.5000  -999.2500 -999.2500   18.4501    8.3958   74.3499  615.1899    83.1809   54.9440   158.0318    4.3102    2.8385    0.0038    5.0662
   14797.0000  -999.2500 -999.2500   20.9491    8.4064   90.2662  615.1836    78.2376   50.5244   150.0323    4.4075    2.8366    0.0064    5.3360
   14797.5000  -999.2500 -999.2500   20.9257    8.3918  100.4807  615.1767    76.8685   48.4990   163.7339    4.3039    2.8355    0.0034    5.3604
   14798.0000  -999.2500 -999.2500   18.2845    8.4259  100.8625  615.1700    72.3684   47.1510   180.9933    4.3135    2.8501    0.0106    5.7326
   14798.5000  -999.2500 -999.2500   19.3507    8.4537  101.0457  615.1636    56.9692   39.7031   155.4515    4.6547    2.8523    0.0158    5.6750
   14799.0000  -999.2500 -999.2500   23.7440    8.4150  101.5887  615.1573    54.0086   35.8919   140.6793    4.4304    2.8370    0.0015    5.0438
   14799.5000  -999.2500 -999.2500   18.7605    8.3783  101.9590  615.1509    64.0564   33.5892   142.5639    4.3746    2.8205   -0.0105    5.0006
   14800.0000  -999.2500 -999.2500   15.4127    8.3797  102.0411  615.1448    71.4015   29.4620   139.2065    4.6513    2.8182   -0.0015    5.4100
   14800.5000  -999.2500 -999.2500   15.8116    8.3981  102.1137  615.1387    73.6813   27.4617   135.2996    4.6655    2.8316    0.0047    5.4918
   14801.0000  -999.2500 -999.2500   15.7839    8.5326  102.2427  615.1326    53.8508   23.1242    95.7494    4.4221    2.8489    0.0323    7.1599
   14801.5000  -999.2500 -999.2500   14.7485    8.5434  102.0577  615.1261    32.7519   17.8517    57.4503    4.6416    2.8487    0.0344    7.2677
   14802.0000  -999.2500 -999.2500   16.0592    8.4499   98.7116  615.1200    35.0114   19.6970    62.7687    4.3953    2.8310    0.0152    6.2612
   14802.5000  -999.2500 -999.2500   11.2168    8.4294   96.3914  615.1138    63.8189   30.7741   123.1177    4.7468    2.8456    0.0112    5.3853
   14803.0000  -999.2500 -999.2500   15.3451    8.4238   96.3685  615.1077    95.7742   42.8995   196.2856    5.6019    2.8451    0.0091    5.1534
   14803.5000  -999.2500 -999.2500   21.9287    8.3764   96.4698  615.1016   112.5724   56.8127   239.7190    5.0100    2.8228   -0.0040    4.8439
   14804.0000  -999.2500 -999.2500   20.9209    8.3845   96.0681  615.0953   114.0994   69.3128   262.8768    4.2775    2.8392   -0.0007    4.9542
   14804.5000  -999.2500 -999.2500   17.4171    8.3759   95.9837  615.0890   105.6432   74.2369   259.7824    4.1790    2.8325   -0.0098    4.7750
