~Version Information
 VERS.                  2.0:   CWLS log ASCII Standard -VERSION 2.0
 WRAP.                   NO:   One line per depth step
~Well Information Block
#MNEM.UNIT     VALUE/NAME     DESCRIPTION
#---------     -----------    ---------------------------
 STRT.M              5223.0528: START DEPTH
 STOP.M              5536.2348: STOP DEPTH
 STEP.M                 0.1524: STEP DEPTH
 NULL.               -999.2500: NULL VALUE
 DFWT.                        :  DIST FWL TEXT
 DFST.                        :  DIST FSL TEXT
 DMF .             Drill Floor:  DRILL MEAS FROM
 STIM.      11.30.00 09-Jul-16:  START TIME
 DATE.      11.29.04 14-Aug-16:  END TIME
 SPUD.               17-Aug-15:  SPUD DATE
 NREF.                    Grid:  NORTH REFERENCE
 HPTY.       Minimum Curvature:  HOLE POS TYPE
 DMOD.             Drill Model:  DRILL MOD DESC
 SVYD.                  Survey:  SURVEY DESC
 ILTD.               Lithology:  INTERP LTH DESC
 FTOP.          Formation Tops:  FORM TOPS DESC
 WELL.              AF011-3D-1:  WELL NAME
 COMP.               TOTAL-ABK:  COMPANY
 SON .        AD-XX-0902156848:  JOB NUMBER
 GCDE.     Generic Lat/Long's, Degrees, -180 ==> +180:  GEO COORD DESC
 CCDE.     UTM Clarke 1880 (CM 51), Meters:  CART COORD DESC
 GGSY.                      LL:  GEO GRID SYS
 CGSY.               SS CLRK51:  CART GRID SYS
 GREF.     Ellipsoid World Geodetic System :  GEO REFERENCE
 CREF.     Ellipsoid Clarke - 1880:  CART REFERENCE
 MMDL.            bggm2016.dat:  MAGNETIC MODEL
 MMDD.            20 May, 2016:  MAG DATA DATE
 MDS .              Win MagUTM:  MAG DATA SOURCE
 LLGR.      Latitude/Longitude:  LLGROUP
 XYGR.     UTM Zones, Northern Hemisphere, Meters:  XYGROUP
 PDAT.          Mean Sea Level:  PERMANENT DATUM
 WTYP.                Deviated:  WELL TYPE
 BASE.               Abu Dhabi:  LOGGING EQUIPMENT BASE LOCATION
 REGN.     Middle East/North Africa:  REGION
 PROV.               Abu Dhabi:  PROVINCE
 STAT.               Abu Dhabi:  STATE NAME
 CTRY.     United Arab Emirates:  COUNTRY NAME
 FLD .         Abu Al Bukhoosh:  FIELD NAME
 SRVC.                  SAIPEM:  CONTRACTOR
 MWDS.                Musaffah:  MWD SHOP
 RIG .           Perro Negro 8:  RIG NAME
 CNTY.               Abu Dhabi:  COUNTY NAME
 DCON.             HALLIBURTON:  DIRECTNL CONTR
 UNIT.                    9804:  LOGGING EQUIPMENT ID
 DOE .        AD-XX-0902156848:  DOE NUMBER
 API .                        :  API NUMBER
 UWI .                        :  UNIQUE WELL IDENTIFIER
 LOC .                        :  LOCATION
 LMF .             Drill Floor:  LOG MEASURED FROM
 TVDS.m              43.899999:  TVDSS CORRECTN
 LATI.deg            25.504513:  LATITUDE
 LONG.deg            53.120396:  LONGITUDE
 WHNS.m               0.000000:  WELL HEAD N/S
 WHEW.m               0.000000:  WELL HEAD E/W
 UTMX.m          713123.300043:  UTM X
 UTMY.m         2822281.299893:  UTM Y
 DFWL.m               0.000000:  DISTANCE FWL
 DFSL.m               0.000000:  DISTANCE FSL
 SDEP.m            5253.990000:  START DEPTH
 TDD .m            5543.669658:  TOTAL DEPTH (DRILLER)
 VSDR.deg           249.940002:  VERT SEC DIRECT
 GVFD.g               1.000000:  GRAVITY FIELD
 MFLD.nT          43940.839844:  MAGNETIC FIELD
 MDIP.deg            39.918472:  MAGNETIC DIP
 MDEC.deg             2.250056:  MAGNETIC DECL
 GRDC.deg             0.913350:  GRID CORRECTION
 AZTC.deg             1.336706:  AZM TOTAL CORR
 EPD .m               0.000000:  ELEVATION
 EGL .m             -45.400001:  GROUND ELEVATION
 WDMS.m              45.400001:  WD ELEV
 APD .m              43.899999:  DEPTH ABOVE PD
 MMDE.m               0.000000:  MAGUTM CALC DEP
 CMER.deg            51.000000:  CENTRL MERIDIAN
 AGAP.m              23.099999:  AIR GAP
 EKB .m              43.899999:  KB ELEVATION
 EDF .m              43.899999:  DF ELEVATION
 VSC .                       0:  VS TO CLOSURE
 MAGU.                 1527179:  MAGUTM CHECKSUM
~Parameter Information Block
#MNEM.UNIT       Value        Description
#---------     -----------    ---------------------------
 AV  .mps             1.500000:  Ann Velocity 
 AVMX.mps             2.400000:  Max Ann Veloc 
 AZIF.deg           257.739990:  Azm, Final 
 BHAT.                 Turbine:  BHA Type 
 BROT.°/100'          0.000000:  Build Rotating 
 BS  .in              8.500000:  Bit Size 
 BSZ .in              8.500000:  Bit Size 
 BTPL.psig           43.511005:  Bit Press Loss 
 CABU.                      No:  Customer Abuse 
 TCS .hr            149.515671:  Time Ciculation Ended 
 CV  .mps             3.000000:  Crit Velocity 
 CVMX.mps             4.000000:  Max Crit Veloc 
 DD1 .            Ahmed Bayoud:  Direct Drillr 1 
 DD2 .        Hany Abdel Hafez:  Direct Drillr 2 
 DDSV.                 Turbine:  DD Service 
 DEFF.%              98.000000:  % Det Eff 
 DLRX.°/100'          0.000000:  Dogleg Rot Max 
 DLSO.°/100'          0.000000:  Dogleg Oriented 
 DLSX.°/100'          0.000000:  Dogleg Str Max 
 DRET.      12.28.32 23-Jun-16:  Drill End Time 
 DRST.      14.30.00 17-Jun-16:  Drill Start Tim 
 DTIM.hr            102.349998:  Time Drilling 
 EDEP.m            5254.000000:  End Depth 
 ENG1.         Ahmed Montasser:  Engineer 1 
 ENG2.              Do Dang Sa:  Engineer 2 
 ENG3.           Khaled Khalaf:  Engineer 3 
 ENG4.         Muhammad Mubeen:  Engineer 4 
 ETIM.      05.40.54 26-Jun-16:  End Time 
 FLOI.lpm          1800.000122:  Flow In 
 FLON.lpm          1500.000000:  Flow In Min 
 FLOS.lpm             0.000000:  Fluid Loss 
 FLOX.lpm          1800.000122:  Flow In Max 
 DFT .                   Other:  Mud Type 
 HFLO.                      No:  High Flow 
 HPRE.                      No:  High Pressure 
 HTEM.                      No:  High Temp 
 HYDO.m               1.400000:  Hydro Offset 
 IFIN.deg            10.460000:  Inc, Final 
 IMAX.deg            32.367214:  Inc Max 
 IMIN.deg            11.447388:  Inc Min 
 IMND.m            5236.799805:  Inc Min Depth 
 IMXD.m            4790.299805:  Inc Max Depth 
 JARR.                      No:  Jarring 
 LETM.      12.28.32 23-Jun-16:  Log End Time 
 LOST.hr                     0:  Lost Rig Time 
 LSTM.      14.30.00 17-Jun-16:  Log Start Time 
 MDCL.ppm         23000.000000:  Mud Chlorides 
 MDES.             Fresh Water:  Mud Desc 
 DFD .g/c3            1.170004:  Mud Density 
 MDMN.g/c3            1.160004:  Dens Mud Min 
 MDMX.g/c3            1.170004:  Dens Mud Max 
 PH  .pH              9.400000:  Mud pH 
 MOIL.                       0:  Run Mud Oil % 
 MOWR.                    1 91:  Run Mud OWR 
 MSND.                     0.1:  Run Mud Sand % 
 MSOL.                     6.2:  Run Mud Solids% 
 DFV .spl            73.000000:  Mud Viscosity 
 MWOD.in              6.750000:  MWD Tool OD 
 MWSI.                      No:  Serv Intrp, MWD 
 OTIM.hr            238.111023:  Time Operating 
 PMAX.psig         4000.000000:  Press Op, Max 
 PV  .mPsec          36.000000:  Mud PV 
 RMS .ohmm            0.299000:  Mud Resistivity 
 RMCS.ohmm            0.397000:  Mud Cake Resistivity 
 MCST.degC           35.000000:  Mud Cake Sample Temperature 
 RMFS.ohmm            0.200000:  Mud Filtrate Resistivity 
 RMFT.degC           35.000000:  Mud Filtrate Sample Temperature 
 RMMT.ohmm            0.118100:  Rm @ Max Temp 
 MST .degC           35.000000:  Mud Sample Temperature 
 RUN .                    3300:  Run Number 
 ROPA.m/hr            4.450000:  ROP Avg 
 ROPN.m/hr            2.000000:  ROP Min 
 ROPX.m/hr            7.000000:  ROP Max 
 RPMA.rpm            78.000000:  RPM Surface Avg 
 RPMN.rpm            35.000000:  RPM Surface Min 
 RPMX.rpm            80.000000:  RPM Surface Max 
 RRUN.                    3300:  Rig Run Number 
 RTIM.hr              7.150000:  Time Reaming 
 SAZI.deg           249.699997:  Azm, Start 
 SDEP.m            4799.000000:  Start Depth 
 SIDD.                      No:  Serv Intrp, DD 
 SINC.deg            30.049999:  Inc, Start 
 SPPA.psig         4543.999023:  SPP Avg 
 SPPN.psig         4264.078613:  SPP Min 
 SPPX.psig         4641.173828:  SPP Max 
 STIM.      09.00.00 16-Jun-16:  Start Time 
 SVCS.                 DD, MWD:  Services 
 SVER.                8.300000:  Sperry Version 
 TDAT.m             455.000000:  Tot Depth Attmp 
 TDDF.                      No:  Trip for DD 
 TDLG.m             455.000000:  Tot Depth Loggd 
 TFF .                      No:  Trip for Fail 
 TQAA.f-p         37070.000000:  Torque Abs Avg 
 TQAN.f-p         35000.000000:  Torque Abs Min 
 TQAX.f-p         39000.000000:  Torque Abs Max 
 TRRT.°/100'          0.000000:  Turn Rotating 
 MRT .                     PWD:  Maximum Recorded Temperature 
 TTMX.degC          121.568352:  Max Tool Temp 
 VS01.     AD90473258H2V5WGV2COXF1(6):  Virtual Str1 SN 
 WBMN.klb             4.409245:  WOB Min 
 WITN.           Roger Butters:  Customer Rep 
 WOBA.klb             9.788525:  WOB Avg 
 WOBX.klb            13.227736:  WOB Max 
 YP  .pa             43.000000:  Yield Point 
~Curve Information Block
#MNEM.UNIT                 API CODE     Curve Description
#---------               -----------    ---------------------------
 DEPT.M                 00 000 000 000:  Depth
 DGRCC.api              00 000 000 000:  DGR Comb Gamma Ray BCorr
 ALHSI.in               00 000 000 000:  ALD Hole Size Indicator
 ABR .ohmm              00 000 000 000:  At-Bit Resistivity
 AFRSA.ohmm             00 000 000 000:  AFR Shallow Avg Res
 AFRMA.ohmm             00 000 000 000:  AFR Medium Avg Res
 AFRDA.ohmm             00 000 000 000:  AFR Deep Avg Res
 AFXT.hr                00 000 000 000:  AFR Form Exp Time
 ALCDLC.g/c3            00 000 000 000:  ALD LCRB Comp Density
 ALPELC.NONE            00 000 000 000:  ALD LCRB Pe Factor
 ALDCLC.g/c3            00 000 000 000:  ALD LCRB Den Correction
 TNPL.pu                00 000 000 000:  CTN Porosity Limestone
 DTC .uspf              00 000 000 000:  BAT DTC
 DTRS.uspf              00 000 000 000:  BAT Refracted Shear
 VPVS.NONE              00 000 000 000:  BAT VP/VS
#Other Information
#
#WARRANTY: Halliburton will use its best efforts to furnish customers with 
#accurate information and interpretations that are part of, and incident to, the services 
#provided.  However, Halliburton cannot and does not warrant the accuracy 
#or correctness of such information and interpretations.  Under no circumstances should any 
#such information or interpretation be relied upon as the sole basis for any drilling, 
#completion, production, or financial decision or any procedure involving any risk to the 
#safety of any drilling venture, drilling rig or its crew or any other third party.  The 
#Customer has full responsibility for all drilling, completion and production operation.  
#Halliburton makes no representations or warranties, either expressed or 
#implied, including, but not limited to, the implied warranties of merchantability or fitness 
#for a particular purpose, with respect to the services rendered.  In no event will 
#Halliburton be liable for failure to obtain any particular results or for 
#any damages, including, but not limited to, indirect, special or consequential damages, 
#resulting from the use of any information or interpretation provided by Halliburton.
#
~A   DEPT      DGRCC     ALHSI      ABR      AFRSA     AFRMA     AFRDA     AFXT     ALCDLC    ALPELC    ALDCLC     TNPL       DTC      DTRS      VPVS    
# ...
   5352.2880   20.0565    6.4403   54.1667   48.0131   99.4137  110.4102   34.6042    2.4793    4.3586    0.0377    4.5004   59.3747  100.3713    1.6914
   5352.4404   18.5050    6.4477   53.9563   43.9664   87.1084   96.8109   34.6143    2.4746    4.2567    0.0381    4.6137   60.5076   98.1502    1.6250
   5352.5928   18.4575    6.4940   57.4251   41.8763   77.8172   86.4801   34.6245    2.4804    4.4472    0.0479    4.9871   60.9974   92.3535    1.5160
   5352.7452   18.4883    6.4569   61.9644   42.6910   77.3127   85.8642   34.6347    2.4777    4.5230    0.0450    5.1395   59.5522   91.4000    1.5356
   5352.8976   20.8578    6.4714   62.5021   44.8150   81.6398   91.3626   34.6449    2.4808    4.1358    0.0320    5.2650   59.2301   91.6984    1.5483
   5353.0500   23.7307    6.4441   62.2805   46.5106   83.8898   95.4009   34.6550    2.4832    4.1454    0.0331    5.3084   59.2790   89.9652    1.5178
   5353.2024   23.5681    6.2945   61.7604   46.4287   83.6636   96.6548   34.6651    2.4812    4.2457    0.0368    5.1705   59.0836   89.5755    1.5162
   5353.3548   22.9306    6.2669   61.2157   45.2289   84.0267   98.2653   34.6753    2.4809    4.5770    0.0507    5.2858   60.1883   92.0732    1.5298
   5353.5072   22.7486    6.3125   60.7974   44.2954   85.0283   99.8940   34.6855    2.4911    4.4898    0.0514    5.5430   61.2753   95.2036    1.5537
   5353.6596   23.5246    6.3541   60.3389   45.2656   87.1557  101.4198   34.6956    2.4908    4.4546    0.0494    6.2471   61.2777   96.1853    1.5697
   5353.8120   21.7829    6.4957   59.9558   48.0376   86.9746   98.5727   34.7057    2.4818    3.9493    0.0240    6.6460   61.5326   96.3727    1.5661
   5353.9644   18.9089    6.4973   59.6178   47.5836   74.8409   81.3092   34.7159    2.4743    3.4676   -0.0001    7.0774   61.2734   93.5108    1.5261
   5354.1168   19.3518    6.3971   59.3924   47.0037   66.4657   70.0275   34.7261    2.4649    4.2997    0.0283    7.3631   61.5594   92.9504    1.5101
   5354.2692   22.6225    6.3716   59.2731   50.4783   70.6525   73.8282   34.7363    2.4754    5.1310    0.0610    6.5368   62.0549   93.1121    1.5006
   5354.4216   28.1219    6.2948   59.0846   55.5576   81.0202   85.6000   34.7465    2.4724    5.3436    0.0666    5.7044   62.4212   93.8911    1.5042
   5354.5740   26.1253    6.1804   58.8009   59.1341   86.7975   93.7547   34.7566    2.4754    4.9661    0.0516    5.0912   62.8701   95.7063    1.5222
   5354.7264   21.0970    6.0643   58.6460   61.8815   86.6132   95.7777   34.7668    2.4792    4.5698    0.0347    4.8378   63.1085   97.1513    1.5395
   5354.8788   18.7181    6.0471   58.7619   71.9902   95.1552  107.2665   34.7770    2.4909    4.3386    0.0309    4.5927   62.7599   97.1246    1.5477
   5355.0312   18.1795    6.0403   59.0136   90.8553  115.6007  130.9094   34.7872    2.4981    4.2813    0.0293    4.1646   62.2618   95.7150    1.5372
   5355.1836   20.7193    5.9531   59.7697  102.4404  129.6376  144.9233   34.7974    2.5015    4.1997    0.0224    4.0735   61.6831   92.6126    1.5010
   5355.3360   21.1869    5.8298   60.8447  100.9248  129.2142  141.8093   34.8075    2.5106    3.9143    0.0079    4.2946   61.0896   89.1510    1.4592
   5355.4884   18.1371    5.8400   61.2826   87.5366  111.5999  120.3901   34.8177    2.5320    3.9279    0.0138    4.6872   61.0190   89.2750    1.4631
   5355.6408   17.4038    5.8269   61.1044   67.6968   83.0071   88.7938   34.8278    2.5221    4.1085    0.0124    4.8649   60.8373   90.2915    1.4842
   5355.7932   18.2328    5.8057   60.5763   56.5925   66.3931   70.7201   34.8379    2.5138    4.2656    0.0093    4.7614   60.8849   90.6058    1.4882
   5355.9456   18.1643    5.8168   59.9176   54.5693   63.2031   67.2813   34.8482    2.5156    4.2730    0.0116    4.6654   61.3871   91.0426    1.4832
   5356.0980   14.5698    5.8419   59.1448   56.9202   68.3156   73.0167   34.8583    2.5242    4.3865    0.0156    4.6346   62.0771   91.3563    1.4719
   5356.2504   11.7893    5.8023   58.3072   67.8208   84.6917   90.8084   34.8684    2.5249    4.1128    0.0081    4.5288   61.6810   91.2197    1.4791
   5356.4028   13.3912    5.8003   57.3250   78.9051   97.6672  104.5560   34.8786    2.5318    3.7079    0.0073    4.6637   61.3751   90.9947    1.4827
   5356.5552   14.7260    5.7756   56.2549   74.0410   87.3829   92.6349   34.8888    2.5154    3.6596    0.0004    4.7934   61.1673   91.2620    1.4921
   5356.7076   16.2188    5.8269   55.0835   69.0224   79.2322   82.3559   34.8989    2.5180    3.9946    0.0112    4.8992   60.3108   91.1599    1.5117
   5356.8600   16.8048    5.9493   53.9175   67.2995   75.7635   77.5420   34.9091    2.5373    4.1591    0.0323    5.3571   59.5329   90.6091    1.5223
   5357.0124   14.5482    6.0288   52.9759   63.2949   68.1236   69.5735   34.9192    2.5372    4.3268    0.0451    5.9746   58.8695   90.8517    1.5435
   5357.1648   13.8792    6.0954   52.3739   59.7094   60.7437   61.7248   34.9295    2.5257    4.5643    0.0551    6.0828   58.5896   91.4646    1.5614
   5357.3172   15.7829    6.1183   51.9118   57.2802   57.2782   57.3329   34.9397    2.5225    4.7314    0.0566    5.8490   58.5373   91.5546    1.5642
   5357.4696   21.4396    6.1792   51.4137   65.7057   70.4319   68.4299   34.9498    2.5134    4.6096    0.0591    5.5651   59.1258   90.8361    1.5366
   5357.6220   24.5152    6.1994   50.8929   96.6380  115.1662  109.1465   34.9598    2.4917    4.4042    0.0507    4.9770   59.6868   89.4952    1.4996
   5357.7744   23.5535    6.1776   50.6442  130.2774  165.8920  157.2289   34.9700    2.4693    4.3935    0.0346    5.2192   60.0275   88.4311    1.4733
   5357.9268   19.0981    6.2169   51.1004  126.4689  155.6226  151.6241   34.9802    2.4671    4.5641    0.0278    5.6801   60.1745   89.3789    1.4854
   5358.0792   14.4433    6.2019   51.3708  106.1134  120.8356  117.0390   34.9904    2.4780    4.6520    0.0339    6.1585   60.4177   92.0187    1.5231
   5358.2316   16.6916    6.1222   50.8821   73.1937   74.2073   69.0527   35.0006    2.4640    4.4046    0.0341    7.1509   60.4491   94.5410    1.5640
   5358.3840   21.4429    6.1655   50.1832   69.3512   67.7344   61.3315   35.0107    2.4725    4.3248    0.0371    7.1842   60.7406   95.7523    1.5764
   5358.5364   30.6246    6.1591   49.4695   96.9671   98.6357   92.5348   35.0209    2.4729    4.3832    0.0374    5.7968   60.8382   96.3465    1.5838
   5358.6888   30.5782    6.1507   48.6932   98.9647   98.5451  100.4743   35.0310    2.4767    4.2510    0.0322    5.1324   61.5111   96.0988    1.5629
   5358.8412   26.3353    6.0244   47.8358   69.8992   65.4271   68.4732   35.0412    2.4657    3.9881    0.0241    5.3880   63.0207   95.3876    1.5143
   5358.9936   23.9247    5.9353   47.0627   59.9709   55.2943   57.2427   35.0514    2.4630    3.8131    0.0207    5.9876   62.9011   92.8158    1.4758
   5359.1460   23.7827    6.0006   46.2890   74.1964   72.9895   76.0474   35.0616    2.4877    4.0953    0.0360    5.6260   62.9449   91.8838    1.4601
   5359.2984   20.1118    6.0106   45.3504   88.3925   92.7976  100.2738   35.0714    2.4902    4.2774    0.0342    5.4750   62.5481   93.9215    1.5019
   5359.4508   15.9654    5.9713   44.2803   77.3557   84.4345   92.3493   35.0811    2.4936    4.2619    0.0230    6.3980   61.5468   94.9661    1.5434
   5359.6032   18.8684    5.9539   43.0822   55.4483   59.8026   64.8471   35.0907    2.5166    4.3835    0.0300    8.8120   61.1353   95.6169    1.5642
   5359.7556   36.0700    6.0922   42.1580   41.1966   45.7235   47.1448   35.1003    2.5623    4.7090    0.0568   13.0084   61.7281   95.7951    1.5519
   5359.9080   63.7389    6.3241   41.5098   32.3303   36.4825   35.9289   35.1098    2.6039    5.6608    0.0987   16.3526   63.0002   99.6155    1.5806
   5360.0604   92.5085    6.3340   40.9697   26.6250   28.7256   27.8430   35.1193    2.5951    6.0176    0.0936   17.3914   64.8392  105.1230    1.6212
   5360.2128  122.6975    5.9107   40.5291   22.4654   22.7677   21.6615   35.1289    2.5293    4.3398    0.0172   20.4719   67.1906  107.4976    1.6004
