~Version Information
 VERS.                  2.0:   CWLS log ASCII Standard -VERSION 2.0
 WRAP.                   NO:   One line per depth step
~Well Information Block
#MNEM.UNIT     VALUE/NAME     DESCRIPTION
#---------     -----------    ---------------------------
 STRT.M              5223.0528: START DEPTH
 STOP.M              5536.2348: STOP DEPTH
 STEP.M                 0.1524: STEP DEPTH
 NULL.               -999.2500: NULL VALUE
 DFWT.                        :  DIST FWL TEXT
 DFST.                        :  DIST FSL TEXT
 DMF .             Drill Floor:  DRILL MEAS FROM
 STIM.      11.30.00 09-Jul-16:  START TIME
 DATE.      11.29.04 14-Aug-16:  END TIME
 SPUD.               17-Aug-15:  SPUD DATE
 NREF.                    Grid:  NORTH REFERENCE
 HPTY.       Minimum Curvature:  HOLE POS TYPE
 DMOD.             Drill Model:  DRILL MOD DESC
 SVYD.                  Survey:  SURVEY DESC
 ILTD.               Lithology:  INTERP LTH DESC
 FTOP.          Formation Tops:  FORM TOPS DESC
 WELL.              AF011-3D-1:  WELL NAME
 COMP.               TOTAL-ABK:  COMPANY
 SON .        AD-XX-0902156848:  JOB NUMBER
 GCDE.     Generic Lat/Long's, Degrees, -180 ==> +180:  GEO COORD DESC
 CCDE.     UTM Clarke 1880 (CM 51), Meters:  CART COORD DESC
 GGSY.                      LL:  GEO GRID SYS
 CGSY.               SS CLRK51:  CART GRID SYS
 GREF.     Ellipsoid World Geodetic System :  GEO REFERENCE
 CREF.     Ellipsoid Clarke - 1880:  CART REFERENCE
 MMDL.            bggm2016.dat:  MAGNETIC MODEL
 MMDD.            20 May, 2016:  MAG DATA DATE
 MDS .              Win MagUTM:  MAG DATA SOURCE
 LLGR.      Latitude/Longitude:  LLGROUP
 XYGR.     UTM Zones, Northern Hemisphere, Meters:  XYGROUP
 PDAT.          Mean Sea Level:  PERMANENT DATUM
 WTYP.                Deviated:  WELL TYPE
 BASE.               Abu Dhabi:  LOGGING EQUIPMENT BASE LOCATION
 REGN.     Middle East/North Africa:  REGION
 PROV.               Abu Dhabi:  PROVINCE
 STAT.               Abu Dhabi:  STATE NAME
 CTRY.     United Arab Emirates:  COUNTRY NAME
 FLD .         Abu Al Bukhoosh:  FIELD NAME
 SRVC.                  SAIPEM:  CONTRACTOR
 MWDS.                Musaffah:  MWD SHOP
 RIG .           Perro Negro 8:  RIG NAME
 CNTY.               Abu Dhabi:  COUNTY NAME
 DCON.             HALLIBURTON:  DIRECTNL CONTR
 UNIT.                    9804:  LOGGING EQUIPMENT ID
 DOE .        AD-XX-0902156848:  DOE NUMBER
 API .                        :  API NUMBER
 UWI .                        :  UNIQUE WELL IDENTIFIER
 LOC .                        :  LOCATION
 LMF .             Drill Floor:  LOG MEASURED FROM
 TVDS.m              43.899999:  TVDSS CORRECTN
 LATI.deg            25.504513:  LATITUDE
 LONG.deg            53.120396:  LONGITUDE
 WHNS.m               0.000000:  WELL HEAD N/S
 WHEW.m               0.000000:  WELL HEAD E/W
 UTMX.m          713123.300043:  UTM X
 UTMY.m         2822281.299893:  UTM Y
 DFWL.m               0.000000:  DISTANCE FWL
 DFSL.m               0.000000:  DISTANCE FSL
 SDEP.m            5253.990000:  START DEPTH
 TDD .m            5543.669658:  TOTAL DEPTH (DRILLER)
 VSDR.deg           249.940002:  VERT SEC DIRECT
 GVFD.g               1.000000:  GRAVITY FIELD
 MFLD.nT          43940.839844:  MAGNETIC FIELD
 MDIP.deg            39.918472:  MAGNETIC DIP
 MDEC.deg             2.250056:  MAGNETIC DECL
 GRDC.deg             0.913350:  GRID CORRECTION
 AZTC.deg             1.336706:  AZM TOTAL CORR
 EPD .m               0.000000:  ELEVATION
 EGL .m             -45.400001:  GROUND ELEVATION
 WDMS.m              45.400001:  WD ELEV
 APD .m              43.899999:  DEPTH ABOVE PD
 MMDE.m               0.000000:  MAGUTM CALC DEP
 CMER.deg            51.000000:  CENTRL MERIDIAN
 AGAP.m              23.099999:  AIR GAP
 EKB .m              43.899999:  KB ELEVATION
 EDF .m              43.899999:  DF ELEVATION
 VSC .                       0:  VS TO CLOSURE
 MAGU.                 1527179:  MAGUTM CHECKSUM
~Parameter Information Block
#MNEM.UNIT       Value        Description
#---------     -----------    ---------------------------
 AV  .mps             1.500000:  Ann Velocity 
 AVMX.mps             2.400000:  Max Ann Veloc 
 AZIF.deg           257.739990:  Azm, Final 
 BHAT.                 Turbine:  BHA Type 
 BROT.°/100'          0.000000:  Build Rotating 
 BS  .in              8.500000:  Bit Size 
 BSZ .in              8.500000:  Bit Size 
 BTPL.psig           43.511005:  Bit Press Loss 
 CABU.                      No:  Customer Abuse 
 TCS .hr            149.515671:  Time Ciculation Ended 
 CV  .mps             3.000000:  Crit Velocity 
 CVMX.mps             4.000000:  Max Crit Veloc 
 DD1 .            Ahmed Bayoud:  Direct Drillr 1 
 DD2 .        Hany Abdel Hafez:  Direct Drillr 2 
 DDSV.                 Turbine:  DD Service 
 DEFF.%              98.000000:  % Det Eff 
 DLRX.°/100'          0.000000:  Dogleg Rot Max 
 DLSO.°/100'          0.000000:  Dogleg Oriented 
 DLSX.°/100'          0.000000:  Dogleg Str Max 
 DRET.      12.28.32 23-Jun-16:  Drill End Time 
 DRST.      14.30.00 17-Jun-16:  Drill Start Tim 
 DTIM.hr            102.349998:  Time Drilling 
 EDEP.m            5254.000000:  End Depth 
 ENG1.         Ahmed Montasser:  Engineer 1 
 ENG2.              Do Dang Sa:  Engineer 2 
 ENG3.           Khaled Khalaf:  Engineer 3 
 ENG4.         Muhammad Mubeen:  Engineer 4 
 ETIM.      05.40.54 26-Jun-16:  End Time 
 FLOI.lpm          1800.000122:  Flow In 
 FLON.lpm          1500.000000:  Flow In Min 
 FLOS.lpm             0.000000:  Fluid Loss 
 FLOX.lpm          1800.000122:  Flow In Max 
 DFT .                   Other:  Mud Type 
 HFLO.                      No:  High Flow 
 HPRE.                      No:  High Pressure 
 HTEM.                      No:  High Temp 
 HYDO.m               1.400000:  Hydro Offset 
 IFIN.deg            10.460000:  Inc, Final 
 IMAX.deg            32.367214:  Inc Max 
 IMIN.deg            11.447388:  Inc Min 
 IMND.m            5236.799805:  Inc Min Depth 
 IMXD.m            4790.299805:  Inc Max Depth 
 JARR.                      No:  Jarring 
 LETM.      12.28.32 23-Jun-16:  Log End Time 
 LOST.hr                     0:  Lost Rig Time 
 LSTM.      14.30.00 17-Jun-16:  Log Start Time 
 MDCL.ppm         23000.000000:  Mud Chlorides 
 MDES.             Fresh Water:  Mud Desc 
 DFD .g/c3            1.170004:  Mud Density 
 MDMN.g/c3            1.160004:  Dens Mud Min 
 MDMX.g/c3            1.170004:  Dens Mud Max 
 PH  .pH              9.400000:  Mud pH 
 MOIL.                       0:  Run Mud Oil % 
 MOWR.                    1 91:  Run Mud OWR 
 MSND.                     0.1:  Run Mud Sand % 
 MSOL.                     6.2:  Run Mud Solids% 
 DFV .spl            73.000000:  Mud Viscosity 
 MWOD.in              6.750000:  MWD Tool OD 
 MWSI.                      No:  Serv Intrp, MWD 
 OTIM.hr            238.111023:  Time Operating 
 PMAX.psig         4000.000000:  Press Op, Max 
 PV  .mPsec          36.000000:  Mud PV 
 RMS .ohmm            0.299000:  Mud Resistivity 
 RMCS.ohmm            0.397000:  Mud Cake Resistivity 
 MCST.degC           35.000000:  Mud Cake Sample Temperature 
 RMFS.ohmm            0.200000:  Mud Filtrate Resistivity 
 RMFT.degC           35.000000:  Mud Filtrate Sample Temperature 
 RMMT.ohmm            0.118100:  Rm @ Max Temp 
 MST .degC           35.000000:  Mud Sample Temperature 
 RUN .                    3300:  Run Number 
 ROPA.m/hr            4.450000:  ROP Avg 
 ROPN.m/hr            2.000000:  ROP Min 
 ROPX.m/hr            7.000000:  ROP Max 
 RPMA.rpm            78.000000:  RPM Surface Avg 
 RPMN.rpm            35.000000:  RPM Surface Min 
 RPMX.rpm            80.000000:  RPM Surface Max 
 RRUN.                    3300:  Rig Run Number 
 RTIM.hr              7.150000:  Time Reaming 
 SAZI.deg           249.699997:  Azm, Start 
 SDEP.m            4799.000000:  Start Depth 
 SIDD.                      No:  Serv Intrp, DD 
 SINC.deg            30.049999:  Inc, Start 
 SPPA.psig         4543.999023:  SPP Avg 
 SPPN.psig         4264.078613:  SPP Min 
 SPPX.psig         4641.173828:  SPP Max 
 STIM.      09.00.00 16-Jun-16:  Start Time 
 SVCS.                 DD, MWD:  Services 
 SVER.                8.300000:  Sperry Version 
 TDAT.m             455.000000:  Tot Depth Attmp 
 TDDF.                      No:  Trip for DD 
 TDLG.m             455.000000:  Tot Depth Loggd 
 TFF .                      No:  Trip for Fail 
 TQAA.f-p         37070.000000:  Torque Abs Avg 
 TQAN.f-p         35000.000000:  Torque Abs Min 
 TQAX.f-p         39000.000000:  Torque Abs Max 
 TRRT.°/100'          0.000000:  Turn Rotating 
 MRT .                     PWD:  Maximum Recorded Temperature 
 TTMX.degC          121.568352:  Max Tool Temp 
 VS01.     AD90473258H2V5WGV2COXF1(6):  Virtual Str1 SN 
 WBMN.klb             4.409245:  WOB Min 
 WITN.           Roger Butters:  Customer Rep 
 WOBA.klb             9.788525:  WOB Avg 
 WOBX.klb            13.227736:  WOB Max 
 YP  .pa             43.000000:  Yield Point 
~Curve Information Block
#MNEM.UNIT                 API CODE     Curve Description
#---------               -----------    ---------------------------
 DEPT.M                 00 000 000 000:  Depth
 DGRCC.api              00 000 000 000:  DGR Comb Gamma Ray BCorr
 ALHSI.in               00 000 000 000:  ALD Hole Size Indicator
 ABR .ohmm              00 000 000 000:  At-Bit Resistivity
 AFRSA.ohmm             00 000 000 000:  AFR Shallow Avg Res
 AFRMA.ohmm             00 000 000 000:  AFR Medium Avg Res
 AFRDA.ohmm             00 000 000 000:  AFR Deep Avg Res
 AFXT.hr                00 000 000 000:  AFR Form Exp Time
 ALCDLC.g/c3            00 000 000 000:  ALD LCRB Comp Density
 ALPELC.NONE            00 000 000 000:  ALD LCRB Pe Factor
 ALDCLC.g/c3            00 000 000 000:  ALD LCRB Den Correction
 TNPL.pu                00 000 000 000:  CTN Porosity Limestone
 DTC .uspf              00 000 000 000:  BAT DTC
 DTRS.uspf              00 000 000 000:  BAT Refracted Shear
 VPVS.NONE              00 000 000 000:  BAT VP/VS
#Other Information
#
#WARRANTY: Halliburton will use its best efforts to furnish customers with 
#accurate information and interpretations that are part of, and incident to, the services 
#provided.  However, Halliburton cannot and does not warrant the accuracy 
#or correctness of such information and interpretations.  Under no circumstances should any 
#such information or interpretation be relied upon as the sole basis for any drilling, 
#completion, production, or financial decision or any procedure involving any risk to the 
#safety of any drilling venture, drilling rig or its crew or any other third party.  The 
#Customer has full responsibility for all drilling, completion and production operation.  
#Halliburton makes no representations or warranties, either expressed or 
#implied, including, but not limited to, the implied warranties of merchantability or fitness 
#for a particular purpose, with respect to the services rendered.  In no event will 
#Halliburton be liable for failure to obtain any particular results or for 
#any damages, including, but not limited to, indirect, special or consequential damages, 
#resulting from the use of any information or interpretation provided by Halliburton.
#
~A   DEPT      DGRCC     ALHSI      ABR      AFRSA     AFRMA     AFRDA     AFXT     ALCDLC    ALPELC    ALDCLC     TNPL       DTC      DTRS      VPVS    
# ...
   5255.3616   18.3452    5.9387    0.0604    5.9444   10.0147   10.0395   26.9179    2.5248    4.2093   -0.0791   22.4924   57.3816   97.8685    1.7057
   5255.5140   17.8287    5.7580    0.0606    6.1164   10.0781   10.1030   26.9282    2.6174    3.6716   -0.0642   20.7153   55.5196   94.4290    1.7016
   5255.6664   19.5363    5.7500    0.0614    6.6827   10.1316   10.4800   26.9386    2.6638    3.6506   -0.0486   16.4068   53.1226   93.4012    1.7594
   5255.8188   17.5161    5.7500    0.0637    7.9582   10.2995   11.2928   26.9491    2.6675    3.6739   -0.0472   15.0236   51.8526   92.8525    1.7910
   5255.9712   15.6301    5.7500    0.0691   10.3704   10.9466   12.9182   26.9594    2.6615    3.6782   -0.0403   15.2165   51.6254   93.0823    1.8030
   5256.1236   14.6281    5.7500    0.0616   12.4536   12.1507   15.2036   26.9697    2.6532    3.7448   -0.0351   15.7759   52.0353   94.0127    1.8067
   5256.2760   13.5898    5.7500    0.0604   14.3643   14.0853   18.1469   26.9802    2.6384    3.7562   -0.0273   17.0593   53.2292   96.1153    1.8054
   5256.4284   12.9502    5.7500    0.0627   14.8303   14.9265   19.2421   26.9905    2.6211    3.7352   -0.0230   18.0765   55.0202  100.4927    1.8265
   5256.5808   11.8926    5.7500    0.0591   13.1180   13.7103   17.4046   27.0011    2.5974    3.6819   -0.0210   18.9196   56.6026  101.9426    1.8014
   5256.7332   14.1393    5.7500    0.0567   10.9074   11.6374   14.4619   27.0115    2.5729    3.8176   -0.0228   19.3951   57.4693  102.1500    1.7776
   5256.8856   14.9490    5.7500    0.0555    8.5252    9.0676   10.8956   27.0219    2.5597    3.9690   -0.0468   19.6045   57.6401  101.7890    1.7659
   5257.0380   13.6822    5.7500    0.0541    6.6412    6.9973    8.0284   27.0329    2.5803    3.8961   -0.0600   19.5615   57.4597  100.3931    1.7472
   5257.1904   12.8440    5.7500    0.0520    5.4531    5.7972    6.2899   27.0455    2.6008    3.6368   -0.0525   18.4069   56.7092   98.9803    1.7455
   5257.3428   11.9877    5.7500    0.0507    5.4071    5.8597    6.2832   27.0575    2.5974    3.5394   -0.0519   17.7375   55.5176   97.4263    1.7549
   5257.4952   12.9220    5.7500    0.0501    6.4610    7.2025    7.8752   27.0685    2.6045    3.5080   -0.0526   17.1061   54.0479   93.9309    1.7383
   5257.6476   13.4827    5.7500    0.0484    7.1819    8.1684    8.9351   27.0793    2.6295    3.6734   -0.0471   16.0212   52.0393   91.7812    1.7642
   5257.8000   13.4263    5.7500    0.0478    7.0405    7.8348    8.6260   27.0903    2.6610    3.8098   -0.0389   14.3204   50.7925   90.1626    1.7754
   5257.9524   12.7538    5.7500    0.0483    8.8278    9.5234   10.9865   27.1015    2.6788    3.9300   -0.0308   12.9198   50.0577   89.2798    1.7836
   5258.1048   13.5751    5.7500    0.0469   14.2445   15.5721   19.2494   27.1190    2.6885    4.0158   -0.0325   12.0396   49.7890   88.3453    1.7744
   5258.2572   13.9432    5.7500    0.0467   19.7430   21.5493   28.5165   27.1631    2.7026    3.8831   -0.0368   11.7382   49.6839   87.2624    1.7563
   5258.4096   14.4033    5.7500    0.0494   20.8650   19.7494   27.5159   27.2283    2.7103    3.8225   -0.0325   11.6553   49.7763   87.8282    1.7644
   5258.5620   16.0286    5.7500    0.0513   24.0393   20.2490   27.5140   27.2203    2.7160    3.9326   -0.0236   11.7028   50.2117   90.0110    1.7925
   5258.7144   14.4247    5.7567    0.0648   26.7901   24.9900   30.0818   27.2647    2.7145    4.1108   -0.0082   12.1823   51.0807   92.0805    1.8025
   5258.8668   13.5033    5.7789    0.1011   19.9440   28.1403   28.8679   27.3328    2.6847    4.1264    0.0005   12.7269   51.7946   95.2260    1.8385
   5259.0192   13.2170    5.7633    0.1011   13.6217   24.4123   24.8856   27.3588    2.6450    4.1671   -0.0141   13.5495   52.3201   95.6141    1.8275
   5259.1716   14.5396    5.7530    0.0833   12.0518   19.0800   20.2102   27.3695    2.6414    4.0970   -0.0266   14.9454   52.3302   96.2366    1.8390
   5259.3240   14.4491    5.7500    0.0619   11.8088   14.4054   12.8284   27.3801    2.6547    4.1046   -0.0248   15.4417   51.7153   95.1994    1.8408
   5259.4764   15.9821    5.7510    0.1197   14.0488   15.2269    9.9026   27.3938    2.6649    4.4612   -0.0283   13.4736   50.8874   92.8000    1.8235
   5259.6288   19.7026    5.7790    2.2543   25.1312   26.3244   12.9556   27.4181    2.7200    5.0569   -0.0050   11.0638   50.0266   90.2874    1.8096
   5259.7812   26.3350    5.8691  232.2877   46.5203   47.8570   21.0656   27.4427    2.7475    5.4139    0.0238    9.2820   49.3713   87.3540    1.7817
   5259.9336   25.6986    5.8403 1842.4773   76.2743   75.0891   42.8328   27.4620    2.7437    5.5112    0.0192    6.6963   48.8279   84.2566    1.7295
   5260.0860   20.2710    5.7824 6366.3052  119.9628  109.5002   99.0576   27.4744    2.7271    5.4256    0.0026    5.1045   49.3479   84.2974    1.7103
   5260.2384   17.4618    5.7695 3371.6375  146.8867  136.9944  140.1919   27.4850    2.7244    5.1593   -0.0123    4.8939   50.6023   84.3399    1.6673
   5260.3908   17.8304    5.8357 1286.7285  105.2256   98.5258  105.8665   27.4957    2.7413    5.0817    0.0093    5.5529   50.5665   84.3468    1.6683
   5260.5432   17.7857    5.9756  585.6614   54.5806   47.8306   51.9144   27.5066    2.7548    5.1891    0.0450    6.6237   49.9460   84.8296    1.6987
   5260.6956   15.5040    6.0173  300.0360   38.9787   33.2723   35.2731   27.5175    2.7345    5.3620    0.0517    7.7445   49.7275   88.4875    1.7795
   5260.8480   13.6356    6.0679  139.3875   41.2913   38.0121   39.7012   27.5280    2.7247    5.5403    0.0593    9.4864   50.0748   90.5546    1.8083
   5261.0004   14.3741    6.1042   81.6218   41.6219   40.8708   43.4661   27.5389    2.7167    5.7002    0.0637   11.0589   50.7084   91.9167    1.8130
   5261.1528   14.2858    6.0475   51.8080   37.1430   37.3629   40.5088   27.5499    2.6833    5.6381    0.0477   11.2146   52.0845   92.6592    1.7802
   5261.3052   13.7162    5.9623   33.1947   33.0126   32.5445   35.1842   27.5605    2.6681    5.6357    0.0352   10.8345   53.7952   92.9091    1.7284
   5261.4576   13.5973    5.8266   27.7545   33.0426   31.8500   34.2294   27.5712    2.6713    5.2828    0.0111   10.4264   53.6967   93.0896    1.7351
   5261.6100   13.3423    5.7690   26.7942   34.1431   32.9400   35.7290   27.5822    2.6900    5.0253   -0.0073    9.9847   52.1656   94.1082    1.8050
   5261.7624   12.8037    5.7522   26.6283   33.0988   31.6188   33.9912   27.5931    2.6905    4.9612   -0.0210    9.5012   51.8580   95.6724    1.8450
   5261.9148   14.7218    5.7501   26.6630   34.5925   32.2240   33.8981   27.6036    2.7004    5.0788   -0.0174    8.3787   52.2314   96.2970    1.8437
   5262.0672   15.9967    5.7507   26.8409   37.5294   33.9113   35.8190   27.6144    2.7064    5.2977   -0.0083    7.2722   52.7879   96.4536    1.8273
   5262.2196   16.9660    5.7503   27.0603   37.9892   33.3701   35.8196   27.6254    2.6944    5.3270   -0.0061    6.8746   53.2563   97.0206    1.8219
   5262.3720   15.6528    5.7501   27.4576   41.5433   35.9874   37.6308   27.6360    2.6688    5.4377   -0.0096    6.9424   52.8232   97.2466    1.8411
   5262.5244   12.9746    5.7500   27.9584   56.3199   49.7342   49.5358   27.6467    2.6571    5.5364   -0.0150    6.6342   52.2675   96.5007    1.8463
   5262.6768   14.3456    5.7500   28.3248   81.5721   72.7153   72.4352   27.6577    2.6657    5.5490   -0.0179    6.3101   51.5534   95.4228    1.8511
   5262.8292   17.9924    5.7510   28.0768   95.2725   82.7970   87.5756   27.6684    2.6813    5.3938   -0.0201    6.3103   50.4760   94.0620    1.8637
   5262.9816   19.5361    5.7560   27.0726   88.7017   75.9025   81.3245   27.6789    2.7082    5.2809   -0.0095    6.4579   50.0580   92.9750    1.8574
   5263.1340   20.6892    5.7586   26.7018   88.4455   76.0880   79.6728   27.6895    2.7212    5.2603   -0.0047    6.0391   49.9099   92.8093    1.8595
   5263.2864   17.6912    5.7626   27.0470   98.3037   86.5448   89.0556   27.6997    2.7261    5.3235   -0.0011    4.8314   49.9769   93.0262    1.8614
