~Version Information
 VERS.                  2.0:   CWLS log ASCII Standard -VERSION 2.0
 WRAP.                   NO:   One line per depth step
~Well Information Block
#MNEM.UNIT     VALUE/NAME     DESCRIPTION
#---------     -----------    ---------------------------
 STRT.F             10112.0000: START DEPTH
 STOP.F             11135.0000: STOP DEPTH
 STEP.F                 0.5000: STEP DEPTH
 NULL.               -999.2500: NULL VALUE
 UNIT.                12318515:  LOGGING EQUIPMENT ID
 CNTY.             HAIR DALMAH:  COUNTY NAME
 JOBN.        AD-XX-0905995035:  JOB TICKET NUMB
 FLD .             HAIR DALMAH:  FIELD NAME
 PDAT.          Mean Sea Level:  PERMANENT DATUM
 RIG .                     PN8:  RIG NAME
 MWDS.                    ICAD:  MWD SHOP
 CTRY.     United Arab Emirates:  COUNTRY NAME
 REGN.     Middle East/North Africa:  REGION
 BASE.               Abu Dhabi:  LOGGING EQUIPMENT BASE LOCATION
 WTYP.                Deviated:  WELL TYPE
 XYGR.     UTM Zones, Northern Hemisphere, Meters:  XYGROUP
 LLGR.      Latitude/Longitude:  LLGROUP
 MDS .              Win MagUTM:  MAG DATA SOURCE
 MMDD.       05 December, 2019:  MAG DATA DATE
 MMDL.            bggm2019.dat:  MAGNETIC MODEL
 CREF.     Ellipsoid Clarke - 1880:  CART REFERENCE
 GREF.     Ellipsoid World Geodetic System :  GEO REFERENCE
 CGSY.               SS CLRK51:  CART GRID SYS
 GGSY.                      LL:  GEO GRID SYS
 CCDE.     UTM Clarke 1880 (CM 51), Meters:  CART COORD DESC
 GCDE.     Generic Lat/Long's, Degrees, -180 ==> +180:  GEO COORD DESC
 SON .        AD-XX-0905995035:  JOB NUMBER
 COMP.          ADNOC Offshore:  COMPANY
 WELL.               HD011-02D:  WELL NAME
 FTOP.          Formation Tops:  FORM TOPS DESC
 ILTD.               Lithology:  INTERP LTH DESC
 SVYD.                  Survey:  SURVEY DESC
 DMOD.             Drill Model:  DRILL MOD DESC
 HPTY.       Minimum Curvature:  HOLE POS TYPE
 NREF.                    Grid:  NORTH REFERENCE
 SPUD.               17-Feb-20:  SPUD DATE
 DATE.      06.00.00 09-Apr-20:  END TIME
 STIM.      11.40.00 06-Apr-20:  START TIME
 DMF .             Drill Floor:  DRILL MEAS FROM
 DFST.                        :  DIST FSL TEXT
 DFWT.                        :  DIST FWL TEXT
 PROV.               Abu Dhabi:  PROVINCE
 STAT.               Abu Dhabi:  STATE NAME
 API .                        :  API NUMBER
 SRVC.             Halliburton:  SERVICE COMPANY
 UWI .                        :  UNIQUE WELL IDENTIFIER
 LOC .                        :  LOCATION
 LMF .             Drill Floor:  LOG MEASURED FROM
 DEP .ft              0.000000:  DEPTH
 AGAP.ft            118.000000:  AIR GAP
 CMER.deg            51.000000:  CENTRL MERIDIAN
 MMDE.ft              0.000000:  MAGUTM CALC DEP
 APD .ft            118.000000:  DEPTH ABOVE PD
 WDMS.ft             65.000000:  WD ELEV
 EGL .ft              0.000000:  GROUND ELEVATION
 EPD .ft              0.000000:  ELEVATION
 AZTC.deg             1.750428:  AZM TOTAL CORR
 GRDC.deg             0.592532:  GRID CORRECTION
 MDEC.deg             2.342959:  MAGNETIC DECL
 MDIP.deg            38.394272:  MAGNETIC DIP
 MFLD.nT          43612.476563:  MAGNETIC FIELD
 GVFD.g               1.000000:  GRAVITY FIELD
 VSDR.deg            91.860001:  VERT SEC DIRECT
 TDD .ft          11135.000000:  TOTAL DEPTH (DRILLER)
 SDEP.ft          10171.000000:  START DEPTH
 DFSL.ft              0.000000:  DISTANCE FSL
 DFWL.ft              0.000000:  DISTANCE FWL
 UTMY.m         2710911.810000:  UTM Y
 UTMX.m          644702.250000:  UTM X
 WHEW.ft              0.000000:  WELL HEAD E/W
 WHNS.ft              0.000000:  WELL HEAD N/S
 LONG.deg            52.428197:  LONGITUDE
 LATI.deg            24.507246:  LATITUDE
 TVDS.ft            118.000000:  TVDSS CORRECTN
 EKB .ft            118.000000:  KB ELEVATION
 EDF .ft            118.000000:  DF ELEVATION
 MAGU.                 1512580:  MAGUTM CHECKSUM
 VSC .                       0:  VS TO CLOSURE
~Parameter Information Block
#MNEM.UNIT       Value        Description
#---------     -----------    ---------------------------
 AV  .fpm             1.000000:  Ann Velocity 
 AVMX.fpm             1.000000:  Max Ann Veloc 
 AZIF.deg            83.830002:  Azm, Final 
 BHAT.               Mud Motor:  BHA Type 
 BS  .in             14.500000:  Bit Size 
 BSZ .in             14.500000:  Bit Size 
 BTPL.psig            1.000000:  Bit Press Loss 
 CABU.                      No:  Customer Abuse 
 CGEO.             Carey Mills:  Customer Geo 
 COMM.                     t i:  Run Comments 1 
 TCS .hr             83.600342:  Time Ciculation Ended 
 CV  .fpm             1.000000:  Crit Velocity 
 CVMX.fpm             1.000000:  Max Crit Veloc 
 DD1 .          Devinder Kumar:  Direct Drillr 1 
 DD2 .     Mohamed Gayed Barakat:  Direct Drillr 2 
 DDSV.               Mud Motor:  DD Service 
 DEFF.%              90.000000:  % Det Eff 
 DRET.      06.15.00 04-Apr-20:  Drill End Time 
 DRST.      13.57.20 31-Mar-20:  Drill Start Tim 
 DTIM.hr             56.449772:  Time Drilling 
 EDEP.ft          10171.000000:  End Depth 
 ENG1.           Denis Sobolev:  Engineer 1 
 ENG2.            Imad Youssef:  Engineer 2 
 ETIM.      23.30.00 06-Apr-20:  End Time 
 FLOI.gpm           999.999939:  Flow In 
 FLON.gpm           964.999939:  Flow In Min 
 FLOS.mptm            2.600000:  Fluid Loss 
 FLOX.gpm          1100.000000:  Flow In Max 
 DFT .                 Polymer:  Mud Type 
 HFLO.                      No:  High Flow 
 HPRE.                      No:  High Pressure 
 HTEM.                      No:  High Temp 
 HYDO.ft              0.000000:  Hydro Offset 
 IFIN.deg            26.030001:  Inc, Final 
 IMAX.deg            26.559999:  Inc Max 
 IMIN.deg            24.139999:  Inc Min 
 IMND.ft           9477.000000:  Inc Min Depth 
 IMXD.ft           9942.000000:  Inc Max Depth 
 JARR.                      No:  Jarring 
 LETM.      23.30.00 06-Apr-20:  Log End Time 
 LOST.hr                     0:  Lost Rig Time 
 LSTM.      13.57.20 31-Mar-20:  Log Start Time 
 MDCL.ppm        150000.000000:  Mud Chlorides 
 MDES.             Fresh Water:  Mud Desc 
 DFD .ppg            12.000000:  Mud Density 
 MDMN.ppg            12.000000:  Dens Mud Min 
 MDMX.ppg            12.000000:  Dens Mud Max 
 PH  .pH             10.300000:  Mud pH 
 MOIL.                      19:  Run Mud Oil % 
 MOWR.                   19 81:  Run Mud OWR 
 MSND.                       0:  Run Mud Sand % 
 MSOL.                      19:  Run Mud Solids% 
 MTV .                GeoForce:  Motor Variant 
 DFV .spqt           51.000000:  Mud Viscosity 
 MWOD.in              8.150000:  MWD Tool OD 
 MWSI.                      No:  Serv Intrp, MWD 
 OTIM.hr            106.542305:  Time Operating 
 PMAX.psig         6850.255859:  Press Op, Max 
 PV  .cP             21.000000:  Mud PV 
 RMS .ohmm            0.039000:  Mud Resistivity 
 RMCS.ohmm            0.059000:  Mud Cake Resistivity 
 MCST.degF           80.000000:  Mud Cake Sample Temperature 
 RMFS.ohmm            0.030000:  Mud Filtrate Resistivity 
 RMFT.degF           80.000000:  Mud Filtrate Sample Temperature 
 RMMT.ohmm            0.018000:  Rm @ Max Temp 
 MST .degF           80.000000:  Mud Sample Temperature 
 RUN .                    2300:  Run Number 
 RRUN.                    2300:  Rig Run Number 
 SAZI.deg           101.400002:  Azm, Start 
 SDEP.ft           9467.000000:  Start Depth 
 SIDD.                      No:  Serv Intrp, DD 
 SINC.deg            24.139999:  Inc, Start 
 STIM.      13.57.20 31-Mar-20:  Start Time 
 SVER.                9.200000:  Sperry Version 
 TDAT.ft            704.000000:  Tot Depth Attmp 
 TDDF.                      No:  Trip for DD 
 TDLG.ft            704.000000:  Tot Depth Loggd 
 TFF .                      No:  Trip for Fail 
 MRT .                     PWD:  Maximum Recorded Temperature 
 TTMX.degF          181.000000:  Max Tool Temp 
 VS01.           F1(8)90603244:  Virtual Str1 SN 
 VS02.     H2V5WGV2R(8)90604159:  Virtual Str2 SN 
 WITN.     Mohamed Sharaf el Din:  Customer Rep 
 YP  .lhf2           29.000000:  Yield Point 
~Curve Information Block
#MNEM.UNIT                 API CODE     Curve Description
#---------               -----------    ---------------------------
 DEPT.F                 00 000 000 000:  Depth
 RPTVD.ft               00 000 000 000:  ROP True Vertical Depth
 ROPA.fph               00 000 000 000:  Avg Rate of Penetration
 DGRCC.api              00 000 000 000:  DGR Comb Gamma Ray BCorr
 EWXT.hr                00 000 000 000:  EWR Formation Exp Time
 R15P.ohmm              00 000 000 000:  EWR Shallow Phase Res
 R15A.ohmm              00 000 000 000:  EWR Shallow Atten Res
 R27P.ohmm              00 000 000 000:  EWR Medium Phase Res
 R27A.ohmm              00 000 000 000:  EWR Medium Atten Res
 R39P.ohmm              00 000 000 000:  EWR Deep Phase Res
 R39A.ohmm              00 000 000 000:  EWR Deep Atten Res
 ABR .ohmm              00 000 000 000:  At-Bit Resistivity
 AFRSA.ohmm             00 000 000 000:  AFR Shallow Avg Res
 AFRDA.ohmm             00 000 000 000:  AFR Deep Avg Res
 AFXT.hr                00 000 000 000:  AFR Form Exp Time
#Other Information
#
#WARRANTY: Halliburton will use its best efforts to furnish customers with 
#accurate information and interpretations that are part of, and incident to, the services 
#provided.  However, Halliburton cannot and does not warrant the accuracy 
#or correctness of such information and interpretations.  Under no circumstances should any 
#such information or interpretation be relied upon as the sole basis for any drilling, 
#completion, production, or financial decision or any procedure involving any risk to the 
#safety of any drilling venture, drilling rig or its crew or any other third party.  The 
#Customer has full responsibility for all drilling, completion and production operation.  
#Halliburton makes no representations or warranties, either expressed or 
#implied, including, but not limited to, the implied warranties of merchantability or fitness 
#for a particular purpose, with respect to the services rendered.  In no event will 
#Halliburton be liable for failure to obtain any particular results or for 
#any damages, including, but not limited to, indirect, special or consequential damages, 
#resulting from the use of any information or interpretation provided by Halliburton.
#
~A    DEPT      RPTVD      ROPA      DGRCC     EWXT      R15P      R15A      R27P      R27A      R39P      R39A       ABR       AFRSA      AFRDA      AFXT    
# ...
   11055.5000 10044.1924   34.1047   18.4481    2.1088   59.4870   16.6500 1112.7308  200.0000 2000.0000  200.0000   556.6685   932.5718  1816.2430    1.7359
   11056.0000 10044.6250   34.1115   23.6247    2.1078   55.5433   12.9976 1509.6652  200.0000 2000.0000  200.0000   571.9620   950.9206  1662.1636    1.7396
   11056.5000 10045.0645   34.0655   20.8645    2.1068   59.8503   11.6253 1341.6301  200.0000 2000.0000  200.0000   587.8685  1025.0297  1569.6896    1.7596
   11057.0000 10045.4980   34.0951   17.9225    2.1064   66.7189   11.5398 1610.2739  200.0000 2000.0000  200.0000   603.3537  1041.7634  1430.8434    1.7621
   11057.5000 10045.9307   34.1451   16.7957    2.1064   69.6734   12.7102 1265.8024  200.0000 2000.0000  200.0000   626.2762   964.1046  1380.1127    1.7620
   11058.0000 10046.3711   34.1548   17.5354    2.1064   64.0142   13.5688  852.1609  200.0000 2000.0000  200.0000   650.3297   889.8383  1357.8630    1.7618
   11058.5000 10046.8066   34.1078   25.0772    2.1062   65.4358   13.9454 1038.2810  200.0000 2000.0000  200.0000   667.0992  1174.1780  1777.6563    1.7614
   11059.0000 10047.2402   34.1177   31.8241    2.1061   76.9138   14.5380 1310.2708  200.0000 2000.0000  200.0000   680.7225  1461.8875  2229.4592    1.7612
   11059.5000 10047.6797   34.1551   32.9775    2.1060   67.3041   12.2932 1326.1041  200.0000 2000.0000  200.0000   691.7337   860.5450  1208.2147    1.7612
   11060.0000 10048.1201   34.1262   25.5253    2.1058   71.6410   11.6672 1214.7983  200.0000 2000.0000  200.0000   703.7393   596.6635   807.3340    1.7613
   11060.5000 10048.5449   34.0931   21.8612    2.1057   68.2376   12.9506 1119.8127  200.0000 2000.0000  200.0000   718.6525   562.7538   825.3894    1.7610
   11061.0000 10048.9834   34.0711   18.1752    2.1055   69.6991   14.1038 1308.5295  200.0000 2000.0000  200.0000   732.2936   442.9105   683.6813    1.7605
   11061.5000 10049.4238   34.1265   18.1442    2.1053   67.2353   13.4003 1167.9360  200.0000 2000.0000  200.0000   749.5765   345.0362   522.0667    1.7602
   11062.0000 10049.8574   34.0962   14.8229    2.1051   73.0580   11.8911 1656.3577  200.0000 2000.0000  200.0000   771.6937   326.1234   504.2863    1.7599
   11062.5000 10050.2959   34.0830   13.7749    2.1050   66.0651   12.3634 1406.4951  200.0000 2000.0000  200.0000   799.4760   322.4487   514.4008    1.7598
   11063.0000 10050.7256   34.1446   16.0710    2.1048   58.9342   12.9108 1057.2183  200.0000 2000.0000  200.0000   813.6700   325.3252   532.9163    1.7596
   11063.5000 10051.1611   34.1307   15.8294    2.1048   72.3892   13.3613 1568.4845  200.0000 2000.0000  200.0000   815.0147   325.8872   541.4157    1.7595
   11064.0000 10051.6045   34.1520   17.6256    2.1047   84.2674   12.2562 1877.8898  200.0000 2000.0000  200.0000   811.4396   327.2524   528.1027    1.7591
   11064.5000 10052.0410   34.1138   14.3779    2.1045   74.7031   11.0580 1962.9999  200.0000 2000.0000  200.0000   804.9519   347.7304   538.2523    1.7587
   11065.0000 10052.4785   34.0609   15.3160    2.1042   63.7378   11.3958 1726.9290  200.0000 2000.0000  200.0000   799.9010   386.2798   601.5403    1.7584
   11065.5000 10052.9053   34.0473   18.6769    2.1040   65.0361   13.0507 1365.7913  200.0000 2000.0000  200.0000   798.6988   478.4418   758.5395    1.7576
   11066.0000 10053.3496   34.0855   25.5359    2.1038   53.1139   15.8948  734.2269  200.0000 2000.0000  200.0000   798.8863   626.3065   951.8007    1.7565
   11066.5000 10053.7754   34.1249   37.8582    2.1036   63.2894   14.3434  753.1028  200.0000 2000.0000  200.0000   791.9258   626.8047   763.0162    1.7556
   11067.0000 10054.2178   34.0935   34.9326    2.1028   68.6768   11.6382 1789.9022  200.0000 2000.0000  200.0000   775.7972   428.9440   427.8365    1.7544
   11067.5000 10054.6494   34.1022   26.8950    2.1008   75.2142   11.3725 1976.9918  200.0000 2000.0000  200.0000   775.9570   328.8111   326.4115    1.7533
   11068.0000 10055.0840   34.1508   23.3126    2.0987   72.9559   12.9300 1955.5651  200.0000 2000.0000  200.0000   784.3328   372.3247   438.7829    1.7522
   11068.5000 10055.5244   34.0983   18.1003    2.0959   73.7996   14.9790 1417.9299  200.0000 2000.0000  200.0000   794.7640   436.5840   709.5438    1.7514
   11069.0000 10055.9668   34.0439   17.3772    2.0929   65.3519   12.2792 1660.2355  200.0000 2000.0000  200.0000   804.0342   460.8174   915.2219    1.7509
   11069.5000 10056.3906   34.0748   16.3414    2.0898   83.7115    9.7709 1837.0962  200.0000 2000.0000  200.0000   816.0736   628.9001  1274.4995    1.7506
   11070.0000 10056.8340   34.0825   16.8332    2.0867   70.8365   10.5998 1462.7678  200.0000 2000.0000  200.0000   826.7629   894.1278  1594.7799    1.7504
   11070.5000 10057.2559   34.0810   17.5568    2.0835   65.7854   13.0676 1217.1364  200.0000 2000.0000  200.0000   833.3104  1182.1079  1953.1316    1.7503
   11071.0000 10057.7080   34.1539   18.1257    2.0806   59.3467   15.3089 1560.8889  200.0000 2000.0000  200.0000   833.7426  1425.2888  2454.3672    1.7503
   11071.5000 10058.1416   34.8878   17.5220    2.0791   78.5908   16.7800 1522.7850  200.0000 2000.0000  200.0000   830.8347  1312.3190  2510.6528    1.7511
   11072.0000 10058.5771   35.9354   18.2411    2.0798   87.1245   12.1791 1891.1643  200.0000 2000.0000  200.0000   830.7712  1070.5144  2280.7825    1.7518
   11072.5000 10059.0049   36.3344   20.4133    2.0789   79.7668   10.9266 2000.0000  200.0000 2000.0000  200.0000   832.1795   998.3989  2148.7241    1.7525
   11073.0000 10059.4453   36.4371   19.7197    2.0778   74.8419   10.8751 1935.6697  200.0000 2000.0000  200.0000   832.4474   949.3934  1873.3610    1.7533
   11073.5000 10059.8779   36.4228   19.6277    2.0765   78.8516   11.8850 1697.5793  200.0000 2000.0000  200.0000   831.5645   991.6711  1943.4000    1.7537
   11074.0000 10060.3174   35.8576   24.1873    2.0749   79.2897   14.1719 1451.9150  200.0000 2000.0000  200.0000   831.9122  1023.5189  2032.4485    1.7542
   11074.5000 10060.7520   34.9704   30.5566    2.0733   74.7177   15.4008 1341.2416  200.0000 2000.0000  200.0000   825.8379   750.0173  1252.6221    1.7543
   11075.0000 10061.1875   34.5274   31.9216    2.0716   83.7851   14.4107 1649.2719  200.0000 2000.0000  200.0000   802.9201   417.3606   654.7167    1.7543
   11075.5000 10061.6299   34.5374   25.4364    2.0698   69.9655   12.1454 1170.2416  200.0000 2000.0000  200.0000   801.3818   310.5312   574.4838    1.7545
   11076.0000 10062.0674   34.5265   21.8221    2.0680   66.4916   15.3844  774.4503  200.0000 2000.0000  200.0000   804.8961   299.8065   739.3785    1.7543
   11076.5000 10062.4980   34.5066 -999.2500    2.0660   83.5320   18.1200 1191.1387  200.0000 2000.0000  200.0000   811.8167   290.5482   816.2820    1.7544
   11077.0000 10062.9307   34.4933 -999.2500    2.0641   78.5584   15.3310 1099.6527  200.0000 2000.0000  200.0000   820.8566   257.0100   656.9166    1.7543
   11077.5000 10063.3662   34.4606 -999.2500    2.0623   67.9626   12.1139 1024.2562  200.0000 2000.0000  200.0000   824.2258   241.2381   544.8295    1.7542
   11078.0000 10063.8037   34.5010 -999.2500    2.0606   61.6095   11.5940  371.3276  200.0000 2000.0000  200.0000   832.2009   243.5004   529.7552    1.7543
   11078.5000 10064.2393   34.5544 -999.2500    2.0588   55.5222   14.5154  507.1984  200.0000 2000.0000  200.0000   836.1928   227.8628   468.8391    1.7544
   11079.0000 10064.6797   34.5390 -999.2500    2.0570   54.8982   15.4168  788.1844  200.0000 2000.0000  200.0000   836.8220   180.8230   327.4837    1.7539
   11079.5000 10065.1123   34.5379 -999.2500    2.0550   56.4528   13.2273  562.5135  200.0000 2000.0000  200.0000   843.6747   146.2738   247.4794    1.7522
   11080.0000 10065.5518   34.4692 -999.2500    2.0531   49.9303   12.2232  288.9215  200.0000 2000.0000  200.0000   857.9113   140.0221   249.1642    1.7503
   11080.5000 10065.9805   34.4749 -999.2500    2.0571   54.1923   14.2833  812.5156  200.0000 2000.0000  200.0000   867.1747   156.9278   316.1694    1.7479
