~Version Information
 VERS.                  2.0:   CWLS log ASCII Standard -VERSION 2.0
 WRAP.                   NO:   One line per depth step
~Well Information Block
#MNEM.UNIT     VALUE/NAME     DESCRIPTION
#---------     -----------    ---------------------------
 STRT.M              5223.0528: START DEPTH
 STOP.M              5536.2348: STOP DEPTH
 STEP.M                 0.1524: STEP DEPTH
 NULL.               -999.2500: NULL VALUE
 DFWT.                        :  DIST FWL TEXT
 DFST.                        :  DIST FSL TEXT
 DMF .             Drill Floor:  DRILL MEAS FROM
 STIM.      11.30.00 09-Jul-16:  START TIME
 DATE.      11.29.04 14-Aug-16:  END TIME
 SPUD.               17-Aug-15:  SPUD DATE
 NREF.                    Grid:  NORTH REFERENCE
 HPTY.       Minimum Curvature:  HOLE POS TYPE
 DMOD.             Drill Model:  DRILL MOD DESC
 SVYD.                  Survey:  SURVEY DESC
 ILTD.               Lithology:  INTERP LTH DESC
 FTOP.          Formation Tops:  FORM TOPS DESC
 WELL.              AF011-3D-1:  WELL NAME
 COMP.               TOTAL-ABK:  COMPANY
 SON .        AD-XX-0902156848:  JOB NUMBER
 GCDE.     Generic Lat/Long's, Degrees, -180 ==> +180:  GEO COORD DESC
 CCDE.     UTM Clarke 1880 (CM 51), Meters:  CART COORD DESC
 GGSY.                      LL:  GEO GRID SYS
 CGSY.               SS CLRK51:  CART GRID SYS
 GREF.     Ellipsoid World Geodetic System :  GEO REFERENCE
 CREF.     Ellipsoid Clarke - 1880:  CART REFERENCE
 MMDL.            bggm2016.dat:  MAGNETIC MODEL
 MMDD.            20 May, 2016:  MAG DATA DATE
 MDS .              Win MagUTM:  MAG DATA SOURCE
 LLGR.      Latitude/Longitude:  LLGROUP
 XYGR.     UTM Zones, Northern Hemisphere, Meters:  XYGROUP
 PDAT.          Mean Sea Level:  PERMANENT DATUM
 WTYP.                Deviated:  WELL TYPE
 BASE.               Abu Dhabi:  LOGGING EQUIPMENT BASE LOCATION
 REGN.     Middle East/North Africa:  REGION
 PROV.               Abu Dhabi:  PROVINCE
 STAT.               Abu Dhabi:  STATE NAME
 CTRY.     United Arab Emirates:  COUNTRY NAME
 FLD .         Abu Al Bukhoosh:  FIELD NAME
 SRVC.                  SAIPEM:  CONTRACTOR
 MWDS.                Musaffah:  MWD SHOP
 RIG .           Perro Negro 8:  RIG NAME
 CNTY.               Abu Dhabi:  COUNTY NAME
 DCON.             HALLIBURTON:  DIRECTNL CONTR
 UNIT.                    9804:  LOGGING EQUIPMENT ID
 DOE .        AD-XX-0902156848:  DOE NUMBER
 API .                        :  API NUMBER
 UWI .                        :  UNIQUE WELL IDENTIFIER
 LOC .                        :  LOCATION
 LMF .             Drill Floor:  LOG MEASURED FROM
 TVDS.m              43.899999:  TVDSS CORRECTN
 LATI.deg            25.504513:  LATITUDE
 LONG.deg            53.120396:  LONGITUDE
 WHNS.m               0.000000:  WELL HEAD N/S
 WHEW.m               0.000000:  WELL HEAD E/W
 UTMX.m          713123.300043:  UTM X
 UTMY.m         2822281.299893:  UTM Y
 DFWL.m               0.000000:  DISTANCE FWL
 DFSL.m               0.000000:  DISTANCE FSL
 SDEP.m            5253.990000:  START DEPTH
 TDD .m            5543.669658:  TOTAL DEPTH (DRILLER)
 VSDR.deg           249.940002:  VERT SEC DIRECT
 GVFD.g               1.000000:  GRAVITY FIELD
 MFLD.nT          43940.839844:  MAGNETIC FIELD
 MDIP.deg            39.918472:  MAGNETIC DIP
 MDEC.deg             2.250056:  MAGNETIC DECL
 GRDC.deg             0.913350:  GRID CORRECTION
 AZTC.deg             1.336706:  AZM TOTAL CORR
 EPD .m               0.000000:  ELEVATION
 EGL .m             -45.400001:  GROUND ELEVATION
 WDMS.m              45.400001:  WD ELEV
 APD .m              43.899999:  DEPTH ABOVE PD
 MMDE.m               0.000000:  MAGUTM CALC DEP
 CMER.deg            51.000000:  CENTRL MERIDIAN
 AGAP.m              23.099999:  AIR GAP
 EKB .m              43.899999:  KB ELEVATION
 EDF .m              43.899999:  DF ELEVATION
 VSC .                       0:  VS TO CLOSURE
 MAGU.                 1527179:  MAGUTM CHECKSUM
~Parameter Information Block
#MNEM.UNIT       Value        Description
#---------     -----------    ---------------------------
 AV  .mps             1.500000:  Ann Velocity 
 AVMX.mps             2.400000:  Max Ann Veloc 
 AZIF.deg           257.739990:  Azm, Final 
 BHAT.                 Turbine:  BHA Type 
 BROT.°/100'          0.000000:  Build Rotating 
 BS  .in              8.500000:  Bit Size 
 BSZ .in              8.500000:  Bit Size 
 BTPL.psig           43.511005:  Bit Press Loss 
 CABU.                      No:  Customer Abuse 
 TCS .hr            149.515671:  Time Ciculation Ended 
 CV  .mps             3.000000:  Crit Velocity 
 CVMX.mps             4.000000:  Max Crit Veloc 
 DD1 .            Ahmed Bayoud:  Direct Drillr 1 
 DD2 .        Hany Abdel Hafez:  Direct Drillr 2 
 DDSV.                 Turbine:  DD Service 
 DEFF.%              98.000000:  % Det Eff 
 DLRX.°/100'          0.000000:  Dogleg Rot Max 
 DLSO.°/100'          0.000000:  Dogleg Oriented 
 DLSX.°/100'          0.000000:  Dogleg Str Max 
 DRET.      12.28.32 23-Jun-16:  Drill End Time 
 DRST.      14.30.00 17-Jun-16:  Drill Start Tim 
 DTIM.hr            102.349998:  Time Drilling 
 EDEP.m            5254.000000:  End Depth 
 ENG1.         Ahmed Montasser:  Engineer 1 
 ENG2.              Do Dang Sa:  Engineer 2 
 ENG3.           Khaled Khalaf:  Engineer 3 
 ENG4.         Muhammad Mubeen:  Engineer 4 
 ETIM.      05.40.54 26-Jun-16:  End Time 
 FLOI.lpm          1800.000122:  Flow In 
 FLON.lpm          1500.000000:  Flow In Min 
 FLOS.lpm             0.000000:  Fluid Loss 
 FLOX.lpm          1800.000122:  Flow In Max 
 DFT .                   Other:  Mud Type 
 HFLO.                      No:  High Flow 
 HPRE.                      No:  High Pressure 
 HTEM.                      No:  High Temp 
 HYDO.m               1.400000:  Hydro Offset 
 IFIN.deg            10.460000:  Inc, Final 
 IMAX.deg            32.367214:  Inc Max 
 IMIN.deg            11.447388:  Inc Min 
 IMND.m            5236.799805:  Inc Min Depth 
 IMXD.m            4790.299805:  Inc Max Depth 
 JARR.                      No:  Jarring 
 LETM.      12.28.32 23-Jun-16:  Log End Time 
 LOST.hr                     0:  Lost Rig Time 
 LSTM.      14.30.00 17-Jun-16:  Log Start Time 
 MDCL.ppm         23000.000000:  Mud Chlorides 
 MDES.             Fresh Water:  Mud Desc 
 DFD .g/c3            1.170004:  Mud Density 
 MDMN.g/c3            1.160004:  Dens Mud Min 
 MDMX.g/c3            1.170004:  Dens Mud Max 
 PH  .pH              9.400000:  Mud pH 
 MOIL.                       0:  Run Mud Oil % 
 MOWR.                    1 91:  Run Mud OWR 
 MSND.                     0.1:  Run Mud Sand % 
 MSOL.                     6.2:  Run Mud Solids% 
 DFV .spl            73.000000:  Mud Viscosity 
 MWOD.in              6.750000:  MWD Tool OD 
 MWSI.                      No:  Serv Intrp, MWD 
 OTIM.hr            238.111023:  Time Operating 
 PMAX.psig         4000.000000:  Press Op, Max 
 PV  .mPsec          36.000000:  Mud PV 
 RMS .ohmm            0.299000:  Mud Resistivity 
 RMCS.ohmm            0.397000:  Mud Cake Resistivity 
 MCST.degC           35.000000:  Mud Cake Sample Temperature 
 RMFS.ohmm            0.200000:  Mud Filtrate Resistivity 
 RMFT.degC           35.000000:  Mud Filtrate Sample Temperature 
 RMMT.ohmm            0.118100:  Rm @ Max Temp 
 MST .degC           35.000000:  Mud Sample Temperature 
 RUN .                    3300:  Run Number 
 ROPA.m/hr            4.450000:  ROP Avg 
 ROPN.m/hr            2.000000:  ROP Min 
 ROPX.m/hr            7.000000:  ROP Max 
 RPMA.rpm            78.000000:  RPM Surface Avg 
 RPMN.rpm            35.000000:  RPM Surface Min 
 RPMX.rpm            80.000000:  RPM Surface Max 
 RRUN.                    3300:  Rig Run Number 
 RTIM.hr              7.150000:  Time Reaming 
 SAZI.deg           249.699997:  Azm, Start 
 SDEP.m            4799.000000:  Start Depth 
 SIDD.                      No:  Serv Intrp, DD 
 SINC.deg            30.049999:  Inc, Start 
 SPPA.psig         4543.999023:  SPP Avg 
 SPPN.psig         4264.078613:  SPP Min 
 SPPX.psig         4641.173828:  SPP Max 
 STIM.      09.00.00 16-Jun-16:  Start Time 
 SVCS.                 DD, MWD:  Services 
 SVER.                8.300000:  Sperry Version 
 TDAT.m             455.000000:  Tot Depth Attmp 
 TDDF.                      No:  Trip for DD 
 TDLG.m             455.000000:  Tot Depth Loggd 
 TFF .                      No:  Trip for Fail 
 TQAA.f-p         37070.000000:  Torque Abs Avg 
 TQAN.f-p         35000.000000:  Torque Abs Min 
 TQAX.f-p         39000.000000:  Torque Abs Max 
 TRRT.°/100'          0.000000:  Turn Rotating 
 MRT .                     PWD:  Maximum Recorded Temperature 
 TTMX.degC          121.568352:  Max Tool Temp 
 VS01.     AD90473258H2V5WGV2COXF1(6):  Virtual Str1 SN 
 WBMN.klb             4.409245:  WOB Min 
 WITN.           Roger Butters:  Customer Rep 
 WOBA.klb             9.788525:  WOB Avg 
 WOBX.klb            13.227736:  WOB Max 
 YP  .pa             43.000000:  Yield Point 
~Curve Information Block
#MNEM.UNIT                 API CODE     Curve Description
#---------               -----------    ---------------------------
 DEPT.M                 00 000 000 000:  Depth
 DGRCC.api              00 000 000 000:  DGR Comb Gamma Ray BCorr
 ALHSI.in               00 000 000 000:  ALD Hole Size Indicator
 ABR .ohmm              00 000 000 000:  At-Bit Resistivity
 AFRSA.ohmm             00 000 000 000:  AFR Shallow Avg Res
 AFRMA.ohmm             00 000 000 000:  AFR Medium Avg Res
 AFRDA.ohmm             00 000 000 000:  AFR Deep Avg Res
 AFXT.hr                00 000 000 000:  AFR Form Exp Time
 ALCDLC.g/c3            00 000 000 000:  ALD LCRB Comp Density
 ALPELC.NONE            00 000 000 000:  ALD LCRB Pe Factor
 ALDCLC.g/c3            00 000 000 000:  ALD LCRB Den Correction
 TNPL.pu                00 000 000 000:  CTN Porosity Limestone
 DTC .uspf              00 000 000 000:  BAT DTC
 DTRS.uspf              00 000 000 000:  BAT Refracted Shear
 VPVS.NONE              00 000 000 000:  BAT VP/VS
#Other Information
#
#WARRANTY: Halliburton will use its best efforts to furnish customers with 
#accurate information and interpretations that are part of, and incident to, the services 
#provided.  However, Halliburton cannot and does not warrant the accuracy 
#or correctness of such information and interpretations.  Under no circumstances should any 
#such information or interpretation be relied upon as the sole basis for any drilling, 
#completion, production, or financial decision or any procedure involving any risk to the 
#safety of any drilling venture, drilling rig or its crew or any other third party.  The 
#Customer has full responsibility for all drilling, completion and production operation.  
#Halliburton makes no representations or warranties, either expressed or 
#implied, including, but not limited to, the implied warranties of merchantability or fitness 
#for a particular purpose, with respect to the services rendered.  In no event will 
#Halliburton be liable for failure to obtain any particular results or for 
#any damages, including, but not limited to, indirect, special or consequential damages, 
#resulting from the use of any information or interpretation provided by Halliburton.
#
~A   DEPT      DGRCC     ALHSI      ABR      AFRSA     AFRMA     AFRDA     AFXT     ALCDLC    ALPELC    ALDCLC     TNPL       DTC      DTRS      VPVS    
# ...
   5473.4460   17.2301    5.7607   22.2482   36.9006   36.2105   35.1973   45.0731    2.4977    3.5133   -0.0063    3.3744   60.4487   90.2191    1.4925
   5473.5984   13.5732    5.7916   22.2141   39.3442   38.9981   38.1643   45.2266    2.4986    3.7120    0.0023    3.4349   60.3984   89.6763    1.4848
   5473.7508   12.1894    5.7832   22.1452   42.0007   42.2238   40.8078   45.0888    2.4907    4.0428    0.0025    3.4645   59.4860   89.0929    1.4980
   5473.9032   11.5326    5.7858   22.1544   37.8204   36.9334   35.2685   44.9997    2.4934    4.1452    0.0052    3.6808   58.4419   88.8529    1.5205
   5474.0556   12.3890    5.8503   22.0701   30.1218   27.5250   26.4909   45.0630    2.5011    4.2390    0.0158    4.1333   58.1937   89.2650    1.5340
   5474.2080   12.0571    5.9161   21.8902   25.8610   22.4798   21.9375   45.3573    2.5046    4.2456    0.0254    4.6819   58.1568   89.7256    1.5429
   5474.3604   14.2947    5.8956   21.8016   25.3815   22.0016   21.4944   45.1269    2.4945    4.3474    0.0214    4.7139   58.1395   89.8745    1.5459
   5474.5128   16.9367    5.8403   21.7138   25.5798   22.8055   21.7133   45.1784    2.4910    4.4171    0.0127    4.8014   58.5109   90.3179    1.5437
   5474.6652   18.3143    5.8359   21.6445   25.9616   23.8885   22.3595   45.2465    2.4979    4.5958    0.0128    4.7004   58.6928   90.5897    1.5435
   5474.8176   18.6576    5.8812   21.5870   28.4683   26.5482   25.2115   45.0802    2.5073    4.4850    0.0193    4.4223   58.2970   90.7349    1.5565
   5474.9700   20.3222    5.9224   21.5530   31.7345   29.3670   28.7445   45.0392    2.5102    4.3715    0.0219    4.3044   58.2445   90.5313    1.5544
   5475.1224   20.3506    5.7990   21.6734   33.1007   29.8415   30.4043   45.0726    2.5002    3.7742   -0.0037    4.0093   58.3800   90.4744    1.5498
   5475.2748   18.7930    5.8025   22.0705   34.5271   30.7145   32.4425   45.1649    2.5133    3.6858    0.0036    3.8024   57.8919   90.2776    1.5595
   5475.4272   17.7611    5.8454   22.4592   37.2958   33.1749   35.4602   45.4250    2.5277    3.6989    0.0151    3.7539   57.7018   90.1050    1.5616
   5475.5796   20.1765    5.8672   22.6733   39.8461   35.8800   39.0743   45.4049    2.5109    4.0839    0.0184    3.7904   57.9556   89.6708    1.5473
   5475.7320   18.0867    5.8542   22.8550   41.9789   40.0154   43.3655   45.2079    2.5036    4.1003    0.0137    3.7349   58.3853   87.9002    1.5057
   5475.8844   14.1251    5.8415   23.0390   40.4062   41.4551   42.4719   45.1238    2.4978    4.0351    0.0105    3.9710   58.7782   86.9348    1.4791
   5476.0368   14.3162    5.8462   23.4038   31.6683   32.3468   32.1650   45.1839    2.4864    4.2102    0.0099    4.5094   59.3522   87.5800    1.4756
   5476.1892   14.7724    5.8226   23.8666   24.9663   24.8263   24.1131   45.5197    2.4894    4.2675    0.0103    5.4114   59.8884   89.3371    1.4917
   5476.3416   18.0491    5.8752   24.2639   22.7693   21.8151   21.1614   45.4700    2.4941    4.5531    0.0198    6.2615   59.7501   89.9825    1.5061
   5476.4940   19.8222    5.8922   24.5546   21.4802   19.8745   19.4913   45.2752    2.4891    4.5116    0.0126    6.4731   59.3247   90.1691    1.5200
   5476.6464   23.5096    5.8230   24.7298   20.3607   18.7757   18.0441   45.1741    2.4805    4.2934    0.0013    6.4425   59.6235   91.1135    1.5281
   5476.7988   26.6742    5.8034   24.6033   21.1380   19.7677   18.7184   45.2333    2.4847    4.2930    0.0020    5.7512   59.6987   91.8605    1.5388
   5476.9512   26.3210    5.7969   24.2324   27.5659   26.4988   25.9239   45.5613    2.4950    4.4063    0.0020    5.0936   60.0158   91.4586    1.5240
   5477.1036   27.8669    5.7691   23.8554   46.2679   46.9118   47.6706   45.5130    2.5137    4.1373   -0.0054    4.8706   60.3303   90.9165    1.5070
   5477.2560   21.4426    5.7709   23.6421   71.8274   76.3576   78.9069   45.3454    2.5263    3.9760   -0.0032    4.3512   60.2261   90.1440    1.4967
   5477.4084   15.6042    5.7545   23.5141   77.4888   82.5090   85.2832   45.3245    2.5174    3.6558   -0.0131    2.6018   59.5695   88.6643    1.4883
   5477.5608   12.7208    5.7509   23.4186   79.2305   82.8913   86.0104   45.5433    2.5169    3.5650   -0.0142    2.3666   58.5673   86.0709    1.4696
   5477.7132   11.7648    5.7542   23.2604   84.8765   88.7535   91.7259   45.5658    2.5169    3.6374   -0.0108    2.1959   57.4232   84.8920    1.4787
   5477.8656   13.4094    5.7548   23.1641   88.4979   92.5908   95.0391   45.5223    2.5143    3.8409   -0.0088    1.9208   56.3666   84.8697    1.5060
   5478.0180   14.3811    5.7697   23.1994   91.6753   94.3925   94.5244   45.4168    2.5206    4.0865   -0.0030    1.7595   56.2096   85.1785    1.5164
   5478.1704   14.1698    5.7858   23.3853   91.8296   92.5790   89.7158   45.2842    2.5369    4.0451    0.0026    1.6651   57.7617   85.1169    1.4756
   5478.3228   14.9465    5.8085   23.7492   89.8618   88.8278   84.2710   45.2606    2.5497    4.0511    0.0101    1.6786   56.5966   84.3743    1.4919
   5478.4752   15.0286    5.8259   24.2602   91.3048   87.5916   83.0376   45.2709    2.5464    4.1250    0.0153    1.8543   56.5306   83.2677    1.4734
   5478.6276   13.2193    5.9441   24.8244   87.6834   80.8859   78.0549   45.2811    2.5672    5.4924    0.0617    2.0181   56.4313   82.6335    1.4645
   5478.7800   12.5844    6.1518   25.3576   82.2551   73.7648   72.5159   45.3301    2.5933    7.4487    0.1257    2.0236   56.1471   82.8406    1.4755
   5478.9324   15.1787    6.0609   25.8058   85.0596   76.2070   75.5367   45.5133    2.5645    6.5508    0.0847    2.0339   56.5121   84.0695    1.4877
   5479.0848   16.7370    5.8518   26.1088   96.8709   89.7918   89.7596   45.6303    2.5208    5.3518    0.0262    2.3056   57.4046   85.1488    1.4834
   5479.2372   16.0315    5.7897   26.3497  113.5861  109.5795  111.6589   45.5002    2.5156    4.4610   -0.0002    2.7481   57.5834   86.1002    1.4954
   5479.3896   14.7174    5.8042   26.5118  128.5450  123.7310  129.5754   45.3650    2.5283    4.2862    0.0030    2.8322   57.6144   87.0009    1.5102
   5479.5420   14.8047    5.8081   26.6141  130.8222  122.1505  129.5826   45.3428    2.5232    4.1279    0.0030    2.3853   57.9553   87.0580    1.5022
   5479.6944   16.8043    5.7780   26.7175  123.8104  111.9703  118.6304   45.3531    2.5110    4.0757   -0.0034    2.2121   57.9529   86.1614    1.4867
   5479.8468   18.4044    5.7668   26.8204  115.0973  103.9462  109.2903   45.3633    2.5137    4.1000   -0.0037    2.2629   57.8415   84.3294    1.4579
   5479.9992   15.3578    5.7720   26.9542  103.4084   99.7351   98.3406   45.3735    2.5230    4.0040   -0.0018    2.1129   57.3544   83.2032    1.4508
   5480.1516   15.3583    5.7748   27.0900   87.2600   89.7593   81.1029   46.4988    2.5258    3.9590   -0.0026    1.9636   56.4916   83.1644    1.4725
   5480.3040   15.7203    5.8155   27.1848   70.2351   71.4920   63.0579   51.3397    2.5294    4.1517    0.0060    2.0489   56.1543   84.0366    1.4966
   5480.4564   18.2202    5.8317   27.2636   60.1078   58.6171   54.2628   52.4395    2.5210    4.1791    0.0060    2.4115   56.5702   85.8144    1.5170
   5480.6088   17.5241    5.7793   27.3727   59.1963   57.3243   55.6996   52.8250    2.5055    3.9220   -0.0052    2.8996   57.7938   87.9288    1.5212
   5480.7612   15.6337    5.7540   27.5175   63.4973   64.1204   62.6138   53.0141    2.5024    3.6844   -0.0110    3.1137   59.2457   91.5931    1.5454
   5480.9136   15.4470    5.7504   27.6242   68.7897   71.1962   70.7481   52.6352    2.4963    3.7739   -0.0138    3.1182   60.0405   92.9925    1.5484
   5481.0660   15.7386    5.7501   27.6956   73.5409   74.5273   77.4348   52.4442    2.5076    3.6283   -0.0142    2.8778   59.6763   88.9184    1.4897
   5481.2184   14.4503    5.7500   27.9386   74.8211   73.3957   78.9536   52.9311    2.5100    3.4932   -0.0155    2.7230   59.7407   87.7344    1.4686
   5481.3708   15.1282    5.7501   28.4676   70.8306   68.9258   73.6247   53.5345    2.5029    3.5784   -0.0227    2.6555   59.3560   87.6101    1.4765
