~Version Information
 VERS.                  2.0:   CWLS log ASCII Standard -VERSION 2.0
 WRAP.                   NO:   One line per depth step
~Well Information Block
#MNEM.UNIT     VALUE/NAME     DESCRIPTION
#---------     -----------    ---------------------------
 STRT.M              5223.0528: START DEPTH
 STOP.M              5536.2348: STOP DEPTH
 STEP.M                 0.1524: STEP DEPTH
 NULL.               -999.2500: NULL VALUE
 DFWT.                        :  DIST FWL TEXT
 DFST.                        :  DIST FSL TEXT
 DMF .             Drill Floor:  DRILL MEAS FROM
 STIM.      11.30.00 09-Jul-16:  START TIME
 DATE.      11.29.04 14-Aug-16:  END TIME
 SPUD.               17-Aug-15:  SPUD DATE
 NREF.                    Grid:  NORTH REFERENCE
 HPTY.       Minimum Curvature:  HOLE POS TYPE
 DMOD.             Drill Model:  DRILL MOD DESC
 SVYD.                  Survey:  SURVEY DESC
 ILTD.               Lithology:  INTERP LTH DESC
 FTOP.          Formation Tops:  FORM TOPS DESC
 WELL.              AF011-3D-1:  WELL NAME
 COMP.               TOTAL-ABK:  COMPANY
 SON .        AD-XX-0902156848:  JOB NUMBER
 GCDE.     Generic Lat/Long's, Degrees, -180 ==> +180:  GEO COORD DESC
 CCDE.     UTM Clarke 1880 (CM 51), Meters:  CART COORD DESC
 GGSY.                      LL:  GEO GRID SYS
 CGSY.               SS CLRK51:  CART GRID SYS
 GREF.     Ellipsoid World Geodetic System :  GEO REFERENCE
 CREF.     Ellipsoid Clarke - 1880:  CART REFERENCE
 MMDL.            bggm2016.dat:  MAGNETIC MODEL
 MMDD.            20 May, 2016:  MAG DATA DATE
 MDS .              Win MagUTM:  MAG DATA SOURCE
 LLGR.      Latitude/Longitude:  LLGROUP
 XYGR.     UTM Zones, Northern Hemisphere, Meters:  XYGROUP
 PDAT.          Mean Sea Level:  PERMANENT DATUM
 WTYP.                Deviated:  WELL TYPE
 BASE.               Abu Dhabi:  LOGGING EQUIPMENT BASE LOCATION
 REGN.     Middle East/North Africa:  REGION
 PROV.               Abu Dhabi:  PROVINCE
 STAT.               Abu Dhabi:  STATE NAME
 CTRY.     United Arab Emirates:  COUNTRY NAME
 FLD .         Abu Al Bukhoosh:  FIELD NAME
 SRVC.                  SAIPEM:  CONTRACTOR
 MWDS.                Musaffah:  MWD SHOP
 RIG .           Perro Negro 8:  RIG NAME
 CNTY.               Abu Dhabi:  COUNTY NAME
 DCON.             HALLIBURTON:  DIRECTNL CONTR
 UNIT.                    9804:  LOGGING EQUIPMENT ID
 DOE .        AD-XX-0902156848:  DOE NUMBER
 API .                        :  API NUMBER
 UWI .                        :  UNIQUE WELL IDENTIFIER
 LOC .                        :  LOCATION
 LMF .             Drill Floor:  LOG MEASURED FROM
 TVDS.m              43.899999:  TVDSS CORRECTN
 LATI.deg            25.504513:  LATITUDE
 LONG.deg            53.120396:  LONGITUDE
 WHNS.m               0.000000:  WELL HEAD N/S
 WHEW.m               0.000000:  WELL HEAD E/W
 UTMX.m          713123.300043:  UTM X
 UTMY.m         2822281.299893:  UTM Y
 DFWL.m               0.000000:  DISTANCE FWL
 DFSL.m               0.000000:  DISTANCE FSL
 SDEP.m            5253.990000:  START DEPTH
 TDD .m            5543.669658:  TOTAL DEPTH (DRILLER)
 VSDR.deg           249.940002:  VERT SEC DIRECT
 GVFD.g               1.000000:  GRAVITY FIELD
 MFLD.nT          43940.839844:  MAGNETIC FIELD
 MDIP.deg            39.918472:  MAGNETIC DIP
 MDEC.deg             2.250056:  MAGNETIC DECL
 GRDC.deg             0.913350:  GRID CORRECTION
 AZTC.deg             1.336706:  AZM TOTAL CORR
 EPD .m               0.000000:  ELEVATION
 EGL .m             -45.400001:  GROUND ELEVATION
 WDMS.m              45.400001:  WD ELEV
 APD .m              43.899999:  DEPTH ABOVE PD
 MMDE.m               0.000000:  MAGUTM CALC DEP
 CMER.deg            51.000000:  CENTRL MERIDIAN
 AGAP.m              23.099999:  AIR GAP
 EKB .m              43.899999:  KB ELEVATION
 EDF .m              43.899999:  DF ELEVATION
 VSC .                       0:  VS TO CLOSURE
 MAGU.                 1527179:  MAGUTM CHECKSUM
~Parameter Information Block
#MNEM.UNIT       Value        Description
#---------     -----------    ---------------------------
 AV  .mps             1.500000:  Ann Velocity 
 AVMX.mps             2.400000:  Max Ann Veloc 
 AZIF.deg           257.739990:  Azm, Final 
 BHAT.                 Turbine:  BHA Type 
 BROT.°/100'          0.000000:  Build Rotating 
 BS  .in              8.500000:  Bit Size 
 BSZ .in              8.500000:  Bit Size 
 BTPL.psig           43.511005:  Bit Press Loss 
 CABU.                      No:  Customer Abuse 
 TCS .hr            149.515671:  Time Ciculation Ended 
 CV  .mps             3.000000:  Crit Velocity 
 CVMX.mps             4.000000:  Max Crit Veloc 
 DD1 .            Ahmed Bayoud:  Direct Drillr 1 
 DD2 .        Hany Abdel Hafez:  Direct Drillr 2 
 DDSV.                 Turbine:  DD Service 
 DEFF.%              98.000000:  % Det Eff 
 DLRX.°/100'          0.000000:  Dogleg Rot Max 
 DLSO.°/100'          0.000000:  Dogleg Oriented 
 DLSX.°/100'          0.000000:  Dogleg Str Max 
 DRET.      12.28.32 23-Jun-16:  Drill End Time 
 DRST.      14.30.00 17-Jun-16:  Drill Start Tim 
 DTIM.hr            102.349998:  Time Drilling 
 EDEP.m            5254.000000:  End Depth 
 ENG1.         Ahmed Montasser:  Engineer 1 
 ENG2.              Do Dang Sa:  Engineer 2 
 ENG3.           Khaled Khalaf:  Engineer 3 
 ENG4.         Muhammad Mubeen:  Engineer 4 
 ETIM.      05.40.54 26-Jun-16:  End Time 
 FLOI.lpm          1800.000122:  Flow In 
 FLON.lpm          1500.000000:  Flow In Min 
 FLOS.lpm             0.000000:  Fluid Loss 
 FLOX.lpm          1800.000122:  Flow In Max 
 DFT .                   Other:  Mud Type 
 HFLO.                      No:  High Flow 
 HPRE.                      No:  High Pressure 
 HTEM.                      No:  High Temp 
 HYDO.m               1.400000:  Hydro Offset 
 IFIN.deg            10.460000:  Inc, Final 
 IMAX.deg            32.367214:  Inc Max 
 IMIN.deg            11.447388:  Inc Min 
 IMND.m            5236.799805:  Inc Min Depth 
 IMXD.m            4790.299805:  Inc Max Depth 
 JARR.                      No:  Jarring 
 LETM.      12.28.32 23-Jun-16:  Log End Time 
 LOST.hr                     0:  Lost Rig Time 
 LSTM.      14.30.00 17-Jun-16:  Log Start Time 
 MDCL.ppm         23000.000000:  Mud Chlorides 
 MDES.             Fresh Water:  Mud Desc 
 DFD .g/c3            1.170004:  Mud Density 
 MDMN.g/c3            1.160004:  Dens Mud Min 
 MDMX.g/c3            1.170004:  Dens Mud Max 
 PH  .pH              9.400000:  Mud pH 
 MOIL.                       0:  Run Mud Oil % 
 MOWR.                    1 91:  Run Mud OWR 
 MSND.                     0.1:  Run Mud Sand % 
 MSOL.                     6.2:  Run Mud Solids% 
 DFV .spl            73.000000:  Mud Viscosity 
 MWOD.in              6.750000:  MWD Tool OD 
 MWSI.                      No:  Serv Intrp, MWD 
 OTIM.hr            238.111023:  Time Operating 
 PMAX.psig         4000.000000:  Press Op, Max 
 PV  .mPsec          36.000000:  Mud PV 
 RMS .ohmm            0.299000:  Mud Resistivity 
 RMCS.ohmm            0.397000:  Mud Cake Resistivity 
 MCST.degC           35.000000:  Mud Cake Sample Temperature 
 RMFS.ohmm            0.200000:  Mud Filtrate Resistivity 
 RMFT.degC           35.000000:  Mud Filtrate Sample Temperature 
 RMMT.ohmm            0.118100:  Rm @ Max Temp 
 MST .degC           35.000000:  Mud Sample Temperature 
 RUN .                    3300:  Run Number 
 ROPA.m/hr            4.450000:  ROP Avg 
 ROPN.m/hr            2.000000:  ROP Min 
 ROPX.m/hr            7.000000:  ROP Max 
 RPMA.rpm            78.000000:  RPM Surface Avg 
 RPMN.rpm            35.000000:  RPM Surface Min 
 RPMX.rpm            80.000000:  RPM Surface Max 
 RRUN.                    3300:  Rig Run Number 
 RTIM.hr              7.150000:  Time Reaming 
 SAZI.deg           249.699997:  Azm, Start 
 SDEP.m            4799.000000:  Start Depth 
 SIDD.                      No:  Serv Intrp, DD 
 SINC.deg            30.049999:  Inc, Start 
 SPPA.psig         4543.999023:  SPP Avg 
 SPPN.psig         4264.078613:  SPP Min 
 SPPX.psig         4641.173828:  SPP Max 
 STIM.      09.00.00 16-Jun-16:  Start Time 
 SVCS.                 DD, MWD:  Services 
 SVER.                8.300000:  Sperry Version 
 TDAT.m             455.000000:  Tot Depth Attmp 
 TDDF.                      No:  Trip for DD 
 TDLG.m             455.000000:  Tot Depth Loggd 
 TFF .                      No:  Trip for Fail 
 TQAA.f-p         37070.000000:  Torque Abs Avg 
 TQAN.f-p         35000.000000:  Torque Abs Min 
 TQAX.f-p         39000.000000:  Torque Abs Max 
 TRRT.°/100'          0.000000:  Turn Rotating 
 MRT .                     PWD:  Maximum Recorded Temperature 
 TTMX.degC          121.568352:  Max Tool Temp 
 VS01.     AD90473258H2V5WGV2COXF1(6):  Virtual Str1 SN 
 WBMN.klb             4.409245:  WOB Min 
 WITN.           Roger Butters:  Customer Rep 
 WOBA.klb             9.788525:  WOB Avg 
 WOBX.klb            13.227736:  WOB Max 
 YP  .pa             43.000000:  Yield Point 
~Curve Information Block
#MNEM.UNIT                 API CODE     Curve Description
#---------               -----------    ---------------------------
 DEPT.M                 00 000 000 000:  Depth
 DGRCC.api              00 000 000 000:  DGR Comb Gamma Ray BCorr
 ALHSI.in               00 000 000 000:  ALD Hole Size Indicator
 ABR .ohmm              00 000 000 000:  At-Bit Resistivity
 AFRSA.ohmm             00 000 000 000:  AFR Shallow Avg Res
 AFRMA.ohmm             00 000 000 000:  AFR Medium Avg Res
 AFRDA.ohmm             00 000 000 000:  AFR Deep Avg Res
 AFXT.hr                00 000 000 000:  AFR Form Exp Time
 ALCDLC.g/c3            00 000 000 000:  ALD LCRB Comp Density
 ALPELC.NONE            00 000 000 000:  ALD LCRB Pe Factor
 ALDCLC.g/c3            00 000 000 000:  ALD LCRB Den Correction
 TNPL.pu                00 000 000 000:  CTN Porosity Limestone
 DTC .uspf              00 000 000 000:  BAT DTC
 DTRS.uspf              00 000 000 000:  BAT Refracted Shear
 VPVS.NONE              00 000 000 000:  BAT VP/VS
#Other Information
#
#WARRANTY: Halliburton will use its best efforts to furnish customers with 
#accurate information and interpretations that are part of, and incident to, the services 
#provided.  However, Halliburton cannot and does not warrant the accuracy 
#or correctness of such information and interpretations.  Under no circumstances should any 
#such information or interpretation be relied upon as the sole basis for any drilling, 
#completion, production, or financial decision or any procedure involving any risk to the 
#safety of any drilling venture, drilling rig or its crew or any other third party.  The 
#Customer has full responsibility for all drilling, completion and production operation.  
#Halliburton makes no representations or warranties, either expressed or 
#implied, including, but not limited to, the implied warranties of merchantability or fitness 
#for a particular purpose, with respect to the services rendered.  In no event will 
#Halliburton be liable for failure to obtain any particular results or for 
#any damages, including, but not limited to, indirect, special or consequential damages, 
#resulting from the use of any information or interpretation provided by Halliburton.
#
~A   DEPT      DGRCC     ALHSI      ABR      AFRSA     AFRMA     AFRDA     AFXT     ALCDLC    ALPELC    ALDCLC     TNPL       DTC      DTRS      VPVS    
# ...
   5368.4424   24.6919    5.8549   52.3515   80.3250  146.0424  147.8067   35.7134    2.5689    4.0773    0.0159    4.4897   60.6097   92.6779    1.5291
   5368.5948   22.2701    5.8389   52.3656   82.8605  137.9319  143.2811   35.7335    2.5382    4.0452    0.0147    5.0863   60.6192   92.4481    1.5251
   5368.7472   17.7382    5.8126   52.4413   71.6904  107.7974  113.6866   35.7089    2.5063    4.1290    0.0091    5.6112   60.6394   92.2446    1.5212
   5368.8996   13.3821    5.7717   52.3390   58.5882   77.9305   83.4658   35.7086    2.4947    3.9665   -0.0007    5.1512   60.5266   91.9169    1.5186
   5369.0520   11.0388    5.7689   52.1307   50.2841   61.1018   66.1282   35.7182    2.5002    3.7961    0.0016    4.5512   60.3549   91.7575    1.5203
   5369.2044   11.2760    5.7589   52.4317   51.2721   64.4652   68.5060   35.7278    2.5084    3.7287   -0.0011    3.9984   60.0719   91.5594    1.5243
   5369.3568   10.7402    5.7694   54.7658   59.5085   84.5043   87.2252   35.7374    2.5164    3.9250   -0.0005    3.4295   58.9845   91.1168    1.5451
   5369.5092   13.6060    5.7977   57.7274   70.0518  107.7736  111.8775   35.7621    2.5307    4.0075    0.0056    3.0227   57.8138   89.9371    1.5558
   5369.6616   17.7461    5.8931   58.6358   83.5941  131.7947  141.9578   35.8242    2.5460    4.2621    0.0235    2.6118   57.6615   89.8738    1.5587
   5369.8140   17.3221    5.9066   59.0130   96.8117  152.3901  173.4644   35.8589    2.5411    4.3676    0.0261    2.5360   57.6078   89.9564    1.5616
   5369.9664   12.6151    5.8518   59.3494  105.3265  164.7059  195.5782   35.8028    2.5231    4.3635    0.0167    2.6376   58.2534   90.2146    1.5490
   5370.1188   11.8106    5.8108   59.5334  114.5789  177.9845  213.0454   35.8137    2.5201    4.2262    0.0099    2.8610   59.7633   90.8128    1.5201
   5370.2712   11.6987    5.8343   59.6706  121.0398  189.0070  222.2461   35.8195    2.5296    4.2259    0.0137    2.9462   60.9913   90.9710    1.4918
   5370.4236   12.7325    5.9014   59.7130  119.8223  183.5973  215.0819   35.8192    2.5436    4.4023    0.0248    2.9780   60.9783   90.8225    1.4896
   5370.5760   11.7126    5.9424   59.5198  116.8280  169.3943  201.2750   35.8511    2.5424    4.4844    0.0320    2.9424   59.9617   90.8130    1.5148
   5370.7284   12.9298    5.8979   59.5331  114.8415  164.6998  191.8569   35.8430    2.5269    4.4995    0.0217    3.1637   59.2027   90.6813    1.5318
   5370.8808   15.5883    5.8911   59.5173  114.7845  171.4317  189.6688   35.8411    2.5177    4.5079    0.0204    3.4412   59.6521   90.9600    1.5249
   5371.0332   15.4828    5.9039   58.5419  113.2853  174.5365  185.0478   35.8528    2.5131    4.4456    0.0241    3.6943   60.5528   93.0747    1.5371
   5371.1856   15.7964    5.8841   58.3847  106.7120  163.0463  170.3877   35.8832    2.5017    4.5050    0.0207    3.7792   60.8663   95.4610    1.5684
   5371.3380   13.6189    5.8403   58.8666   99.5024  142.6841  149.5655   35.9583    2.4959    4.6232    0.0140    3.8055   61.5913   96.1747    1.5615
   5371.4904   17.7867    5.8352   58.5759   92.3536  122.4174  130.9613   35.9964    2.5170    4.6455    0.0147    3.7939   60.9490   91.7143    1.5044
   5371.6428   23.2129    5.8844   57.7437   93.3019  122.4874  132.0952   35.9744    2.5387    4.5664    0.0228    3.8450   59.0634   87.5794    1.4825
   5371.7952   20.3312    5.8694   57.5919  103.5629  142.1751  149.7190   35.9763    2.5220    4.2673    0.0196    4.1460   57.9305   84.1147    1.4520
   5371.9476   17.3921    5.8453   56.9190  108.8872  149.6664  156.8134   35.9391    2.4953    4.2737    0.0150    4.4534   57.3129   82.8408    1.4457
   5372.1000   17.1033    5.8677   55.5875   95.6126  122.4385  132.9192   35.9384    2.4888    4.6247    0.0175    4.5874   56.7515   82.3983    1.4523
   5372.2524   24.9052    6.0379   55.0462   79.5768   93.4640  109.0457   35.9606    2.5243    5.0579    0.0418    4.5546   57.2358   82.0145    1.4333
   5372.4048   35.2629    6.0647   54.1576   78.6780   93.1084  112.2898   36.0174    2.5478    5.1486    0.0458    4.5373   57.1246   83.5089    1.4623
   5372.5572   35.0628    5.9847   52.9922   88.3885  115.2184  137.6838   36.0663    2.5255    4.8902    0.0330    5.4255   59.0097   86.4628    1.4646
   5372.7096   23.6773    5.9239   51.9658   83.8399  126.2475  143.1027   36.0276    2.4904    4.7429    0.0236    6.9842   64.2771   97.4449    1.5124
   5372.8620   23.6591    6.0920   51.0169   61.7509  118.7067  112.7598   36.0212    2.5005    5.4844    0.0542    9.0538   73.4677  114.4095    1.5565
   5373.0144   45.3660    6.8132   50.0115   42.6464   97.7291   80.7124   36.0478    2.5763    7.9300    0.1727   11.5152   79.8269  121.7499    1.5272
   5373.1668   91.1436    7.3902   49.5436   32.5343   74.6750   56.5728   36.1210    2.6027   10.6705    0.2557   13.0345   83.1208  122.2908    1.4723
   5373.3192  131.7375    6.7464   49.8716   23.3237   45.2297   35.9174   36.0977    2.4582    9.0641    0.1333   17.7077   81.2593  118.9806    1.4654
   5373.4716  122.3787    6.0069   49.8636   17.8172   24.4534   26.7112   36.1830    2.3991    5.6727    0.0215   26.1771   77.0274  110.2580    1.4354
   5373.6240   79.8996    5.8483   49.2957   20.0553   20.9330   33.8333   36.1857    2.4258    4.8433    0.0014   25.4115   66.5701   98.5886    1.4878
   5373.7764   39.0275    5.8672   48.9210   30.0942   35.3735   55.8061   36.2438    2.4581    4.7996    0.0100   14.4104   62.0542   93.3281    1.5054
   5373.9288   19.1502    6.0056   48.4142   40.6930   61.7576   71.8599   36.4562    2.4919    4.7222    0.0320    7.5916   61.1709   92.1368    1.5062
   5374.0812   13.6434    6.0412   47.9725   45.5946   67.9294   70.5960   36.5937    2.4955    4.6718    0.0382    5.5233   61.1274   92.4847    1.5130
   5374.2336   14.1799    6.1446   47.7981   46.0438   59.9275   64.9003   36.6324    2.5068    4.9139    0.0541    4.9287   60.9126   92.7734    1.5246
   5374.3860   19.7891    6.0577   47.7310   48.2112   56.8052   65.9705   36.6477    2.4904    4.9180    0.0384    4.5038   60.3864   92.2217    1.5336
   5374.5384   22.5462    5.8606   47.3771   55.2977   65.9899   73.8382   36.6857    2.4817    4.5943    0.0082    4.4211   60.4114   91.5731    1.5275
   5374.6908   21.7340    5.7997   46.7801   63.0104   76.8408   77.4407   36.7571    2.5026    4.3764    0.0032    4.7969   60.7738   91.4157    1.5074
   5374.8432   18.9717    5.8230   46.4705   57.7599   66.3075   65.5183   36.7850    2.5167    4.1586    0.0101    4.8595   60.3587   91.6561    1.5204
   5374.9956   15.9808    5.7800   45.6846   51.4506   56.4889   58.7715   36.7979    2.4973    4.0466    0.0019    4.5983   60.6759   92.2311    1.5213
   5375.1480   15.2548    5.7560   44.7161   55.4961   64.3279   68.6102   36.8085    2.4905    4.0928   -0.0066    4.4195   60.7660   92.2185    1.5187
   5375.3004   17.2979    5.7631   44.6999   63.2096   80.1348   84.3953   36.8195    2.4977    4.2021   -0.0025    4.4360   60.7244   92.0351    1.5165
   5375.4528   13.8127    5.7985   44.0793   62.8629   83.2727   84.0486   36.8304    2.5153    4.1669    0.0065    4.2025   60.0673   92.3312    1.5386
   5375.6052   12.0753    5.8212   42.7458   46.1438   60.2449   58.5398   36.8409    2.5098    4.0857    0.0105    4.1736   57.7026   92.6445    1.6092
   5375.7576   12.3738    5.8066   41.6496   31.0429   39.8996   39.0040   36.8518    2.4950    4.0582    0.0069    4.4588   58.4162   92.8677    1.5817
   5375.9100   10.6997    5.7649   40.6778   25.9591   34.5228   34.3324   36.8627    2.4763    3.8194   -0.0024    4.8279   59.7230   92.2633    1.5352
   5376.0624   10.8589    5.7614   39.4388   26.1077   35.3672   34.8247   36.8732    2.4830    3.7202   -0.0008    5.4491   60.1629   91.7791    1.5237
   5376.2148   11.2882    5.7585   38.2900   25.9253   32.4642   31.8229   36.8840    2.4772    3.5682   -0.0030    5.9866   60.0619   91.7135    1.5288
   5376.3672   10.2224    5.7537   37.8051   26.1194   28.6575   28.3513   36.8950    2.4686    3.3750   -0.0035    5.8487   59.2963   92.3571    1.5598
