~Version Information
 VERS.                  2.0:   CWLS log ASCII Standard -VERSION 2.0
 WRAP.                   NO:   One line per depth step
~Well Information Block
#MNEM.UNIT     VALUE/NAME     DESCRIPTION
#---------     -----------    ---------------------------
 STRT.F             10112.0000: START DEPTH
 STOP.F             11135.0000: STOP DEPTH
 STEP.F                 0.5000: STEP DEPTH
 NULL.               -999.2500: NULL VALUE
 UNIT.                12318515:  LOGGING EQUIPMENT ID
 CNTY.             HAIR DALMAH:  COUNTY NAME
 JOBN.        AD-XX-0905995035:  JOB TICKET NUMB
 FLD .             HAIR DALMAH:  FIELD NAME
 PDAT.          Mean Sea Level:  PERMANENT DATUM
 RIG .                     PN8:  RIG NAME
 MWDS.                    ICAD:  MWD SHOP
 CTRY.     United Arab Emirates:  COUNTRY NAME
 REGN.     Middle East/North Africa:  REGION
 BASE.               Abu Dhabi:  LOGGING EQUIPMENT BASE LOCATION
 WTYP.                Deviated:  WELL TYPE
 XYGR.     UTM Zones, Northern Hemisphere, Meters:  XYGROUP
 LLGR.      Latitude/Longitude:  LLGROUP
 MDS .              Win MagUTM:  MAG DATA SOURCE
 MMDD.       05 December, 2019:  MAG DATA DATE
 MMDL.            bggm2019.dat:  MAGNETIC MODEL
 CREF.     Ellipsoid Clarke - 1880:  CART REFERENCE
 GREF.     Ellipsoid World Geodetic System :  GEO REFERENCE
 CGSY.               SS CLRK51:  CART GRID SYS
 GGSY.                      LL:  GEO GRID SYS
 CCDE.     UTM Clarke 1880 (CM 51), Meters:  CART COORD DESC
 GCDE.     Generic Lat/Long's, Degrees, -180 ==> +180:  GEO COORD DESC
 SON .        AD-XX-0905995035:  JOB NUMBER
 COMP.          ADNOC Offshore:  COMPANY
 WELL.               HD011-02D:  WELL NAME
 FTOP.          Formation Tops:  FORM TOPS DESC
 ILTD.               Lithology:  INTERP LTH DESC
 SVYD.                  Survey:  SURVEY DESC
 DMOD.             Drill Model:  DRILL MOD DESC
 HPTY.       Minimum Curvature:  HOLE POS TYPE
 NREF.                    Grid:  NORTH REFERENCE
 SPUD.               17-Feb-20:  SPUD DATE
 DATE.      06.00.00 09-Apr-20:  END TIME
 STIM.      11.40.00 06-Apr-20:  START TIME
 DMF .             Drill Floor:  DRILL MEAS FROM
 DFST.                        :  DIST FSL TEXT
 DFWT.                        :  DIST FWL TEXT
 PROV.               Abu Dhabi:  PROVINCE
 STAT.               Abu Dhabi:  STATE NAME
 API .                        :  API NUMBER
 SRVC.             Halliburton:  SERVICE COMPANY
 UWI .                        :  UNIQUE WELL IDENTIFIER
 LOC .                        :  LOCATION
 LMF .             Drill Floor:  LOG MEASURED FROM
 DEP .ft              0.000000:  DEPTH
 AGAP.ft            118.000000:  AIR GAP
 CMER.deg            51.000000:  CENTRL MERIDIAN
 MMDE.ft              0.000000:  MAGUTM CALC DEP
 APD .ft            118.000000:  DEPTH ABOVE PD
 WDMS.ft             65.000000:  WD ELEV
 EGL .ft              0.000000:  GROUND ELEVATION
 EPD .ft              0.000000:  ELEVATION
 AZTC.deg             1.750428:  AZM TOTAL CORR
 GRDC.deg             0.592532:  GRID CORRECTION
 MDEC.deg             2.342959:  MAGNETIC DECL
 MDIP.deg            38.394272:  MAGNETIC DIP
 MFLD.nT          43612.476563:  MAGNETIC FIELD
 GVFD.g               1.000000:  GRAVITY FIELD
 VSDR.deg            91.860001:  VERT SEC DIRECT
 TDD .ft          11135.000000:  TOTAL DEPTH (DRILLER)
 SDEP.ft          10171.000000:  START DEPTH
 DFSL.ft              0.000000:  DISTANCE FSL
 DFWL.ft              0.000000:  DISTANCE FWL
 UTMY.m         2710911.810000:  UTM Y
 UTMX.m          644702.250000:  UTM X
 WHEW.ft              0.000000:  WELL HEAD E/W
 WHNS.ft              0.000000:  WELL HEAD N/S
 LONG.deg            52.428197:  LONGITUDE
 LATI.deg            24.507246:  LATITUDE
 TVDS.ft            118.000000:  TVDSS CORRECTN
 EKB .ft            118.000000:  KB ELEVATION
 EDF .ft            118.000000:  DF ELEVATION
 MAGU.                 1512580:  MAGUTM CHECKSUM
 VSC .                       0:  VS TO CLOSURE
~Parameter Information Block
#MNEM.UNIT       Value        Description
#---------     -----------    ---------------------------
 AV  .fpm             1.000000:  Ann Velocity 
 AVMX.fpm             1.000000:  Max Ann Veloc 
 AZIF.deg            83.830002:  Azm, Final 
 BHAT.               Mud Motor:  BHA Type 
 BS  .in             14.500000:  Bit Size 
 BSZ .in             14.500000:  Bit Size 
 BTPL.psig            1.000000:  Bit Press Loss 
 CABU.                      No:  Customer Abuse 
 CGEO.             Carey Mills:  Customer Geo 
 COMM.                     t i:  Run Comments 1 
 TCS .hr             83.600342:  Time Ciculation Ended 
 CV  .fpm             1.000000:  Crit Velocity 
 CVMX.fpm             1.000000:  Max Crit Veloc 
 DD1 .          Devinder Kumar:  Direct Drillr 1 
 DD2 .     Mohamed Gayed Barakat:  Direct Drillr 2 
 DDSV.               Mud Motor:  DD Service 
 DEFF.%              90.000000:  % Det Eff 
 DRET.      06.15.00 04-Apr-20:  Drill End Time 
 DRST.      13.57.20 31-Mar-20:  Drill Start Tim 
 DTIM.hr             56.449772:  Time Drilling 
 EDEP.ft          10171.000000:  End Depth 
 ENG1.           Denis Sobolev:  Engineer 1 
 ENG2.            Imad Youssef:  Engineer 2 
 ETIM.      23.30.00 06-Apr-20:  End Time 
 FLOI.gpm           999.999939:  Flow In 
 FLON.gpm           964.999939:  Flow In Min 
 FLOS.mptm            2.600000:  Fluid Loss 
 FLOX.gpm          1100.000000:  Flow In Max 
 DFT .                 Polymer:  Mud Type 
 HFLO.                      No:  High Flow 
 HPRE.                      No:  High Pressure 
 HTEM.                      No:  High Temp 
 HYDO.ft              0.000000:  Hydro Offset 
 IFIN.deg            26.030001:  Inc, Final 
 IMAX.deg            26.559999:  Inc Max 
 IMIN.deg            24.139999:  Inc Min 
 IMND.ft           9477.000000:  Inc Min Depth 
 IMXD.ft           9942.000000:  Inc Max Depth 
 JARR.                      No:  Jarring 
 LETM.      23.30.00 06-Apr-20:  Log End Time 
 LOST.hr                     0:  Lost Rig Time 
 LSTM.      13.57.20 31-Mar-20:  Log Start Time 
 MDCL.ppm        150000.000000:  Mud Chlorides 
 MDES.             Fresh Water:  Mud Desc 
 DFD .ppg            12.000000:  Mud Density 
 MDMN.ppg            12.000000:  Dens Mud Min 
 MDMX.ppg            12.000000:  Dens Mud Max 
 PH  .pH             10.300000:  Mud pH 
 MOIL.                      19:  Run Mud Oil % 
 MOWR.                   19 81:  Run Mud OWR 
 MSND.                       0:  Run Mud Sand % 
 MSOL.                      19:  Run Mud Solids% 
 MTV .                GeoForce:  Motor Variant 
 DFV .spqt           51.000000:  Mud Viscosity 
 MWOD.in              8.150000:  MWD Tool OD 
 MWSI.                      No:  Serv Intrp, MWD 
 OTIM.hr            106.542305:  Time Operating 
 PMAX.psig         6850.255859:  Press Op, Max 
 PV  .cP             21.000000:  Mud PV 
 RMS .ohmm            0.039000:  Mud Resistivity 
 RMCS.ohmm            0.059000:  Mud Cake Resistivity 
 MCST.degF           80.000000:  Mud Cake Sample Temperature 
 RMFS.ohmm            0.030000:  Mud Filtrate Resistivity 
 RMFT.degF           80.000000:  Mud Filtrate Sample Temperature 
 RMMT.ohmm            0.018000:  Rm @ Max Temp 
 MST .degF           80.000000:  Mud Sample Temperature 
 RUN .                    2300:  Run Number 
 RRUN.                    2300:  Rig Run Number 
 SAZI.deg           101.400002:  Azm, Start 
 SDEP.ft           9467.000000:  Start Depth 
 SIDD.                      No:  Serv Intrp, DD 
 SINC.deg            24.139999:  Inc, Start 
 STIM.      13.57.20 31-Mar-20:  Start Time 
 SVER.                9.200000:  Sperry Version 
 TDAT.ft            704.000000:  Tot Depth Attmp 
 TDDF.                      No:  Trip for DD 
 TDLG.ft            704.000000:  Tot Depth Loggd 
 TFF .                      No:  Trip for Fail 
 MRT .                     PWD:  Maximum Recorded Temperature 
 TTMX.degF          181.000000:  Max Tool Temp 
 VS01.           F1(8)90603244:  Virtual Str1 SN 
 VS02.     H2V5WGV2R(8)90604159:  Virtual Str2 SN 
 WITN.     Mohamed Sharaf el Din:  Customer Rep 
 YP  .lhf2           29.000000:  Yield Point 
~Curve Information Block
#MNEM.UNIT                 API CODE     Curve Description
#---------               -----------    ---------------------------
 DEPT.F                 00 000 000 000:  Depth
 RPTVD.ft               00 000 000 000:  ROP True Vertical Depth
 ROPA.fph               00 000 000 000:  Avg Rate of Penetration
 DGRCC.api              00 000 000 000:  DGR Comb Gamma Ray BCorr
 EWXT.hr                00 000 000 000:  EWR Formation Exp Time
 R15P.ohmm              00 000 000 000:  EWR Shallow Phase Res
 R15A.ohmm              00 000 000 000:  EWR Shallow Atten Res
 R27P.ohmm              00 000 000 000:  EWR Medium Phase Res
 R27A.ohmm              00 000 000 000:  EWR Medium Atten Res
 R39P.ohmm              00 000 000 000:  EWR Deep Phase Res
 R39A.ohmm              00 000 000 000:  EWR Deep Atten Res
 ABR .ohmm              00 000 000 000:  At-Bit Resistivity
 AFRSA.ohmm             00 000 000 000:  AFR Shallow Avg Res
 AFRDA.ohmm             00 000 000 000:  AFR Deep Avg Res
 AFXT.hr                00 000 000 000:  AFR Form Exp Time
#Other Information
#
#WARRANTY: Halliburton will use its best efforts to furnish customers with 
#accurate information and interpretations that are part of, and incident to, the services 
#provided.  However, Halliburton cannot and does not warrant the accuracy 
#or correctness of such information and interpretations.  Under no circumstances should any 
#such information or interpretation be relied upon as the sole basis for any drilling, 
#completion, production, or financial decision or any procedure involving any risk to the 
#safety of any drilling venture, drilling rig or its crew or any other third party.  The 
#Customer has full responsibility for all drilling, completion and production operation.  
#Halliburton makes no representations or warranties, either expressed or 
#implied, including, but not limited to, the implied warranties of merchantability or fitness 
#for a particular purpose, with respect to the services rendered.  In no event will 
#Halliburton be liable for failure to obtain any particular results or for 
#any damages, including, but not limited to, indirect, special or consequential damages, 
#resulting from the use of any information or interpretation provided by Halliburton.
#
~A    DEPT      RPTVD      ROPA      DGRCC     EWXT      R15P      R15A      R27P      R27A      R39P      R39A       ABR       AFRSA      AFRDA      AFXT    
# ...
   10265.0000  9354.4893   27.2423    9.3120    2.6838   97.5184   13.1351 1415.8008  200.0000 2000.0000  200.0000  2132.7749 17703.8320 20000.0000    2.1151
   10265.5000  9354.9658   28.6565   10.1653    2.6884   83.0547   11.4831 1637.3820  200.0000 2000.0000  200.0000  2129.1018 19273.9277 20000.0000    2.1208
   10266.0000  9355.3760   27.4869    8.6584    2.6923   68.5536   11.1446  800.0916  200.0000 2000.0000  200.0000  2127.0676 20000.0000 20000.0000    2.1227
   10266.5000  9355.8418   26.8279    8.3228    2.6973   65.6020   11.4913  993.0534  200.0000 2000.0000  200.0000  2126.1755 20000.0000 20000.0000    2.1254
   10267.0000  9356.2705   27.5755    9.0007    2.7041   85.4909   12.1126 1561.1887  200.0000 2000.0000  200.0000  2118.8469 20000.0000 20000.0000    2.1282
   10267.5000  9356.7246   27.1080    8.9516    2.7407  102.3930   13.5494 1285.2091  200.0000 2000.0000  200.0000  2114.6963 20000.0000 20000.0000    2.1320
   10268.0000  9357.1465   26.6438    8.7971    2.7659   83.2380   13.4492  822.1914  200.0000 2000.0000  200.0000  2111.5046 20000.0000 20000.0000    2.1369
   10268.5000  9357.6299   27.8246   10.3855    2.7949   82.2390   10.6873  679.2061  200.0000 2000.0000  200.0000  2106.2014 20000.0000 20000.0000    2.1450
   10269.0000  9358.0449   28.2266   10.8906    2.7928   65.9388   14.5194  573.1678  200.0000 2000.0000  200.0000  2100.1023 20000.0000 20000.0000    2.1626
   10269.5000  9358.4912   28.2650   10.8454    2.7990   73.9119   21.7520  733.9212  200.0000 2000.0000  200.0000  2096.1626 20000.0000 20000.0000    2.2217
   10270.0000  9358.9482   30.6350    9.5682    2.8089   63.0823   23.9083  635.3745  200.0000 2000.0000  200.0000  2091.6816 20000.0000 20000.0000    2.2280
   10270.5000  9359.3848   30.1994   10.0809    2.8158   52.2337   13.9655  354.7829  200.0000 2000.0000  200.0000  2088.0076 20000.0000 20000.0000    2.2308
   10271.0000  9359.8242   29.1304   10.6539    2.8226   74.6822   11.5750  939.2256  200.0000 2000.0000  200.0000  2081.3999 19998.3418 20000.0000    2.2346
   10271.5000  9360.2754   30.1309   10.8158    2.8302   63.6271   12.0636  631.7145  200.0000 2000.0000  200.0000  2075.9998 19203.4902 20000.0000    2.2339
   10272.0000  9360.7207   31.3379   10.8266    2.8382   59.6567   16.2933  598.5984  200.0000 2000.0000  200.0000  2070.6758 18267.1133 20000.0000    2.2327
   10272.5000  9361.1680   31.2350   10.7987    2.8450   70.6229   19.6577  833.5553  200.0000 2000.0000  200.0000  2070.1731 19898.7949 20000.0000    2.2307
   10273.0000  9361.6074   30.3264   10.1941    2.8542   47.4459   14.5139  299.1063  200.0000 2000.0000  200.0000  2069.2004 20000.0000 17780.7910    2.2287
   10273.5000  9362.0537   29.6408    8.5254    2.8649   79.3037   12.0608  772.8101  200.0000 2000.0000  200.0000  2066.3333 16044.2793 15561.5820    2.2261
   10274.0000  9362.4902   29.1286   11.8623    2.8752   64.5748   14.1452  357.8448  200.0000 2000.0000  200.0000  2061.6770 10075.5430 13342.3730    2.2257
   10274.5000  9362.9375   28.9547   12.8033    2.8847   49.4284   18.1589  189.8457  200.0000 2000.0000  200.0000  2030.1444  1840.1335  4536.3467    2.2311
   10275.0000  9363.3838   29.4371   13.3374    2.8947   41.3718   13.1016  173.3181  200.0000 2000.0000  200.0000  1926.5940   460.0509   842.5960    2.2391
   10275.5000  9363.8281   29.6678   13.3495    2.9061   63.2800   10.9658  494.9469  200.0000 2000.0000  200.0000  1895.2991   361.3231   534.5143    2.2437
   10276.0000  9364.2725   29.6588   12.7305    2.9169   50.5118   16.4777  424.0351  200.0000 2000.0000  200.0000  1884.4762   473.0436   999.2198    2.2499
   10276.5000  9364.7148   29.6423   10.8252    2.9254   40.6909   15.6539  170.8039  200.0000 2000.0000  200.0000  1880.2852  2120.0779  4918.9160    2.2572
   10277.0000  9365.1592   29.6468   10.9069    2.9357   46.0350   16.1826  176.6340  200.0000 2000.0000  200.0000  1875.2209 14892.1943 14517.4990    2.2626
   10277.5000  9365.6035   29.6028   11.2270    2.9631   74.6836   15.6525  469.6194  200.0000 2000.0000  200.0000  1871.5930 17681.6504 19281.8750    2.2679
   10278.0000  9366.0654   29.3429   11.6989    2.9796   81.9126   13.4656  470.2694  200.0000 2000.0000  200.0000  1863.1539  7513.3677 12420.4941    2.2724
   10278.5000  9366.4756   27.2473   10.9425    2.9811   79.1400   13.1955  349.4397  200.0000 2000.0000  200.0000  1835.6552  3160.9231  4783.1675    2.2771
   10279.0000  9366.9355   26.6475   10.2449    2.9740  121.1350   11.1371  592.0468  200.0000 2000.0000  200.0000  1822.3186  2934.4441  4229.7129    2.2843
   10279.5000  9367.3770   28.8711   11.8501    2.9681   92.6229   11.9610  309.1318  200.0000 2000.0000  200.0000  1818.5121  2855.0979  3738.0356    2.2971
   10280.0000  9367.8213   29.6202   11.8520    2.9638   46.4265   15.6388  211.2366  200.0000 2000.0000  200.0000  1810.7244  3595.7605  4138.3721    2.3578
   10280.5000  9368.2666   29.5981   11.8335    2.9634   82.3667   16.3936  590.6433  200.0000 2000.0000  200.0000  1810.3125 11289.0225 12139.1543    2.3815
   10281.0000  9368.7939   25.1507   10.0937    2.9622   78.5738   13.5261  395.4715  200.0000 2000.0000  200.0000  1805.9310 19401.3652 18933.9316    2.3757
   10281.5000  9369.0664   19.0627   10.2455    2.9591   68.3863   13.0393  379.3849  200.0000 2000.0000  200.0000  1802.4662 20000.0000 19289.2871    2.3674
   10282.0000  9369.5957   18.2012    9.2445    2.9487   45.7941   17.0203  222.9745  200.0000 2000.0000  200.0000  1801.2556 20000.0000 19644.6445    2.3680
   10282.5000  9370.0410   28.1881    8.9078    2.9483   51.4549   17.6483  342.3415  200.0000 2000.0000  200.0000  1800.0393 20000.0000 20000.0000    2.3736
   10283.0000  9370.4873   29.5291    9.8309    2.9474   76.0782   17.3682  489.7846  200.0000 2000.0000  200.0000  1800.9718 20000.0000 20000.0000    2.3791
   10283.5000  9370.9395   29.1162   10.9909    2.9426   86.3685   15.3335  470.0161  200.0000 2000.0000  200.0000  1892.0588 20000.0000 20000.0000    2.3838
   10284.0000  9371.3652   27.4067    9.1923    2.9373   61.9187   14.4240  190.5348  200.0000 2000.0000  200.0000  2251.6716 20000.0000 20000.0000    2.3893
   10284.5000  9371.8154   26.1275    8.2840    2.9328   54.9995   13.3685  328.1254  200.0000 2000.0000  200.0000  3113.8389 20000.0000 20000.0000    2.3939
   10285.0000  9372.2568   26.3697    9.2913    2.9291   85.8323   14.0221  285.6409  200.0000 2000.0000  200.0000  5681.9204 20000.0000 20000.0000    2.4003
   10285.5000  9372.7012   26.5397    9.1079    2.9249   78.3691   13.1024  363.7105  200.0000 2000.0000  200.0000 13381.8672 20000.0000 20000.0000    2.4100
   10286.0000  9373.1396   26.7492    8.1240    2.9210   70.8832   13.9256  176.7771  200.0000 2000.0000  200.0000 19645.0840 20000.0000 20000.0000    2.4195
   10286.5000  9373.5820   27.4997    8.8608    2.9180   55.2352   19.2694  152.8787  200.0000 2000.0000  200.0000 20000.0000 20000.0000 20000.0000    2.4284
   10287.0000  9374.0322   28.9194    8.6822    2.9214   59.7461   21.6121  141.7295  200.0000 2000.0000  200.0000 20000.0000 20000.0000 20000.0000    2.4369
   10287.5000  9374.4873   28.8910    9.2711    2.9280   47.8597   21.3338  101.3438  200.0000 2000.0000  200.0000 20000.0000 20000.0000 20000.0000    2.4471
   10288.0000  9374.9072   27.1183    7.9402    2.9315   50.7053   25.5752   70.2362  200.0000 2000.0000  200.0000 20000.0000 20000.0000 20000.0000    2.4569
   10288.5000  9375.3701   26.8088    8.2858    2.9391   52.8659   26.3607   78.6136  200.0000 2000.0000  200.0000 20000.0000 20000.0000 20000.0000    2.4638
   10289.0000  9375.7900   26.9215    7.1342    2.9450   41.6312   39.9048   87.3724  200.0000 2000.0000  200.0000 20000.0000 20000.0000 20000.0000    2.4701
   10289.5000  9376.2480   27.4375    8.3619    2.9708   52.6902   34.1363   76.8503  200.0000 1984.5502  200.0000 20000.0000 20000.0000 20000.0000    2.4889
   10290.0000  9376.8691   15.8831    8.4617    2.9856   52.6621   22.4611   69.3573  200.0000 1760.0526  200.0000 20000.0000 20000.0000 20000.0000    2.5113
