~Version Information
 VERS.                  2.0:   CWLS log ASCII Standard -VERSION 2.0
 WRAP.                   NO:   One line per depth step
~Well Information Block
#MNEM.UNIT     VALUE/NAME     DESCRIPTION
#---------     -----------    ---------------------------
 STRT.F             10112.0000: START DEPTH
 STOP.F             11135.0000: STOP DEPTH
 STEP.F                 0.5000: STEP DEPTH
 NULL.               -999.2500: NULL VALUE
 UNIT.                12318515:  LOGGING EQUIPMENT ID
 CNTY.             HAIR DALMAH:  COUNTY NAME
 JOBN.        AD-XX-0905995035:  JOB TICKET NUMB
 FLD .             HAIR DALMAH:  FIELD NAME
 PDAT.          Mean Sea Level:  PERMANENT DATUM
 RIG .                     PN8:  RIG NAME
 MWDS.                    ICAD:  MWD SHOP
 CTRY.     United Arab Emirates:  COUNTRY NAME
 REGN.     Middle East/North Africa:  REGION
 BASE.               Abu Dhabi:  LOGGING EQUIPMENT BASE LOCATION
 WTYP.                Deviated:  WELL TYPE
 XYGR.     UTM Zones, Northern Hemisphere, Meters:  XYGROUP
 LLGR.      Latitude/Longitude:  LLGROUP
 MDS .              Win MagUTM:  MAG DATA SOURCE
 MMDD.       05 December, 2019:  MAG DATA DATE
 MMDL.            bggm2019.dat:  MAGNETIC MODEL
 CREF.     Ellipsoid Clarke - 1880:  CART REFERENCE
 GREF.     Ellipsoid World Geodetic System :  GEO REFERENCE
 CGSY.               SS CLRK51:  CART GRID SYS
 GGSY.                      LL:  GEO GRID SYS
 CCDE.     UTM Clarke 1880 (CM 51), Meters:  CART COORD DESC
 GCDE.     Generic Lat/Long's, Degrees, -180 ==> +180:  GEO COORD DESC
 SON .        AD-XX-0905995035:  JOB NUMBER
 COMP.          ADNOC Offshore:  COMPANY
 WELL.               HD011-02D:  WELL NAME
 FTOP.          Formation Tops:  FORM TOPS DESC
 ILTD.               Lithology:  INTERP LTH DESC
 SVYD.                  Survey:  SURVEY DESC
 DMOD.             Drill Model:  DRILL MOD DESC
 HPTY.       Minimum Curvature:  HOLE POS TYPE
 NREF.                    Grid:  NORTH REFERENCE
 SPUD.               17-Feb-20:  SPUD DATE
 DATE.      06.00.00 09-Apr-20:  END TIME
 STIM.      11.40.00 06-Apr-20:  START TIME
 DMF .             Drill Floor:  DRILL MEAS FROM
 DFST.                        :  DIST FSL TEXT
 DFWT.                        :  DIST FWL TEXT
 PROV.               Abu Dhabi:  PROVINCE
 STAT.               Abu Dhabi:  STATE NAME
 API .                        :  API NUMBER
 SRVC.             Halliburton:  SERVICE COMPANY
 UWI .                        :  UNIQUE WELL IDENTIFIER
 LOC .                        :  LOCATION
 LMF .             Drill Floor:  LOG MEASURED FROM
 DEP .ft              0.000000:  DEPTH
 AGAP.ft            118.000000:  AIR GAP
 CMER.deg            51.000000:  CENTRL MERIDIAN
 MMDE.ft              0.000000:  MAGUTM CALC DEP
 APD .ft            118.000000:  DEPTH ABOVE PD
 WDMS.ft             65.000000:  WD ELEV
 EGL .ft              0.000000:  GROUND ELEVATION
 EPD .ft              0.000000:  ELEVATION
 AZTC.deg             1.750428:  AZM TOTAL CORR
 GRDC.deg             0.592532:  GRID CORRECTION
 MDEC.deg             2.342959:  MAGNETIC DECL
 MDIP.deg            38.394272:  MAGNETIC DIP
 MFLD.nT          43612.476563:  MAGNETIC FIELD
 GVFD.g               1.000000:  GRAVITY FIELD
 VSDR.deg            91.860001:  VERT SEC DIRECT
 TDD .ft          11135.000000:  TOTAL DEPTH (DRILLER)
 SDEP.ft          10171.000000:  START DEPTH
 DFSL.ft              0.000000:  DISTANCE FSL
 DFWL.ft              0.000000:  DISTANCE FWL
 UTMY.m         2710911.810000:  UTM Y
 UTMX.m          644702.250000:  UTM X
 WHEW.ft              0.000000:  WELL HEAD E/W
 WHNS.ft              0.000000:  WELL HEAD N/S
 LONG.deg            52.428197:  LONGITUDE
 LATI.deg            24.507246:  LATITUDE
 TVDS.ft            118.000000:  TVDSS CORRECTN
 EKB .ft            118.000000:  KB ELEVATION
 EDF .ft            118.000000:  DF ELEVATION
 MAGU.                 1512580:  MAGUTM CHECKSUM
 VSC .                       0:  VS TO CLOSURE
~Parameter Information Block
#MNEM.UNIT       Value        Description
#---------     -----------    ---------------------------
 AV  .fpm             1.000000:  Ann Velocity 
 AVMX.fpm             1.000000:  Max Ann Veloc 
 AZIF.deg            83.830002:  Azm, Final 
 BHAT.               Mud Motor:  BHA Type 
 BS  .in             14.500000:  Bit Size 
 BSZ .in             14.500000:  Bit Size 
 BTPL.psig            1.000000:  Bit Press Loss 
 CABU.                      No:  Customer Abuse 
 CGEO.             Carey Mills:  Customer Geo 
 COMM.                     t i:  Run Comments 1 
 TCS .hr             83.600342:  Time Ciculation Ended 
 CV  .fpm             1.000000:  Crit Velocity 
 CVMX.fpm             1.000000:  Max Crit Veloc 
 DD1 .          Devinder Kumar:  Direct Drillr 1 
 DD2 .     Mohamed Gayed Barakat:  Direct Drillr 2 
 DDSV.               Mud Motor:  DD Service 
 DEFF.%              90.000000:  % Det Eff 
 DRET.      06.15.00 04-Apr-20:  Drill End Time 
 DRST.      13.57.20 31-Mar-20:  Drill Start Tim 
 DTIM.hr             56.449772:  Time Drilling 
 EDEP.ft          10171.000000:  End Depth 
 ENG1.           Denis Sobolev:  Engineer 1 
 ENG2.            Imad Youssef:  Engineer 2 
 ETIM.      23.30.00 06-Apr-20:  End Time 
 FLOI.gpm           999.999939:  Flow In 
 FLON.gpm           964.999939:  Flow In Min 
 FLOS.mptm            2.600000:  Fluid Loss 
 FLOX.gpm          1100.000000:  Flow In Max 
 DFT .                 Polymer:  Mud Type 
 HFLO.                      No:  High Flow 
 HPRE.                      No:  High Pressure 
 HTEM.                      No:  High Temp 
 HYDO.ft              0.000000:  Hydro Offset 
 IFIN.deg            26.030001:  Inc, Final 
 IMAX.deg            26.559999:  Inc Max 
 IMIN.deg            24.139999:  Inc Min 
 IMND.ft           9477.000000:  Inc Min Depth 
 IMXD.ft           9942.000000:  Inc Max Depth 
 JARR.                      No:  Jarring 
 LETM.      23.30.00 06-Apr-20:  Log End Time 
 LOST.hr                     0:  Lost Rig Time 
 LSTM.      13.57.20 31-Mar-20:  Log Start Time 
 MDCL.ppm        150000.000000:  Mud Chlorides 
 MDES.             Fresh Water:  Mud Desc 
 DFD .ppg            12.000000:  Mud Density 
 MDMN.ppg            12.000000:  Dens Mud Min 
 MDMX.ppg            12.000000:  Dens Mud Max 
 PH  .pH             10.300000:  Mud pH 
 MOIL.                      19:  Run Mud Oil % 
 MOWR.                   19 81:  Run Mud OWR 
 MSND.                       0:  Run Mud Sand % 
 MSOL.                      19:  Run Mud Solids% 
 MTV .                GeoForce:  Motor Variant 
 DFV .spqt           51.000000:  Mud Viscosity 
 MWOD.in              8.150000:  MWD Tool OD 
 MWSI.                      No:  Serv Intrp, MWD 
 OTIM.hr            106.542305:  Time Operating 
 PMAX.psig         6850.255859:  Press Op, Max 
 PV  .cP             21.000000:  Mud PV 
 RMS .ohmm            0.039000:  Mud Resistivity 
 RMCS.ohmm            0.059000:  Mud Cake Resistivity 
 MCST.degF           80.000000:  Mud Cake Sample Temperature 
 RMFS.ohmm            0.030000:  Mud Filtrate Resistivity 
 RMFT.degF           80.000000:  Mud Filtrate Sample Temperature 
 RMMT.ohmm            0.018000:  Rm @ Max Temp 
 MST .degF           80.000000:  Mud Sample Temperature 
 RUN .                    2300:  Run Number 
 RRUN.                    2300:  Rig Run Number 
 SAZI.deg           101.400002:  Azm, Start 
 SDEP.ft           9467.000000:  Start Depth 
 SIDD.                      No:  Serv Intrp, DD 
 SINC.deg            24.139999:  Inc, Start 
 STIM.      13.57.20 31-Mar-20:  Start Time 
 SVER.                9.200000:  Sperry Version 
 TDAT.ft            704.000000:  Tot Depth Attmp 
 TDDF.                      No:  Trip for DD 
 TDLG.ft            704.000000:  Tot Depth Loggd 
 TFF .                      No:  Trip for Fail 
 MRT .                     PWD:  Maximum Recorded Temperature 
 TTMX.degF          181.000000:  Max Tool Temp 
 VS01.           F1(8)90603244:  Virtual Str1 SN 
 VS02.     H2V5WGV2R(8)90604159:  Virtual Str2 SN 
 WITN.     Mohamed Sharaf el Din:  Customer Rep 
 YP  .lhf2           29.000000:  Yield Point 
~Curve Information Block
#MNEM.UNIT                 API CODE     Curve Description
#---------               -----------    ---------------------------
 DEPT.F                 00 000 000 000:  Depth
 RPTVD.ft               00 000 000 000:  ROP True Vertical Depth
 ROPA.fph               00 000 000 000:  Avg Rate of Penetration
 DGRCC.api              00 000 000 000:  DGR Comb Gamma Ray BCorr
 EWXT.hr                00 000 000 000:  EWR Formation Exp Time
 R15P.ohmm              00 000 000 000:  EWR Shallow Phase Res
 R15A.ohmm              00 000 000 000:  EWR Shallow Atten Res
 R27P.ohmm              00 000 000 000:  EWR Medium Phase Res
 R27A.ohmm              00 000 000 000:  EWR Medium Atten Res
 R39P.ohmm              00 000 000 000:  EWR Deep Phase Res
 R39A.ohmm              00 000 000 000:  EWR Deep Atten Res
 ABR .ohmm              00 000 000 000:  At-Bit Resistivity
 AFRSA.ohmm             00 000 000 000:  AFR Shallow Avg Res
 AFRDA.ohmm             00 000 000 000:  AFR Deep Avg Res
 AFXT.hr                00 000 000 000:  AFR Form Exp Time
#Other Information
#
#WARRANTY: Halliburton will use its best efforts to furnish customers with 
#accurate information and interpretations that are part of, and incident to, the services 
#provided.  However, Halliburton cannot and does not warrant the accuracy 
#or correctness of such information and interpretations.  Under no circumstances should any 
#such information or interpretation be relied upon as the sole basis for any drilling, 
#completion, production, or financial decision or any procedure involving any risk to the 
#safety of any drilling venture, drilling rig or its crew or any other third party.  The 
#Customer has full responsibility for all drilling, completion and production operation.  
#Halliburton makes no representations or warranties, either expressed or 
#implied, including, but not limited to, the implied warranties of merchantability or fitness 
#for a particular purpose, with respect to the services rendered.  In no event will 
#Halliburton be liable for failure to obtain any particular results or for 
#any damages, including, but not limited to, indirect, special or consequential damages, 
#resulting from the use of any information or interpretation provided by Halliburton.
#
~A    DEPT      RPTVD      ROPA      DGRCC     EWXT      R15P      R15A      R27P      R27A      R39P      R39A       ABR       AFRSA      AFRDA      AFXT    
# ...
   10443.5000  9511.9072   32.0814    9.6308    1.8002   55.1938   11.6191  155.6817  200.0000 1617.6375  200.0000   267.1632 20000.0000 19244.7070    1.3188
   10444.0000  9512.3711   28.8644    7.8463    1.8024   61.2887   11.7835  203.9708  200.0000 1764.3405  200.0000   274.5220 20000.0000 19361.3691    1.3163
   10444.5000  9512.7959   24.0509    7.8499    1.7948   58.1595   10.1783  277.9374  200.0000 1950.5231  200.0000   257.8376 20000.0000 19478.0332    1.3020
   10445.0000  9513.1924   19.3752    8.0686    1.7870   63.3889   10.6735  373.1980  200.0000 1997.2798  200.0000   233.8151 20000.0000 19594.6953    1.2872
   10445.5000  9513.6250   18.6432    8.0499    1.7875   66.8583   12.0912  436.9483  200.0000 1956.4785  200.0000   211.4560 20000.0000 19711.3594    1.2826
   10446.0000  9514.0840   23.0561    8.0710    1.7894   57.1440    9.6148  451.9807  200.0000 1775.7429  200.0000   191.5941 19349.0605 19828.0234    1.2850
   10446.5000  9514.5273   25.5396    9.5359    1.7884   66.4886    9.0756  411.7370  200.0000 1712.0956  200.0000   175.6663 18698.1211 19944.6855    1.2851
   10447.0000  9514.9736   25.0459    8.9198    1.7835   67.7890    9.4049  355.5715  200.0000 1054.5981  200.0000   162.3305 13160.4492 15968.5820    1.2856
   10447.5000  9515.3877   23.4715    8.9511    1.7775   52.2358    9.4212  217.8715  200.0000  378.0504  200.0000   153.2134  4476.3501  6764.0327    1.2824
   10448.0000  9515.8389   23.2054    8.6803    1.7742   42.1841    9.3407  160.7852  200.0000  194.1613  200.0000   146.7157  2919.1978  4543.5107    1.2800
   10448.5000  9516.2715   24.3462    8.9732    1.7717   33.2515    9.5129   87.1503  200.0000  103.4512  194.2424   143.2008  2394.2275  5539.2920    1.2811
   10449.0000  9516.7305   24.3678    9.3943    1.7695   24.8967    8.8890   49.9629  196.5282   61.8713  171.4409   141.7509   580.9235  1898.1162    1.2812
   10449.5000  9517.1191   23.7018   10.2279    1.7673   14.7207    8.6473   26.5874  184.3868   33.3976  161.1614   137.5040    79.7591   200.7223    1.2831
   10450.0000  9517.5967   24.5807   10.9920    1.7669   11.4864    9.3829   17.7277  197.2007   23.5254  162.9632   110.5506    19.5530    37.6514    1.2831
   10450.5000  9518.0156   27.4157   11.9838    1.7715   10.5731    8.6137   17.2775  173.5567   22.5432  161.7396   106.4151    13.7324    25.6880    1.2865
   10451.0000  9518.4463   28.6152   10.7001    1.7750    9.7932    8.1293   16.1517  153.4015   21.7136  143.4168   118.2011    15.7810    32.8598    1.2888
   10451.5000  9518.8818   32.4244    9.4072    1.7826    9.1313    7.5075   14.6802  116.0176   19.5406  135.1783   131.1055    16.4887    40.4543    1.2962
   10452.0000  9519.3574   39.1653   12.8160    1.7917    8.4011    7.3772   12.3995   96.2168   16.8223  117.2115   136.6848    16.5751    44.0665    1.3058
   10452.5000  9519.7891   41.0695   16.1713    1.8007    5.8960    9.0511    8.1511   74.0478   12.3296   92.1163   134.5764    19.9849    51.0975    1.3135
   10453.0000  9520.2480   37.8816   13.8693    1.8068    4.0848    9.0413    5.6793  117.7102    8.5642  164.9095   107.7922    13.3870    26.8248    1.3214
   10453.5000  9520.6289   32.2480   14.2308    1.8091    3.9530    8.8414    6.0162  194.4275    9.4618  198.3552    89.8305     7.5737    12.6458    1.3267
   10454.0000  9521.0693   31.2327   11.2583    1.8129    5.3241    9.3595   10.5853  200.0000   17.2664  200.0000    87.2651     6.5014    11.3267    1.3326
   10454.5000  9521.5137   39.0060   12.1996    1.8219    7.1811    8.9850   16.6471  200.0000   27.5517  200.0000    86.6374     8.4592    18.8713    1.3417
   10455.0000  9521.9580   47.7327   15.1503    1.8318    9.7000    8.2934   20.7143  200.0000   34.3623  200.0000    85.8072    16.9202    45.6945    1.3519
   10455.5000  9522.4170   53.9625   15.6238    1.8427   13.0300    8.0305   21.9039  195.4024   35.3618  200.0000    84.7418    42.8279   108.4771    1.3643
   10456.0000  9522.8711   51.3052   19.4195    1.8527   17.2138    7.7985   23.8516  181.5347   34.4652  200.0000    83.3021    60.4725   170.9723    1.3765
   10456.5000  9523.2832   39.5243   19.2769    1.8570   22.4469    8.6118   29.3285  194.4223   35.5567  194.7007    81.2480    63.8856   188.7085    1.3823
   10457.0000  9523.7217   30.9258   18.7238    1.8638   26.9005    9.6311   36.1105  198.5972   37.1143  196.1610    79.5387    65.3087   191.8644    1.3865
   10457.5000  9524.1338   29.3361   19.7084    1.8703   26.7544    9.4231   39.8445  200.0000   37.1847  199.9726    79.5322    58.3373   162.1107    1.3907
   10458.0000  9524.5811   30.9090   19.6848    1.8742   23.8125    9.5360   37.3937  200.0000   39.2944  200.0000    80.4243    38.2234    87.4654    1.3945
   10458.5000  9525.0479   33.4845   19.5858    1.8787   21.2991   10.2371   38.6471  200.0000   42.0698  200.0000    80.3776    25.1744    49.3017    1.3979
   10459.0000  9525.4482   31.5752   17.1610    1.8834   19.6428   10.4717   35.5766  200.0000   41.3323  200.0000    79.4771    20.5109    39.6111    1.3984
   10459.5000  9525.8965   32.2495   17.4183    1.8888   16.4593    8.8431   30.8808  200.0000   39.3162  200.0000    78.6226    18.9885    39.8274    1.3992
   10460.0000  9526.3262   35.3728   18.1980    1.8945   13.7831    8.7028   25.9867  200.0000   38.2261  200.0000    78.0925    17.7397    39.7493    1.4025
   10460.5000  9526.7930   36.8944   18.4071    1.8999   12.6949    8.8514   23.4723  200.0000   37.7153  200.0000    77.8187    15.8458    34.6906    1.4069
   10461.0000  9527.2002   36.2510   20.2317    1.9036   12.7576    9.5976   26.1103  200.0000   45.5518  200.0000    77.5509    13.4947    27.0833    1.4115
   10461.5000  9527.6504   36.3096   16.5060    1.9073   15.5008    9.2767   36.4830  200.0000   68.2141  200.0000    77.1944    12.3810    23.0251    1.4168
   10462.0000  9528.0918   38.2568   17.4165    1.9097   18.6546    8.7496   50.2582  200.0000  101.6513  200.0000    77.1936    14.0360    25.8812    1.4228
   10462.5000  9528.5215   38.9311   16.8167    1.9117   22.4402    9.0838   65.0736  200.0000  142.2644  200.0000    77.3034    19.2752    38.0861    1.4327
   10463.0000  9528.9756   38.9301   15.8508    1.9131   27.0406    9.0394   83.7058  200.0000  192.7731  200.0000    77.2473    28.5499    60.8490    1.4402
   10463.5000  9529.4248   35.7232   15.4465    1.9152   35.3957    9.1206  104.2465  200.0000  216.5832  200.0000    76.9656    46.8640    99.2215    1.4453
   10464.0000  9529.8242   31.6928   17.6044    1.9185   37.8289    9.5365   98.8883  200.0000  193.4020  200.0000    76.9018    96.2898   202.4327    1.4502
   10464.5000  9530.2715   30.4882   17.5274    1.9209   44.6130    9.6728  130.3999  200.0000  246.9936  200.0000    76.9534   221.0671   562.1383    1.4567
   10465.0000  9530.7334   29.7460   14.8601    1.9225   43.7774    9.1101  116.9618  200.0000  195.2880  200.0000    76.9706   301.7179   951.9611    1.4589
   10465.5000  9531.1367   25.8799   14.3484    1.9194   33.4726    9.6727   84.3156  200.0000  180.4442  200.0000    76.8728   183.5868   557.6917    1.4569
   10466.0000  9531.5918   24.5768   15.3042    1.9154   30.5009   12.2722  109.4202  200.0000  679.1089  200.0000    76.2875    87.3676   211.5717    1.4553
   10466.5000  9532.0039   24.5714   14.9654    1.9128   36.4985   16.6776  140.7845  200.0000 1265.7904  200.0000    75.5614    55.6869   112.8598    1.4566
   10467.0000  9532.4648   25.6086   14.7717    1.9110   43.5211    9.9953  411.9704  200.0000 1950.8925  200.0000    75.1713    50.2301    90.7109    1.4579
   10467.5000  9532.8867   28.1710   15.8009    1.9106   40.8850    9.4177  501.0962  200.0000 2000.0000  200.0000    74.8487    57.9553   102.9847    1.4611
   10468.0000  9533.3525   31.0194   13.7392    1.9106   42.1116   11.0750  826.6290  200.0000 2000.0000  200.0000    74.6065    91.3256   163.7518    1.4652
   10468.5000  9533.7686   31.5978   15.5109    1.9114   62.0416   15.5615  475.8502  200.0000 2000.0000  200.0000    74.5025   289.0247   530.7640    1.4690
