~Version Information
 VERS.                  2.0:   CWLS log ASCII Standard -VERSION 2.0
 WRAP.                   NO:   One line per depth step
~Well Information Block
#MNEM.UNIT     VALUE/NAME     DESCRIPTION
#---------     -----------    ---------------------------
 STRT.F             14200.0000: START DEPTH
 STOP.F             16770.0000: STOP DEPTH
 STEP.F                 0.5000: STEP DEPTH
 NULL.               -999.2500: NULL VALUE
 UNIT.                12318515:  LOGGING EQUIPMENT ID
 CNTY.             HAIR DALMAH:  COUNTY NAME
 JOBN.        AD-XX-0905995035:  JOB TICKET NUMB
 FLD .             HAIR DALMAH:  FIELD NAME
 PDAT.          Mean Sea Level:  PERMANENT DATUM
 RIG .                     PN8:  RIG NAME
 MWDS.                    ICAD:  MWD SHOP
 CTRY.     United Arab Emirates:  COUNTRY NAME
 REGN.     Middle East/North Africa:  REGION
 BASE.               Abu Dhabi:  LOGGING EQUIPMENT BASE LOCATION
 WTYP.                Vertical:  WELL TYPE
 XYGR.     UTM Zones, Northern Hemisphere, Meters:  XYGROUP
 LLGR.      Latitude/Longitude:  LLGROUP
 MDS .              Win MagUTM:  MAG DATA SOURCE
 MMDD.       05 December, 2019:  MAG DATA DATE
 MMDL.            bggm2019.dat:  MAGNETIC MODEL
 CREF.     Ellipsoid Clarke - 1880:  CART REFERENCE
 GREF.     Ellipsoid World Geodetic System :  GEO REFERENCE
 CGSY.               SS CLRK51:  CART GRID SYS
 GGSY.                      LL:  GEO GRID SYS
 CCDE.     UTM Clarke 1880 (CM 51), Meters:  CART COORD DESC
 GCDE.     Generic Lat/Long's, Degrees, -180 ==> +180:  GEO COORD DESC
 SON .        AD-XX-0905995035:  JOB NUMBER
 COMP.          ADNOC Offshore:  COMPANY
 WELL.               HD011-02D:  WELL NAME
 FTOP.          Formation Tops:  FORM TOPS DESC
 ILTD.               Lithology:  INTERP LTH DESC
 SVYD.                  Survey:  SURVEY DESC
 DMOD.             Drill Model:  DRILL MOD DESC
 HPTY.       Minimum Curvature:  HOLE POS TYPE
 NREF.                    Grid:  NORTH REFERENCE
 SPUD.               17-Feb-20:  SPUD DATE
 DATE.      21.00.00 29-Aug-20:  END TIME
 STIM.      12.00.00 26-Jul-20:  START TIME
 DMF .             Drill Floor:  DRILL MEAS FROM
 DFST.                        :  DIST FSL TEXT
 DFWT.                        :  DIST FWL TEXT
 PROV.               Abu Dhabi:  PROVINCE
 STAT.               Abu Dhabi:  STATE NAME
 API .                        :  API NUMBER
 SRVC.             Halliburton:  SERVICE COMPANY
 UWI .                        :  UNIQUE WELL IDENTIFIER
 LOC .                        :  LOCATION
 LMF .             Drill Floor:  LOG MEASURED FROM
 DEP .ft              0.000000:  DEPTH
 AGAP.ft            118.000000:  AIR GAP
 CMER.deg            51.000000:  CENTRL MERIDIAN
 MMDE.ft              0.000000:  MAGUTM CALC DEP
 APD .ft            118.000000:  DEPTH ABOVE PD
 WDMS.ft             65.000000:  WD ELEV
 EGL .ft              0.000000:  GROUND ELEVATION
 EPD .ft              0.000000:  ELEVATION
 AZTC.deg             1.750428:  AZM TOTAL CORR
 GRDC.deg             0.592532:  GRID CORRECTION
 MDEC.deg             2.342959:  MAGNETIC DECL
 MDIP.deg            38.394272:  MAGNETIC DIP
 MFLD.nT          43612.476563:  MAGNETIC FIELD
 GVFD.g               1.000000:  GRAVITY FIELD
 VSDR.deg            91.860001:  VERT SEC DIRECT
 TDD .ft          16770.000000:  TOTAL DEPTH (DRILLER)
 SDEP.ft          14436.000000:  START DEPTH
 DFSL.ft              0.000000:  DISTANCE FSL
 DFWL.ft              0.000000:  DISTANCE FWL
 UTMY.m         2710911.810000:  UTM Y
 UTMX.m          644702.250000:  UTM X
 WHEW.ft              0.000000:  WELL HEAD E/W
 WHNS.ft              0.000000:  WELL HEAD N/S
 LONG.deg            52.428197:  LONGITUDE
 LATI.deg            24.507246:  LATITUDE
 TVDS.ft            118.000000:  TVDSS CORRECTN
 EKB .ft            118.000000:  KB ELEVATION
 EDF .ft            118.000000:  DF ELEVATION
 MAGU.                 1512580:  MAGUTM CHECKSUM
 VSC .                       0:  VS TO CLOSURE
~Parameter Information Block
#MNEM.UNIT       Value        Description
#---------     -----------    ---------------------------
 AV  .fpm           484.999969:  Ann Velocity 
 AVMX.fpm           969.999939:  Max Ann Veloc 
 AZIF.deg           166.490005:  Azm, Final 
 BHAT.               Mud Motor:  BHA Type 
 BROT.°/100'          0.030000:  Build Rotating 
 BS  .in              8.375000:  Bit Size 
 BSZ .in              8.375000:  Bit Size 
 BTPL.psig          415.000000:  Bit Press Loss 
 CABU.                      No:  Customer Abuse 
 CGEO.             Carey Mills:  Customer Geo 
 COMM.                     ÜhT:  Run Comments 1 
 TCS .hr             21.141129:  Time Ciculation Ended 
 CV  .fpm           564.000000:  Crit Velocity 
 CVMX.fpm           702.000000:  Max Crit Veloc 
 DD1 .     Mohamed Gayed Barakat:  Direct Drillr 1 
 DDSV.               Mud Motor:  DD Service 
 DEFF.%              98.000000:  % Det Eff 
 DLRX.°/100'          0.100000:  Dogleg Rot Max 
 DLSO.°/100'          0.070000:  Dogleg Oriented 
 DLSX.°/100'          0.100000:  Dogleg Str Max 
 DRET.      23.59.00 10-Aug-20:  Drill End Time 
 DRST.      15.30.00 10-Aug-20:  Drill Start Tim 
 DTIM.hr              4.412436:  Time Drilling 
 EDEP.ft          15118.000000:  End Depth 
 ENG1.             Ahmed Aleem:  Engineer 1 
 ETIM.      16.00.00 11-Aug-20:  End Time 
 FLOI.gpm           550.000000:  Flow In 
 FLON.gpm           499.999969:  Flow In Min 
 FLOS.mptm            3.000000:  Fluid Loss 
 FLOX.gpm           550.000000:  Flow In Max 
 DFT .                 Polymer:  Mud Type 
 HFLO.                      No:  High Flow 
 HPRE.                      No:  High Pressure 
 HTEM.                      No:  High Temp 
 HYDO.ft              0.000000:  Hydro Offset 
 IFIN.deg             1.530000:  Inc, Final 
 IMAX.deg             1.590000:  Inc Max 
 IMIN.deg             1.560000:  Inc Min 
 IMND.ft          14992.000000:  Inc Min Depth 
 IMXD.ft          14895.000000:  Inc Max Depth 
 JARR.                      No:  Jarring 
 LETM.      23.59.00 10-Aug-20:  Log End Time 
 LOST.hr                    42:  Lost Rig Time 
 LSTM.      11.00.00 10-Aug-20:  Log Start Time 
 MDCL.ppm        140000.000000:  Mud Chlorides 
 MDES.             Fresh Water:  Mud Desc 
 DFD .ppg            12.000000:  Mud Density 
 MDMN.ppg            12.000000:  Dens Mud Min 
 MDMX.ppg            12.000000:  Dens Mud Max 
 PH  .pH             10.000000:  Mud pH 
 MOWR.                    0 83:  Run Mud OWR 
 MSND.                       0:  Run Mud Sand % 
 MSOL.                      17:  Run Mud Solids% 
 MTV .                GeoForce:  Motor Variant 
 DFV .spqt           50.000000:  Mud Viscosity 
 MWOD.in              6.900000:  MWD Tool OD 
 MWSI.                     Yes:  Serv Intrp, MWD 
 OTIM.hr             49.000000:  Time Operating 
 PMAX.psig        10491.233398:  Press Op, Max 
 PV  .cP             22.000000:  Mud PV 
 RMS .ohmm            0.022000:  Mud Resistivity 
 RMCS.ohmm            0.033000:  Mud Cake Resistivity 
 MCST.degF          212.000000:  Mud Cake Sample Temperature 
 RMFS.ohmm            0.020000:  Mud Filtrate Resistivity 
 RMFT.degF          212.000000:  Mud Filtrate Sample Temperature 
 RMMT.ohmm            0.018000:  Rm @ Max Temp 
 MST .degF          212.000000:  Mud Sample Temperature 
 RUN .                    4200:  Run Number 
 ROPA.fph            20.629999:  ROP Avg 
 ROPN.fph            20.000000:  ROP Min 
 ROPX.fph            31.250002:  ROP Max 
 RPMA.rpm            90.000000:  RPM Surface Avg 
 RPMN.rpm            90.000000:  RPM Surface Min 
 RPMX.rpm            90.000000:  RPM Surface Max 
 RRUN.                    4200:  Rig Run Number 
 RTIM.hr              8.500000:  Time Reaming 
 SAZI.deg           168.300003:  Azm, Start 
 SDEP.ft          14972.500000:  Start Depth 
 SIDD.                      No:  Serv Intrp, DD 
 SINC.deg             1.570000:  Inc, Start 
 SPPA.psig         3000.000000:  SPP Avg 
 SPPN.psig         3000.000000:  SPP Min 
 SPPX.psig         3000.000000:  SPP Max 
 STIM.      21.30.00 09-Aug-20:  Start Time 
 SVCS.                 DD, MWD:  Services 
 SVER.                9.200000:  Sperry Version 
 TDAT.ft            348.000000:  Tot Depth Attmp 
 TDDF.                      No:  Trip for DD 
 TDLG.ft            145.500000:  Tot Depth Loggd 
 TFF .                     Yes:  Trip for Fail 
 TQAA.f-p            22.000000:  Torque Abs Avg 
 TQAN.f-p            22.000000:  Torque Abs Min 
 TQAX.f-p            22.000000:  Torque Abs Max 
 TRRT.°/100'          1.010000:  Turn Rotating 
 MRT .                     AFR:  Maximum Recorded Temperature 
 TTMX.degF          260.000000:  Max Tool Temp 
 VS01.     AD90608221 H7V5WCOF1 (6):  Virtual Str1 SN 
 VS02.     90608207 R11GV2CO (6):  Virtual Str2 SN 
 WBMN.klb            15.000000:  WOB Min 
 WITN.         Ricardo Vasquez:  Customer Rep 
 WOBA.klb            17.500000:  WOB Avg 
 WOBX.klb            20.000000:  WOB Max 
 YP  .lhf2           35.000000:  Yield Point 
~Curve Information Block
#MNEM.UNIT                 API CODE     Curve Description
#---------               -----------    ---------------------------
 DEPT.F                 00 000 000 000:  Depth
 RPTVD.ft               00 000 000 000:  ROP True Vertical Depth
 ROPA.fph               00 000 000 000:  Avg Rate of Penetration
 DGRCC.api              00 000 000 000:  DGR Comb Gamma Ray BCorr
 ALHSI.in               00 000 000 000:  ALD Hole Size Indicator
 ABR .ohmm              00 000 000 000:  At-Bit Resistivity
 AFXT.hr                00 000 000 000:  AFR Form Exp Time
 RM  .ohmm              00 000 000 000:  AFR Medium Avg Res
 RS  .ohmm              00 000 000 000:  AFR Shallow Avg Res
 RD  .ohmm              00 000 000 000:  AFR Deep Avg Res
 TNPL.pu                00 000 000 000:  CTN Porosity Limestone
 ALCDLC.g/cc            00 000 000 000:  ALD LCRB Comp Density
 ALDCLC.g/cc            00 000 000 000:  ALD LCRB Den Correction
 ALPELC.                00 000 000 000:  ALD LCRB Pe Factor
#Other Information
#
#WARRANTY: Halliburton will use its best efforts to furnish customers with 
#accurate information and interpretations that are part of, and incident to, the services 
#provided.  However, Halliburton cannot and does not warrant the accuracy 
#or correctness of such information and interpretations.  Under no circumstances should any 
#such information or interpretation be relied upon as the sole basis for any drilling, 
#completion, production, or financial decision or any procedure involving any risk to the 
#safety of any drilling venture, drilling rig or its crew or any other third party.  The 
#Customer has full responsibility for all drilling, completion and production operation.  
#Halliburton makes no representations or warranties, either expressed or 
#implied, including, but not limited to, the implied warranties of merchantability or fitness 
#for a particular purpose, with respect to the services rendered.  In no event will 
#Halliburton be liable for failure to obtain any particular results or for 
#any damages, including, but not limited to, indirect, special or consequential damages, 
#resulting from the use of any information or interpretation provided by Halliburton.
#
~A    DEPT      RPTVD      ROPA      DGRCC     ALHSI      ABR      AFXT        RM        RS         RD       TNPL     ALCDLC    ALDCLC    ALPELC   
# ...
   16537.5000 15402.7783   15.6410   23.0077    8.3885  945.6436    3.7560    34.2597   14.4734    55.2113    2.6439    2.8644    0.0001    4.5391
   16538.0000 15403.2803   15.6974   21.7216    8.3959  948.1874    3.7539    31.7487   13.4318    51.0215    2.7618    2.8620    0.0027    4.5035
   16538.5000 15403.7939   15.3385   24.2345    8.3876  952.3375    3.7491    29.9414   12.6304    47.8788    3.0308    2.8541    0.0004    4.4992
   16539.0000 15404.3076   13.8086   27.1080    8.3904  952.1418    3.7411    28.7414   11.8980    46.4274    3.5836    2.8519    0.0009    4.5964
   16539.5000 15404.7754   11.3858   27.7303    8.3790  952.1500    3.7236    30.1896   12.0253    51.1606    3.7984    2.8469   -0.0018    4.4065
   16540.0000 15405.2393   10.1316   22.9330    8.3756  966.9555    3.7063    32.4412   12.6301    59.6875    4.0559    2.8389   -0.0059    4.4397
   16540.5000 15405.7744   11.9444   20.5007    8.3754  969.6104    3.6994    33.5647   13.2149    65.7771    4.2570    2.8403   -0.0074    4.5593
   16541.0000 15406.2773   14.3796   22.9441    8.3772  958.3118    3.6953    33.2540   13.5756    66.5782    3.5338    2.8499   -0.0064    4.5320
   16541.5000 15406.7764   14.8259   20.4953    8.3882  956.7196    3.6908    33.5751   13.8926    66.2927    3.1281    2.8579   -0.0010    4.5898
   16542.0000 15407.2725   14.9507   21.4660    8.3872  980.9188    3.6865    34.0074   14.0779    65.2872    2.9738    2.8525    0.0013    4.7072
   16542.5000 15407.7754   15.3647   21.5091    8.3958 1016.2021    3.6841    30.3891   13.4116    56.8533    2.7680    2.8580    0.0038    4.9079
   16543.0000 15408.2773   15.7097   25.1777    8.3785 1040.5803    3.6822    25.5417   12.2217    46.8583    2.3756    2.8699   -0.0028    5.2400
   16543.5000 15408.7773   15.7159   25.6181    8.3788 1068.6595    3.6803    22.7230   11.1478    42.8652    2.0741    2.8938   -0.0045    4.7285
   16544.0000 15409.3164   15.0790   24.9422    8.3895 1110.0990    3.6755    23.2134   10.9561    46.1589    1.9506    2.8988    0.0007    4.8168
   16544.5000 15409.7705   12.5700   23.3766    8.3784 1147.3306    3.6606    25.2281   11.0003    51.5784    2.2391    2.8859   -0.0044    4.5116
   16545.0000 15410.2686   10.8693   22.6237    8.3783 1220.5668    3.6429    26.9906   10.9953    58.3296    2.2730    2.8839   -0.0035    4.6294
   16545.5000 15410.7979   11.0760   22.2927    8.3782 1309.6896    3.6243    26.5041   10.5212    64.0930    2.2449    2.8801   -0.0018    4.7779
   16546.0000 15411.2686   10.3331   22.9458    8.3778 1352.5239    3.6062    24.7755   10.0076    65.0944    2.3173    2.8733   -0.0028    4.7316
   16546.5000 15411.7598    9.7032   21.9845    8.3757 1370.0979    3.5890    23.2254    9.5158    59.7875    2.3056    2.8709   -0.0070    4.6899
   16547.0000 15412.2607   10.7331   20.4232    8.3752 1357.4504    3.5738    23.5310    9.0951    53.9328    2.1927    2.8747   -0.0085    4.6750
   16547.5000 15412.7725   12.6073   20.9094    8.3789 1336.0447    3.5651    26.4473    9.1327    52.2723    2.2397    2.8883   -0.0029    4.8886
   16548.0000 15413.2744   13.6725   20.9654    8.3779 1321.9066    3.5584    29.7802    9.8043    53.5895    2.3417    2.8776   -0.0070    4.5466
   16548.5000 15413.7744   13.7474   22.7551    8.3759 1311.0347    3.5516    29.3178   10.7624    50.6239    2.5032    2.8648   -0.0100    4.3241
   16549.0000 15414.2842   13.6882   23.6139    8.3851 1312.3312    3.5435    23.0019   10.8909    39.5460    2.4318    2.8754   -0.0002    4.5915
   16549.5000 15414.7900   12.8642   24.7526    8.3875 1290.7620    3.5296    20.1914   11.4113    34.4940    2.4381    2.8644    0.0002    4.7711
   16550.0000 15415.2510   11.3698   25.1053    8.4033 1190.0869    3.5154    32.3145   17.4129    56.1779    2.5040    2.8671    0.0056    4.7656
   16550.5000 15415.7646   11.4637   26.2649    8.4077 1131.8842    3.5061    87.4035   37.8048   167.8556    2.5639    2.8652    0.0055    4.7635
   16551.0000 15416.2734   13.0507   25.6078    8.3777 1102.7477    3.4980   142.7682   56.7578   301.4011    2.5382    2.8580   -0.0079    4.6517
   16551.5000 15416.7725   13.6690   22.6269    8.3750 1087.7867    3.4909   163.0493   71.2287   365.0853    2.3931    2.8677   -0.0102    4.6021
   16552.0000 15417.2646   13.7230   23.0002    8.3750 1084.4619    3.4844   171.0038   80.0646   408.4421    2.2794    2.8731   -0.0142    4.3006
   16552.5000 15417.7637   14.1868   21.8870    8.3750 1087.8811    3.4804   162.4633   78.6336   390.8697    2.3601    2.8750   -0.0121    4.2041
   16553.0000 15418.2705   15.1611   26.8429    8.3750 1093.6783    3.4775   137.5768   74.3184   292.4170    2.3847    2.8728   -0.0099    4.2553
   16553.5000 15418.7725   15.7382   28.3794    8.3750 1103.7596    3.4753   145.8003   78.3787   260.9665    2.5185    2.8629   -0.0101    4.3068
   16554.0000 15419.2813   15.6390   25.1253    8.3750 1119.1906    3.4774   204.0350   89.5819   320.4666    2.4537    2.8541   -0.0106    4.3035
   16554.5000 15419.7734   14.8340   22.3404    8.3750 1134.4945    3.4851   246.7133  100.6732   385.0168    2.3176    2.8609   -0.0114    4.3060
   16555.0000 15420.2676   14.0176   22.9800    8.3751 1143.6924    3.4768   244.6561  111.0412   382.7447    2.2388    2.8658   -0.0113    4.1571
   16555.5000 15420.7627   14.1019   23.4474    8.3750 1143.3889    3.4826   224.7896  109.6425   354.7331    2.1582    2.8615   -0.0148    4.2596
   16556.0000 15421.2930   14.6971   24.2957    8.3750 1137.1848    3.5060   253.2033  107.2206   399.9085    2.0130    2.8663   -0.0174    4.5017
   16556.5000 15421.7627   13.8588   22.9270    8.3750 1125.9283    3.5176   312.5511  124.3107   542.3561    1.8127    2.8766   -0.0206    4.4650
   16557.0000 15422.2656   13.0206   21.5844    8.3750 1113.4507    3.5269   302.7547  136.1845   585.4641    1.6805    2.8847   -0.0131    4.4128
   16557.5000 15422.7715   13.5528   21.0061    8.3750 1102.1797    3.5341   309.2078  127.8244   562.7419    1.5154    2.8818   -0.0102    4.6971
   16558.0000 15423.2676   13.8507   21.9990    8.3750 1091.4286    3.7266   364.5832  129.2405   732.2162    1.4764    2.8882   -0.0098    4.7161
   16558.5000 15423.7695   13.8560   21.0865    8.3750 1077.8960    4.1407   410.2385  144.0311  1070.6830    1.4379    2.8805   -0.0181    4.6523
   16559.0000 15424.2695   13.8902   21.5320    8.3750 1063.9379    4.1678   478.8145  168.6564  1543.2795    1.4590    2.8837   -0.0192    4.5695
   16559.5000 15424.7656   13.8699   20.2137    8.3750 1054.2136    4.1683   508.5259  175.8417  1666.4873    1.4660    2.8909   -0.0133    4.5689
   16560.0000 15425.2568   14.1138   20.3148    8.3750 1046.6270    4.1720   514.8275  155.6442  1628.8944    1.5339    2.8942   -0.0089    4.6578
   16560.5000 15425.7920   14.8129   19.4076    8.3751 1040.5432    4.2021   517.0035  134.3239  1472.7183    1.7155    2.8923   -0.0107    4.6764
   16561.0000 15426.2754   13.7781   21.2770    8.3758 1035.7102    4.2574   453.4977  122.7703  1165.9348    1.8371    2.8861   -0.0083    4.5465
   16561.5000 15426.7559   11.9864   21.6743    8.3751 1031.6755    4.2998   382.3473  118.9890   952.5322    2.0375    2.8835   -0.0095    4.4508
   16562.0000 15427.2734   11.9238   22.8463    8.3750 1029.0596    4.3003   343.1463  119.0792   842.1814    2.2333    2.8761   -0.0134    4.3630
   16562.5000 15427.7549   12.3011   22.9702    8.3750 1027.9498    4.2939   312.0555  114.6392   722.3751    2.4036    2.8771   -0.0122    4.4749
   16563.0000 15428.2666   12.8079   23.7581    8.3750 1026.9534    4.2839   293.0022  107.3452   623.2169    2.6654    2.8732   -0.0162    4.5089
   16563.5000 15428.7676   13.6087   22.7589    8.3750 1025.3202    4.2734   281.6147  101.3153   550.5423    2.6259    2.8710   -0.0145    4.0466
   16564.0000 15429.2891   13.4888   21.0589    8.3750 1024.8440    4.2613   265.5551   98.7509   525.9398    2.6083    2.8676   -0.0126    4.1884
   16564.5000 15429.7617   12.1625   23.5071    8.3750 1023.0988    4.2470   242.9589   95.2588   494.5195    2.8863    2.8568   -0.0112    4.5367
