~Version Information
 VERS.                  2.0:   CWLS log ASCII Standard -VERSION 2.0
 WRAP.                   NO:   One line per depth step
~Well Information Block
#MNEM.UNIT     VALUE/NAME     DESCRIPTION
#---------     -----------    ---------------------------
 STRT.M              5223.0528: START DEPTH
 STOP.M              5536.2348: STOP DEPTH
 STEP.M                 0.1524: STEP DEPTH
 NULL.               -999.2500: NULL VALUE
 DFWT.                        :  DIST FWL TEXT
 DFST.                        :  DIST FSL TEXT
 DMF .             Drill Floor:  DRILL MEAS FROM
 STIM.      11.30.00 09-Jul-16:  START TIME
 DATE.      11.29.04 14-Aug-16:  END TIME
 SPUD.               17-Aug-15:  SPUD DATE
 NREF.                    Grid:  NORTH REFERENCE
 HPTY.       Minimum Curvature:  HOLE POS TYPE
 DMOD.             Drill Model:  DRILL MOD DESC
 SVYD.                  Survey:  SURVEY DESC
 ILTD.               Lithology:  INTERP LTH DESC
 FTOP.          Formation Tops:  FORM TOPS DESC
 WELL.              AF011-3D-1:  WELL NAME
 COMP.               TOTAL-ABK:  COMPANY
 SON .        AD-XX-0902156848:  JOB NUMBER
 GCDE.     Generic Lat/Long's, Degrees, -180 ==> +180:  GEO COORD DESC
 CCDE.     UTM Clarke 1880 (CM 51), Meters:  CART COORD DESC
 GGSY.                      LL:  GEO GRID SYS
 CGSY.               SS CLRK51:  CART GRID SYS
 GREF.     Ellipsoid World Geodetic System :  GEO REFERENCE
 CREF.     Ellipsoid Clarke - 1880:  CART REFERENCE
 MMDL.            bggm2016.dat:  MAGNETIC MODEL
 MMDD.            20 May, 2016:  MAG DATA DATE
 MDS .              Win MagUTM:  MAG DATA SOURCE
 LLGR.      Latitude/Longitude:  LLGROUP
 XYGR.     UTM Zones, Northern Hemisphere, Meters:  XYGROUP
 PDAT.          Mean Sea Level:  PERMANENT DATUM
 WTYP.                Deviated:  WELL TYPE
 BASE.               Abu Dhabi:  LOGGING EQUIPMENT BASE LOCATION
 REGN.     Middle East/North Africa:  REGION
 PROV.               Abu Dhabi:  PROVINCE
 STAT.               Abu Dhabi:  STATE NAME
 CTRY.     United Arab Emirates:  COUNTRY NAME
 FLD .         Abu Al Bukhoosh:  FIELD NAME
 SRVC.                  SAIPEM:  CONTRACTOR
 MWDS.                Musaffah:  MWD SHOP
 RIG .           Perro Negro 8:  RIG NAME
 CNTY.               Abu Dhabi:  COUNTY NAME
 DCON.             HALLIBURTON:  DIRECTNL CONTR
 UNIT.                    9804:  LOGGING EQUIPMENT ID
 DOE .        AD-XX-0902156848:  DOE NUMBER
 API .                        :  API NUMBER
 UWI .                        :  UNIQUE WELL IDENTIFIER
 LOC .                        :  LOCATION
 LMF .             Drill Floor:  LOG MEASURED FROM
 TVDS.m              43.899999:  TVDSS CORRECTN
 LATI.deg            25.504513:  LATITUDE
 LONG.deg            53.120396:  LONGITUDE
 WHNS.m               0.000000:  WELL HEAD N/S
 WHEW.m               0.000000:  WELL HEAD E/W
 UTMX.m          713123.300043:  UTM X
 UTMY.m         2822281.299893:  UTM Y
 DFWL.m               0.000000:  DISTANCE FWL
 DFSL.m               0.000000:  DISTANCE FSL
 SDEP.m            5253.990000:  START DEPTH
 TDD .m            5543.669658:  TOTAL DEPTH (DRILLER)
 VSDR.deg           249.940002:  VERT SEC DIRECT
 GVFD.g               1.000000:  GRAVITY FIELD
 MFLD.nT          43940.839844:  MAGNETIC FIELD
 MDIP.deg            39.918472:  MAGNETIC DIP
 MDEC.deg             2.250056:  MAGNETIC DECL
 GRDC.deg             0.913350:  GRID CORRECTION
 AZTC.deg             1.336706:  AZM TOTAL CORR
 EPD .m               0.000000:  ELEVATION
 EGL .m             -45.400001:  GROUND ELEVATION
 WDMS.m              45.400001:  WD ELEV
 APD .m              43.899999:  DEPTH ABOVE PD
 MMDE.m               0.000000:  MAGUTM CALC DEP
 CMER.deg            51.000000:  CENTRL MERIDIAN
 AGAP.m              23.099999:  AIR GAP
 EKB .m              43.899999:  KB ELEVATION
 EDF .m              43.899999:  DF ELEVATION
 VSC .                       0:  VS TO CLOSURE
 MAGU.                 1527179:  MAGUTM CHECKSUM
~Parameter Information Block
#MNEM.UNIT       Value        Description
#---------     -----------    ---------------------------
 AV  .mps             1.500000:  Ann Velocity 
 AVMX.mps             2.400000:  Max Ann Veloc 
 AZIF.deg           257.739990:  Azm, Final 
 BHAT.                 Turbine:  BHA Type 
 BROT.°/100'          0.000000:  Build Rotating 
 BS  .in              8.500000:  Bit Size 
 BSZ .in              8.500000:  Bit Size 
 BTPL.psig           43.511005:  Bit Press Loss 
 CABU.                      No:  Customer Abuse 
 TCS .hr            149.515671:  Time Ciculation Ended 
 CV  .mps             3.000000:  Crit Velocity 
 CVMX.mps             4.000000:  Max Crit Veloc 
 DD1 .            Ahmed Bayoud:  Direct Drillr 1 
 DD2 .        Hany Abdel Hafez:  Direct Drillr 2 
 DDSV.                 Turbine:  DD Service 
 DEFF.%              98.000000:  % Det Eff 
 DLRX.°/100'          0.000000:  Dogleg Rot Max 
 DLSO.°/100'          0.000000:  Dogleg Oriented 
 DLSX.°/100'          0.000000:  Dogleg Str Max 
 DRET.      12.28.32 23-Jun-16:  Drill End Time 
 DRST.      14.30.00 17-Jun-16:  Drill Start Tim 
 DTIM.hr            102.349998:  Time Drilling 
 EDEP.m            5254.000000:  End Depth 
 ENG1.         Ahmed Montasser:  Engineer 1 
 ENG2.              Do Dang Sa:  Engineer 2 
 ENG3.           Khaled Khalaf:  Engineer 3 
 ENG4.         Muhammad Mubeen:  Engineer 4 
 ETIM.      05.40.54 26-Jun-16:  End Time 
 FLOI.lpm          1800.000122:  Flow In 
 FLON.lpm          1500.000000:  Flow In Min 
 FLOS.lpm             0.000000:  Fluid Loss 
 FLOX.lpm          1800.000122:  Flow In Max 
 DFT .                   Other:  Mud Type 
 HFLO.                      No:  High Flow 
 HPRE.                      No:  High Pressure 
 HTEM.                      No:  High Temp 
 HYDO.m               1.400000:  Hydro Offset 
 IFIN.deg            10.460000:  Inc, Final 
 IMAX.deg            32.367214:  Inc Max 
 IMIN.deg            11.447388:  Inc Min 
 IMND.m            5236.799805:  Inc Min Depth 
 IMXD.m            4790.299805:  Inc Max Depth 
 JARR.                      No:  Jarring 
 LETM.      12.28.32 23-Jun-16:  Log End Time 
 LOST.hr                     0:  Lost Rig Time 
 LSTM.      14.30.00 17-Jun-16:  Log Start Time 
 MDCL.ppm         23000.000000:  Mud Chlorides 
 MDES.             Fresh Water:  Mud Desc 
 DFD .g/c3            1.170004:  Mud Density 
 MDMN.g/c3            1.160004:  Dens Mud Min 
 MDMX.g/c3            1.170004:  Dens Mud Max 
 PH  .pH              9.400000:  Mud pH 
 MOIL.                       0:  Run Mud Oil % 
 MOWR.                    1 91:  Run Mud OWR 
 MSND.                     0.1:  Run Mud Sand % 
 MSOL.                     6.2:  Run Mud Solids% 
 DFV .spl            73.000000:  Mud Viscosity 
 MWOD.in              6.750000:  MWD Tool OD 
 MWSI.                      No:  Serv Intrp, MWD 
 OTIM.hr            238.111023:  Time Operating 
 PMAX.psig         4000.000000:  Press Op, Max 
 PV  .mPsec          36.000000:  Mud PV 
 RMS .ohmm            0.299000:  Mud Resistivity 
 RMCS.ohmm            0.397000:  Mud Cake Resistivity 
 MCST.degC           35.000000:  Mud Cake Sample Temperature 
 RMFS.ohmm            0.200000:  Mud Filtrate Resistivity 
 RMFT.degC           35.000000:  Mud Filtrate Sample Temperature 
 RMMT.ohmm            0.118100:  Rm @ Max Temp 
 MST .degC           35.000000:  Mud Sample Temperature 
 RUN .                    3300:  Run Number 
 ROPA.m/hr            4.450000:  ROP Avg 
 ROPN.m/hr            2.000000:  ROP Min 
 ROPX.m/hr            7.000000:  ROP Max 
 RPMA.rpm            78.000000:  RPM Surface Avg 
 RPMN.rpm            35.000000:  RPM Surface Min 
 RPMX.rpm            80.000000:  RPM Surface Max 
 RRUN.                    3300:  Rig Run Number 
 RTIM.hr              7.150000:  Time Reaming 
 SAZI.deg           249.699997:  Azm, Start 
 SDEP.m            4799.000000:  Start Depth 
 SIDD.                      No:  Serv Intrp, DD 
 SINC.deg            30.049999:  Inc, Start 
 SPPA.psig         4543.999023:  SPP Avg 
 SPPN.psig         4264.078613:  SPP Min 
 SPPX.psig         4641.173828:  SPP Max 
 STIM.      09.00.00 16-Jun-16:  Start Time 
 SVCS.                 DD, MWD:  Services 
 SVER.                8.300000:  Sperry Version 
 TDAT.m             455.000000:  Tot Depth Attmp 
 TDDF.                      No:  Trip for DD 
 TDLG.m             455.000000:  Tot Depth Loggd 
 TFF .                      No:  Trip for Fail 
 TQAA.f-p         37070.000000:  Torque Abs Avg 
 TQAN.f-p         35000.000000:  Torque Abs Min 
 TQAX.f-p         39000.000000:  Torque Abs Max 
 TRRT.°/100'          0.000000:  Turn Rotating 
 MRT .                     PWD:  Maximum Recorded Temperature 
 TTMX.degC          121.568352:  Max Tool Temp 
 VS01.     AD90473258H2V5WGV2COXF1(6):  Virtual Str1 SN 
 WBMN.klb             4.409245:  WOB Min 
 WITN.           Roger Butters:  Customer Rep 
 WOBA.klb             9.788525:  WOB Avg 
 WOBX.klb            13.227736:  WOB Max 
 YP  .pa             43.000000:  Yield Point 
~Curve Information Block
#MNEM.UNIT                 API CODE     Curve Description
#---------               -----------    ---------------------------
 DEPT.M                 00 000 000 000:  Depth
 DGRCC.api              00 000 000 000:  DGR Comb Gamma Ray BCorr
 ALHSI.in               00 000 000 000:  ALD Hole Size Indicator
 ABR .ohmm              00 000 000 000:  At-Bit Resistivity
 AFRSA.ohmm             00 000 000 000:  AFR Shallow Avg Res
 AFRMA.ohmm             00 000 000 000:  AFR Medium Avg Res
 AFRDA.ohmm             00 000 000 000:  AFR Deep Avg Res
 AFXT.hr                00 000 000 000:  AFR Form Exp Time
 ALCDLC.g/c3            00 000 000 000:  ALD LCRB Comp Density
 ALPELC.NONE            00 000 000 000:  ALD LCRB Pe Factor
 ALDCLC.g/c3            00 000 000 000:  ALD LCRB Den Correction
 TNPL.pu                00 000 000 000:  CTN Porosity Limestone
 DTC .uspf              00 000 000 000:  BAT DTC
 DTRS.uspf              00 000 000 000:  BAT Refracted Shear
 VPVS.NONE              00 000 000 000:  BAT VP/VS
#Other Information
#
#WARRANTY: Halliburton will use its best efforts to furnish customers with 
#accurate information and interpretations that are part of, and incident to, the services 
#provided.  However, Halliburton cannot and does not warrant the accuracy 
#or correctness of such information and interpretations.  Under no circumstances should any 
#such information or interpretation be relied upon as the sole basis for any drilling, 
#completion, production, or financial decision or any procedure involving any risk to the 
#safety of any drilling venture, drilling rig or its crew or any other third party.  The 
#Customer has full responsibility for all drilling, completion and production operation.  
#Halliburton makes no representations or warranties, either expressed or 
#implied, including, but not limited to, the implied warranties of merchantability or fitness 
#for a particular purpose, with respect to the services rendered.  In no event will 
#Halliburton be liable for failure to obtain any particular results or for 
#any damages, including, but not limited to, indirect, special or consequential damages, 
#resulting from the use of any information or interpretation provided by Halliburton.
#
~A   DEPT      DGRCC     ALHSI      ABR      AFRSA     AFRMA     AFRDA     AFXT     ALCDLC    ALPELC    ALDCLC     TNPL       DTC      DTRS      VPVS    
# ...
   5295.7476   48.6910    7.9745   17.5854    0.5280    5.6314    6.0085   30.2179    2.2076   13.1774    0.1135   58.1023   61.5070  117.1929    2.0461
   5295.9000   56.0182    8.7581   17.3244    0.4355    6.1965    6.2035   30.2280    1.8702   15.0387    0.0254   66.0255   59.0952  117.4348    2.0066
   5296.0524   59.5074    8.7376   17.1939    0.4263    6.8530    6.7331   30.2383    1.6978   15.1960   -0.0295   61.4524   59.3863  117.6768    1.9671
   5296.2048   62.4321    8.3473   17.1235    0.5139    7.2762    7.4808   30.2484    1.6015   15.2624   -0.0646   52.6720   60.1514  117.9187    1.9275
   5296.3572   63.5594    8.0752   17.1127    0.7679    8.0597    9.4607   30.2585    1.5885   15.1677   -0.0724   45.9872   61.2710  118.1606    1.8880
   5296.5096   65.2360    7.3716   17.1513    1.6960   10.5142   13.7846   30.2687    1.7020   14.2568   -0.0329   37.9492   61.1382  118.4025    1.8485
   5296.6620   70.1522    7.4790   17.4406    4.5528   13.7664   18.3233   30.2789    2.0514    9.5253   -0.0269   23.6499   64.4791  117.6319    1.8096
   5296.8144   75.6109    6.8517   17.8274    9.8734   15.1336   19.6415   30.2891    2.2893    6.7988   -0.0455   18.5682   65.7184  117.3773    1.7837
   5296.9668   75.9030    6.7302   18.0987   15.8628   19.1208   24.2723   30.2992    2.4619    7.5489    0.0486   19.8034   65.7638  117.8660    1.7934
   5297.1192   74.0608    6.1634   18.3575   21.4089   25.1157   30.9029   30.3094    2.4639    5.8601   -0.0215   16.7460   64.9818  122.6702    1.8910
   5297.2716   74.1812    6.2147   18.6131   16.7685   21.6865   25.9442   30.3196    2.6391    5.5077    0.0452   17.8646   62.7191  122.2808    1.9634
   5297.4240   69.6858    6.6153   18.9141    9.6906   16.1042   18.9328   30.3298    2.7402    6.4714    0.1432   22.4948   58.3990  120.6654    2.0885
   5297.5764   67.6199    7.6653   19.1771    5.4634   11.7518   13.6165   30.3400    2.7272    8.8489    0.2503   29.1661   58.7257  120.0677    2.0591
   5297.7288   77.3279    8.9892   19.1288    3.7000    9.9278   11.5157   30.3500    2.5859   11.8923    0.3074   38.6259   60.3349  114.9880    1.9236
   5297.8812   93.3470    8.9287   19.3410    2.5318    9.1595   11.0021   30.3601    2.3447   11.1587    0.1684   45.0764   60.9547  114.7398    1.9280
   5298.0336  101.2712    8.7402   19.3759    1.5079    7.4960    9.6415   30.3703    2.3573   11.0220    0.1581   44.9576   61.5495  114.5451    1.9049
   5298.1860  102.2096    9.7923   19.0237    0.9382    5.8669    8.0428   30.3804    2.3416   13.2919    0.2139   50.1173   59.7006  113.0130    1.9060
   5298.3384   96.8480   11.0483   18.4612    0.6576    5.0892    7.3295   30.3905    2.0678   14.2915    0.1280   58.0024   57.2477  111.7880    1.9570
   5298.4908   93.8206    8.9538   17.8913    0.4996    4.7809    7.0427   30.4008    1.8636   14.7813    0.0471   63.5417   58.5998  114.9837    1.9849
   5298.6432   88.8891    6.7246   17.2913    0.4138    4.6505    6.6780   30.4110    1.7750   14.8908    0.0059   66.9917   62.2147  114.3011    1.8456
   5298.7956   86.8503    5.9839   16.6439    0.3755    4.7206    6.3115   30.4212    1.7401   14.7600   -0.0113   67.6154   65.3156  114.4296    1.7417
   5298.9480   83.2226    6.4020   15.9503    0.3595    4.8739    6.1534   30.4313    1.7197   14.8138   -0.0154   65.8148   65.9905  118.3312    1.7923
   5299.1004   78.9338    6.5823   15.4364    0.3544    4.7840    6.0949   30.4414    1.7217   14.9333   -0.0099   68.0141   66.0546  114.6543    1.7358
   5299.2528   79.3598    7.0195   15.5430    0.3795    4.3405    5.7920   30.4517    1.7070   14.9856   -0.0237   67.5500   66.0416  114.6085    1.7355
   5299.4052   77.6228    8.7863   15.6623    0.4592    3.8032    5.2362   30.4618    1.6762   14.7306   -0.0480   60.9802   66.0803  111.2372    1.6834
   5299.5576   77.8673    7.9087   16.0116    0.5732    3.7832    5.2340   30.4719    1.7339   12.6663   -0.0711   53.5529   66.1076  109.7656    1.6604
   5299.7100   78.3733    6.2919   16.4061    1.0563    6.4123    8.4524   30.4821    2.0104    7.7488   -0.0761   48.6617   65.6926  112.5344    1.7145
   5299.8624   73.9372    6.2881   16.4566    3.4106   14.3572   17.7287   30.4923    2.3872    5.7852    0.0239   34.1394   63.5465  120.3077    1.9031
   5300.0148   72.3149    6.9867   16.2424    8.8521   21.5720   25.5801   30.5024    2.5623    6.6104    0.1094   21.0709   59.4357  130.2012    2.2039
   5300.1672   70.8998    7.7265   15.9268    9.7611   15.8367   19.0697   30.5126    2.5700    7.6500    0.1396   16.8407   58.5924  132.9772    2.2751
   5300.3196   69.8130    7.3225   15.6516    8.4020   10.4096   12.9048   30.5228    2.4652    6.0508    0.0076   17.8356   60.5900  126.6322    2.0944
   5300.4720   70.5305    6.5056   15.4707    8.2939    9.1966   11.4553   30.5330    2.4830    5.3854   -0.0192   21.5221   62.7190  124.6887    1.9890
   5300.6244   67.7746    6.3529   15.1488   10.1835   11.2107   13.5407   30.5432    2.5961    5.8358    0.0570   20.0294   63.4760  132.6812    2.0907
   5300.7768   67.4023    6.7393   14.6836   11.3104   13.5250   15.7158   30.5533    2.6239    6.8051    0.1202   18.3660   62.9490  141.5483    2.2512
   5300.9292   62.6957    7.8010   14.1923    7.8044   12.5111   14.2556   30.5634    2.6097    9.8364    0.2332   20.7423   61.7224  145.2760    2.3579
   5301.0816   59.0547    8.8766   13.7350    3.4037    9.1848   10.8719   30.5737    2.3941   13.1566    0.2267   26.2453   60.1942  149.2197    2.4870
   5301.2340   62.8863    9.3771   13.2706    1.4243    6.4717    8.2463   30.5839    2.0641   14.3134    0.1178   38.3120   58.2341  154.0262    2.6545
   5301.3864   71.6543    7.6398   12.9002    0.8472    5.2701    7.1779   30.5941    1.9374   14.7067    0.0787   54.3467   59.2252  155.8930    2.6418
   5301.5388   76.9799    7.1942   12.7459    0.6573    5.0056    7.0369   30.6041    1.8773   14.5619    0.0620   63.7496   62.8261  157.5126    2.5129
   5301.6912   76.9642    7.4306   12.7248    0.5451    5.1377    7.1856   30.6139    1.8917   14.7015    0.0675   63.2939   65.9351  158.8748    2.4119
   5301.8436   71.8667    8.9788   12.7116    0.4786    5.3977    7.3532   30.6234    1.8575   15.0625    0.0409   63.4123   66.4986  156.5065    2.3540
   5301.9960   75.0220    9.2592   12.6988    0.4390    5.3618    7.1459   30.6331    1.7512   15.0801   -0.0072   62.6997   66.1753  153.6017    2.3212
   5302.1484   74.0043   10.2466   12.6915    0.4156    5.0187    6.6717   30.6426    1.6812   15.0631   -0.0346   65.1749   65.9342  152.7280    2.3168
   5302.3008   77.5706    8.8503   12.7097    0.4129    4.7662    6.4146   30.6521    1.6764   14.7898   -0.0331   66.3632   65.5703  150.7689    2.3006
   5302.4532   78.3697    6.7386   12.7062    0.4236    4.7010    6.4573   30.6617    1.7294   14.5221   -0.0150   65.4290   65.5749  146.4941    2.2353
   5302.6056   76.0522    6.0242   12.7260    0.4443    4.6853    6.5573   30.6713    1.7566   13.9217   -0.0194   58.5527   64.9767  143.5966    2.2122
   5302.7580   73.5803    6.3224   12.9824    0.5031    4.6890    6.5902   30.6808    1.8686   11.8355   -0.0172   51.8391   63.8448  140.0933    2.1967
   5302.9104   74.7670    6.7099   13.4211    0.6414    4.8947    6.8272   30.6903    2.1290    8.5214   -0.0168   47.9275   62.3299  126.6465    2.0404
   5303.0628   76.8625    6.8013   13.7967    0.9207    5.8459    8.0338   30.7000    2.3844    6.6024    0.0054   44.6230   64.7243  114.5826    1.7756
   5303.2152   83.3177    7.4260   14.0034    1.5083    8.5367   11.2854   30.7096    2.4720    8.3578    0.0879   37.7537   64.9254  114.7691    1.7688
   5303.3676   82.8191    9.2291   14.1090    2.3281   12.1763   15.0929   30.7195    2.3433   12.4514    0.1571   30.5915   64.6034  119.3022    1.8472
   5303.5200   79.9345    9.7757   14.2149    2.3568   11.7855   13.5953   30.7296    2.0975   12.1629    0.0812   32.7094   65.2380  122.3336    1.8755
   5303.6724   79.1953    9.1566   14.1649    2.0030    8.7551    9.9410   30.7398    2.1750    9.0449    0.0242   38.7488   65.9333  126.2847    1.9153
