~Version Information
 VERS.                  2.0:   CWLS log ASCII Standard -VERSION 2.0
 WRAP.                   NO:   One line per depth step
~Well Information Block
#MNEM.UNIT     VALUE/NAME     DESCRIPTION
#---------     -----------    ---------------------------
 STRT.M              5223.0528: START DEPTH
 STOP.M              5536.2348: STOP DEPTH
 STEP.M                 0.1524: STEP DEPTH
 NULL.               -999.2500: NULL VALUE
 DFWT.                        :  DIST FWL TEXT
 DFST.                        :  DIST FSL TEXT
 DMF .             Drill Floor:  DRILL MEAS FROM
 STIM.      11.30.00 09-Jul-16:  START TIME
 DATE.      11.29.04 14-Aug-16:  END TIME
 SPUD.               17-Aug-15:  SPUD DATE
 NREF.                    Grid:  NORTH REFERENCE
 HPTY.       Minimum Curvature:  HOLE POS TYPE
 DMOD.             Drill Model:  DRILL MOD DESC
 SVYD.                  Survey:  SURVEY DESC
 ILTD.               Lithology:  INTERP LTH DESC
 FTOP.          Formation Tops:  FORM TOPS DESC
 WELL.              AF011-3D-1:  WELL NAME
 COMP.               TOTAL-ABK:  COMPANY
 SON .        AD-XX-0902156848:  JOB NUMBER
 GCDE.     Generic Lat/Long's, Degrees, -180 ==> +180:  GEO COORD DESC
 CCDE.     UTM Clarke 1880 (CM 51), Meters:  CART COORD DESC
 GGSY.                      LL:  GEO GRID SYS
 CGSY.               SS CLRK51:  CART GRID SYS
 GREF.     Ellipsoid World Geodetic System :  GEO REFERENCE
 CREF.     Ellipsoid Clarke - 1880:  CART REFERENCE
 MMDL.            bggm2016.dat:  MAGNETIC MODEL
 MMDD.            20 May, 2016:  MAG DATA DATE
 MDS .              Win MagUTM:  MAG DATA SOURCE
 LLGR.      Latitude/Longitude:  LLGROUP
 XYGR.     UTM Zones, Northern Hemisphere, Meters:  XYGROUP
 PDAT.          Mean Sea Level:  PERMANENT DATUM
 WTYP.                Deviated:  WELL TYPE
 BASE.               Abu Dhabi:  LOGGING EQUIPMENT BASE LOCATION
 REGN.     Middle East/North Africa:  REGION
 PROV.               Abu Dhabi:  PROVINCE
 STAT.               Abu Dhabi:  STATE NAME
 CTRY.     United Arab Emirates:  COUNTRY NAME
 FLD .         Abu Al Bukhoosh:  FIELD NAME
 SRVC.                  SAIPEM:  CONTRACTOR
 MWDS.                Musaffah:  MWD SHOP
 RIG .           Perro Negro 8:  RIG NAME
 CNTY.               Abu Dhabi:  COUNTY NAME
 DCON.             HALLIBURTON:  DIRECTNL CONTR
 UNIT.                    9804:  LOGGING EQUIPMENT ID
 DOE .        AD-XX-0902156848:  DOE NUMBER
 API .                        :  API NUMBER
 UWI .                        :  UNIQUE WELL IDENTIFIER
 LOC .                        :  LOCATION
 LMF .             Drill Floor:  LOG MEASURED FROM
 TVDS.m              43.899999:  TVDSS CORRECTN
 LATI.deg            25.504513:  LATITUDE
 LONG.deg            53.120396:  LONGITUDE
 WHNS.m               0.000000:  WELL HEAD N/S
 WHEW.m               0.000000:  WELL HEAD E/W
 UTMX.m          713123.300043:  UTM X
 UTMY.m         2822281.299893:  UTM Y
 DFWL.m               0.000000:  DISTANCE FWL
 DFSL.m               0.000000:  DISTANCE FSL
 SDEP.m            5253.990000:  START DEPTH
 TDD .m            5543.669658:  TOTAL DEPTH (DRILLER)
 VSDR.deg           249.940002:  VERT SEC DIRECT
 GVFD.g               1.000000:  GRAVITY FIELD
 MFLD.nT          43940.839844:  MAGNETIC FIELD
 MDIP.deg            39.918472:  MAGNETIC DIP
 MDEC.deg             2.250056:  MAGNETIC DECL
 GRDC.deg             0.913350:  GRID CORRECTION
 AZTC.deg             1.336706:  AZM TOTAL CORR
 EPD .m               0.000000:  ELEVATION
 EGL .m             -45.400001:  GROUND ELEVATION
 WDMS.m              45.400001:  WD ELEV
 APD .m              43.899999:  DEPTH ABOVE PD
 MMDE.m               0.000000:  MAGUTM CALC DEP
 CMER.deg            51.000000:  CENTRL MERIDIAN
 AGAP.m              23.099999:  AIR GAP
 EKB .m              43.899999:  KB ELEVATION
 EDF .m              43.899999:  DF ELEVATION
 VSC .                       0:  VS TO CLOSURE
 MAGU.                 1527179:  MAGUTM CHECKSUM
~Parameter Information Block
#MNEM.UNIT       Value        Description
#---------     -----------    ---------------------------
 AV  .mps             1.500000:  Ann Velocity 
 AVMX.mps             2.400000:  Max Ann Veloc 
 AZIF.deg           257.739990:  Azm, Final 
 BHAT.                 Turbine:  BHA Type 
 BROT.°/100'          0.000000:  Build Rotating 
 BS  .in              8.500000:  Bit Size 
 BSZ .in              8.500000:  Bit Size 
 BTPL.psig           43.511005:  Bit Press Loss 
 CABU.                      No:  Customer Abuse 
 TCS .hr            149.515671:  Time Ciculation Ended 
 CV  .mps             3.000000:  Crit Velocity 
 CVMX.mps             4.000000:  Max Crit Veloc 
 DD1 .            Ahmed Bayoud:  Direct Drillr 1 
 DD2 .        Hany Abdel Hafez:  Direct Drillr 2 
 DDSV.                 Turbine:  DD Service 
 DEFF.%              98.000000:  % Det Eff 
 DLRX.°/100'          0.000000:  Dogleg Rot Max 
 DLSO.°/100'          0.000000:  Dogleg Oriented 
 DLSX.°/100'          0.000000:  Dogleg Str Max 
 DRET.      12.28.32 23-Jun-16:  Drill End Time 
 DRST.      14.30.00 17-Jun-16:  Drill Start Tim 
 DTIM.hr            102.349998:  Time Drilling 
 EDEP.m            5254.000000:  End Depth 
 ENG1.         Ahmed Montasser:  Engineer 1 
 ENG2.              Do Dang Sa:  Engineer 2 
 ENG3.           Khaled Khalaf:  Engineer 3 
 ENG4.         Muhammad Mubeen:  Engineer 4 
 ETIM.      05.40.54 26-Jun-16:  End Time 
 FLOI.lpm          1800.000122:  Flow In 
 FLON.lpm          1500.000000:  Flow In Min 
 FLOS.lpm             0.000000:  Fluid Loss 
 FLOX.lpm          1800.000122:  Flow In Max 
 DFT .                   Other:  Mud Type 
 HFLO.                      No:  High Flow 
 HPRE.                      No:  High Pressure 
 HTEM.                      No:  High Temp 
 HYDO.m               1.400000:  Hydro Offset 
 IFIN.deg            10.460000:  Inc, Final 
 IMAX.deg            32.367214:  Inc Max 
 IMIN.deg            11.447388:  Inc Min 
 IMND.m            5236.799805:  Inc Min Depth 
 IMXD.m            4790.299805:  Inc Max Depth 
 JARR.                      No:  Jarring 
 LETM.      12.28.32 23-Jun-16:  Log End Time 
 LOST.hr                     0:  Lost Rig Time 
 LSTM.      14.30.00 17-Jun-16:  Log Start Time 
 MDCL.ppm         23000.000000:  Mud Chlorides 
 MDES.             Fresh Water:  Mud Desc 
 DFD .g/c3            1.170004:  Mud Density 
 MDMN.g/c3            1.160004:  Dens Mud Min 
 MDMX.g/c3            1.170004:  Dens Mud Max 
 PH  .pH              9.400000:  Mud pH 
 MOIL.                       0:  Run Mud Oil % 
 MOWR.                    1 91:  Run Mud OWR 
 MSND.                     0.1:  Run Mud Sand % 
 MSOL.                     6.2:  Run Mud Solids% 
 DFV .spl            73.000000:  Mud Viscosity 
 MWOD.in              6.750000:  MWD Tool OD 
 MWSI.                      No:  Serv Intrp, MWD 
 OTIM.hr            238.111023:  Time Operating 
 PMAX.psig         4000.000000:  Press Op, Max 
 PV  .mPsec          36.000000:  Mud PV 
 RMS .ohmm            0.299000:  Mud Resistivity 
 RMCS.ohmm            0.397000:  Mud Cake Resistivity 
 MCST.degC           35.000000:  Mud Cake Sample Temperature 
 RMFS.ohmm            0.200000:  Mud Filtrate Resistivity 
 RMFT.degC           35.000000:  Mud Filtrate Sample Temperature 
 RMMT.ohmm            0.118100:  Rm @ Max Temp 
 MST .degC           35.000000:  Mud Sample Temperature 
 RUN .                    3300:  Run Number 
 ROPA.m/hr            4.450000:  ROP Avg 
 ROPN.m/hr            2.000000:  ROP Min 
 ROPX.m/hr            7.000000:  ROP Max 
 RPMA.rpm            78.000000:  RPM Surface Avg 
 RPMN.rpm            35.000000:  RPM Surface Min 
 RPMX.rpm            80.000000:  RPM Surface Max 
 RRUN.                    3300:  Rig Run Number 
 RTIM.hr              7.150000:  Time Reaming 
 SAZI.deg           249.699997:  Azm, Start 
 SDEP.m            4799.000000:  Start Depth 
 SIDD.                      No:  Serv Intrp, DD 
 SINC.deg            30.049999:  Inc, Start 
 SPPA.psig         4543.999023:  SPP Avg 
 SPPN.psig         4264.078613:  SPP Min 
 SPPX.psig         4641.173828:  SPP Max 
 STIM.      09.00.00 16-Jun-16:  Start Time 
 SVCS.                 DD, MWD:  Services 
 SVER.                8.300000:  Sperry Version 
 TDAT.m             455.000000:  Tot Depth Attmp 
 TDDF.                      No:  Trip for DD 
 TDLG.m             455.000000:  Tot Depth Loggd 
 TFF .                      No:  Trip for Fail 
 TQAA.f-p         37070.000000:  Torque Abs Avg 
 TQAN.f-p         35000.000000:  Torque Abs Min 
 TQAX.f-p         39000.000000:  Torque Abs Max 
 TRRT.°/100'          0.000000:  Turn Rotating 
 MRT .                     PWD:  Maximum Recorded Temperature 
 TTMX.degC          121.568352:  Max Tool Temp 
 VS01.     AD90473258H2V5WGV2COXF1(6):  Virtual Str1 SN 
 WBMN.klb             4.409245:  WOB Min 
 WITN.           Roger Butters:  Customer Rep 
 WOBA.klb             9.788525:  WOB Avg 
 WOBX.klb            13.227736:  WOB Max 
 YP  .pa             43.000000:  Yield Point 
~Curve Information Block
#MNEM.UNIT                 API CODE     Curve Description
#---------               -----------    ---------------------------
 DEPT.M                 00 000 000 000:  Depth
 DGRCC.api              00 000 000 000:  DGR Comb Gamma Ray BCorr
 ALHSI.in               00 000 000 000:  ALD Hole Size Indicator
 ABR .ohmm              00 000 000 000:  At-Bit Resistivity
 AFRSA.ohmm             00 000 000 000:  AFR Shallow Avg Res
 AFRMA.ohmm             00 000 000 000:  AFR Medium Avg Res
 AFRDA.ohmm             00 000 000 000:  AFR Deep Avg Res
 AFXT.hr                00 000 000 000:  AFR Form Exp Time
 ALCDLC.g/c3            00 000 000 000:  ALD LCRB Comp Density
 ALPELC.NONE            00 000 000 000:  ALD LCRB Pe Factor
 ALDCLC.g/c3            00 000 000 000:  ALD LCRB Den Correction
 TNPL.pu                00 000 000 000:  CTN Porosity Limestone
 DTC .uspf              00 000 000 000:  BAT DTC
 DTRS.uspf              00 000 000 000:  BAT Refracted Shear
 VPVS.NONE              00 000 000 000:  BAT VP/VS
#Other Information
#
#WARRANTY: Halliburton will use its best efforts to furnish customers with 
#accurate information and interpretations that are part of, and incident to, the services 
#provided.  However, Halliburton cannot and does not warrant the accuracy 
#or correctness of such information and interpretations.  Under no circumstances should any 
#such information or interpretation be relied upon as the sole basis for any drilling, 
#completion, production, or financial decision or any procedure involving any risk to the 
#safety of any drilling venture, drilling rig or its crew or any other third party.  The 
#Customer has full responsibility for all drilling, completion and production operation.  
#Halliburton makes no representations or warranties, either expressed or 
#implied, including, but not limited to, the implied warranties of merchantability or fitness 
#for a particular purpose, with respect to the services rendered.  In no event will 
#Halliburton be liable for failure to obtain any particular results or for 
#any damages, including, but not limited to, indirect, special or consequential damages, 
#resulting from the use of any information or interpretation provided by Halliburton.
#
~A   DEPT      DGRCC     ALHSI      ABR      AFRSA     AFRMA     AFRDA     AFXT     ALCDLC    ALPELC    ALDCLC     TNPL       DTC      DTRS      VPVS    
# ...
   5441.1372   17.2806    5.7500   28.5692   31.0443   39.2032   40.9281   42.3981    2.4739    2.5780   -0.0323    3.5960   57.6498   90.1156    1.5641
   5441.2896   16.7739    5.7500   28.9719   33.4510   41.1145   43.2376   42.4083    2.4713    2.5285   -0.0363    3.5779   57.1568   89.0870    1.5607
   5441.4420   14.8746    5.7500   29.4960   36.2577   42.0820   44.4839   42.4185    2.4826    2.5437   -0.0324    3.0886   57.3440   88.0722    1.5369
   5441.5944   15.1543    5.7500   30.1449   42.5077   47.1318   50.1005   42.4287    2.4833    2.5834   -0.0358    2.5888   56.9509   87.4013    1.5347
   5441.7468   13.9222    5.7500   30.5295   57.9321   62.8648   66.7499   42.4388    2.4884    3.0241   -0.0429    2.1556   56.6688   86.9809    1.5354
   5441.8992   10.5273    5.7500   30.3833   79.7294   82.7959   86.6953   42.4489    2.5183    3.4951   -0.0360    1.9919   57.4166   86.4562    1.5066
   5442.0516   11.4984    5.7500   30.0813   74.1511   70.3232   71.5413   42.4591    2.5448    3.5039   -0.0276    2.2053   57.8867   85.7075    1.4819
   5442.2040   13.5117    5.7500   29.9176   56.9683   50.8894   50.9746   42.4693    2.5502    3.3337   -0.0175    2.4407   56.2416   85.5518    1.5220
   5442.3564   15.2826    5.7500   29.8017   50.5910   45.6300   45.3965   42.4794    2.5334    3.4756   -0.0137    2.3877   55.6334   86.0225    1.5453
   5442.5088   20.5102    5.7500   29.7190   50.1284   47.9717   47.4764   42.4895    2.5174    3.0738   -0.0287    2.4293   56.2150   86.4910    1.5390
   5442.6612   18.3356    5.7500   29.6987   46.6780   47.0722   46.3137   42.4997    2.5062    2.5450   -0.0395    2.5511   56.2808   86.7196    1.5418
   5442.8136   14.5546    5.7500   29.7365   42.1017   43.2607   42.4929   42.5099    2.5093    2.5093   -0.0356    2.3160   56.1326   86.7642    1.5461
   5442.9660   12.2570    5.7500   29.7461   38.8283   39.6711   39.4349   42.5201    2.5172    2.6243   -0.0293    2.3977   56.0001   86.8705    1.5515
   5443.1184   13.0501    5.7500   29.7503   37.2056   37.5980   38.0435   42.5303    2.5220    2.7189   -0.0251    2.5292   56.3845   87.0648    1.5449
   5443.2708   13.2530    5.7500   29.9418   37.3954   37.6561   38.5789   42.5404    2.5171    2.6003   -0.0327    2.4148   58.1212   86.9735    1.4982
   5443.4232   12.3063    5.7500   30.2326   38.3835   38.9135   40.0058   42.5505    2.5186    2.5583   -0.0338    2.2927   58.7724   86.6874    1.4764
   5443.5756   14.7041    5.7500   30.3759   38.3588   39.2147   40.4123   42.5608    2.5225    2.7493   -0.0251    2.5824   57.8446   86.7918    1.5030
   5443.7280   14.3896    5.7500   30.3986   38.2488   39.0646   40.7409   42.5709    2.5268    2.7815   -0.0213    2.5861   56.8552   87.4404    1.5403
   5443.8804   14.9254    5.7500   30.3527   36.4888   36.9956   39.3863   42.5811    2.5230    2.5865   -0.0271    2.6226   56.0796   87.5843    1.5635
   5444.0328   15.3305    5.7500   30.2990   33.3180   33.5035   36.3932   42.5912    2.5228    2.7143   -0.0211    2.8854   55.0345   87.0999    1.5832
   5444.1852   15.8021    5.7500   30.2120   30.3518   30.4911   33.6312   42.6013    2.5184    2.8816   -0.0191    2.8311   55.5637   87.2660    1.5709
   5444.3376   14.9461    5.7500   30.0872   29.4552   30.4327   33.5847   42.6115    2.5178    2.6207   -0.0327    2.9218   56.6499   87.6312    1.5474
   5444.4900   13.1484    5.7500   30.7369   31.4867   34.2211   37.1275   42.6217    2.5186    2.4405   -0.0311    3.0667   56.5594   87.5399    1.5488
   5444.6424   14.5426    5.7500   34.0958   31.0072   35.3467   37.2972   42.6319    2.5055    2.4652   -0.0295    3.2467   56.0936   87.4360    1.5599
   5444.7948   14.8967    5.7500   37.0913   26.1346   30.0826   31.1070   42.6421    2.4872    2.6326   -0.0275    3.8058   56.4497   87.8335    1.5567
   5444.9472   15.8048    5.7500   37.3389   23.0337   25.8669   26.5883   42.6522    2.4881    2.7721   -0.0204    4.3508   56.8917   88.1163    1.5491
   5445.0996   14.3071    5.7500   36.7205   22.1929   24.2068   24.8193   42.6624    2.4663    2.5882   -0.0305    4.1431   57.5093   87.5084    1.5219
   5445.2520   16.2466    5.7500   36.0379   21.8679   23.3220   23.6758   42.6726    2.4663    2.5365   -0.0351    3.8777   58.1206   87.0928    1.4987
   5445.4044   13.3419    5.7500   35.3795   21.9368   23.3265   23.4230   42.6828    2.4716    2.6444   -0.0418    3.9983   58.1271   87.2293    1.4969
   5445.5568   10.8800    5.7513   34.7772   25.7375   28.6857   28.9735   42.6929    2.4961    3.1526   -0.0337    3.3725   57.9669   88.0359    1.5010
   5445.7092   10.0196    5.7732   34.2808   37.6838   43.8433   44.5024   42.7027    2.5316    3.6272   -0.0067    3.0299   57.3378   88.1205    1.5161
   5445.8616   14.0688    5.8520   33.8891   52.0515   57.8811   57.9351   42.7123    2.5721    3.8017    0.0143    3.6237   56.7175   87.1182    1.5311
   5446.0140   25.5820    5.8492   33.4772   47.7881   45.1648   48.5526   42.7219    2.5608    3.8969    0.0130    3.9708   56.2711   86.9256    1.5447
   5446.1664   43.9939    5.7799   32.8900   42.7701   39.4324   46.1531   42.7315    2.5326    3.5519   -0.0107    4.8344   56.1927   87.2085    1.5513
   5446.3188   45.7950    5.7549   31.8567   49.4041   51.0800   61.9661   42.7410    2.5089    3.2061   -0.0219    5.1573   56.6737   88.0101    1.5563
   5446.4712   37.7678    5.7500   31.1484   53.6150   59.5197   71.3756   42.7505    2.4941    2.8329   -0.0217    5.6687   58.9651   89.0299    1.5128
   5446.6236   27.4542    5.7500   30.7009   42.7045   52.6892   58.6755   42.7601    2.4670    2.5666   -0.0269    5.5761   59.5732   90.4602    1.5166
   5446.7760   19.4737    5.7500   30.3617   28.5495   38.0311   38.7878   42.7697    2.4377    2.3516   -0.0387    5.9917   60.2681   91.5738    1.5195
   5446.9284   14.9032    5.7500   30.1526   20.1019   26.8049   26.1229   42.7793    2.4280    2.2937   -0.0403    6.1518   60.8108   91.9884    1.5143
   5447.0808   14.4333    5.7500   30.0862   16.3588   20.6226   20.0507   42.7888    2.4214    2.3765   -0.0437    5.3230   60.6856   93.0056    1.5352
   5447.2332   14.6047    5.7500   30.1218   14.0476   16.5911   16.3989   42.7985    2.4297    2.5803   -0.0468    5.1351   60.4774   94.3696    1.5618
   5447.3856   12.5926    5.7500   30.2408   13.2146   15.3286   15.5027   42.8082    2.4576    2.7409   -0.0436    4.3510   59.8655   94.2204    1.5749
   5447.5380   13.5174    5.7500   30.4131   15.6072   19.2308   20.0891   42.8182    2.4830    2.4659   -0.0424    3.2836   59.7491   92.4094    1.5504
   5447.6904   12.9291    5.7500   30.5721   23.7227   31.5813   34.1863   42.8285    2.4980    2.3633   -0.0391    2.7166   59.5483   90.3862    1.5243
   5447.8428   13.8737    5.7500   30.7169   34.6657   47.1286   52.7692   42.8387    2.4834    2.3215   -0.0444    2.5457   58.0622   89.5754    1.5459
   5447.9952   13.9032    5.7500   30.9861   37.0472   47.6288   54.7783   42.8490    2.4902    2.4131   -0.0414    2.4938   55.4323   88.4398    1.5968
   5448.1476   13.1101    5.7500   31.3588   35.4573   41.2688   48.8893   42.8592    2.4966    2.6626   -0.0323    2.6891   55.0268   87.6776    1.5928
   5448.3000   12.6206    5.7500   31.7020   35.7658   37.8356   45.5310   42.8695    2.4913    2.4479   -0.0359    2.4639   55.3535   87.5723    1.5812
   5448.4524   10.8383    5.7500   31.8798   35.8504   35.7104   42.0799   42.8797    2.4886    2.4116   -0.0415    2.1445   55.5651   87.6923    1.5761
   5448.6048    9.2385    5.7500   31.9413   37.6943   36.8651   41.2488   42.8900    2.4961    2.5141   -0.0396    2.0029   55.1661   87.3302    1.5818
   5448.7572   10.3343    5.7500   31.9294   44.1821   44.0620   46.3283   42.9002    2.5064    2.6741   -0.0347    1.5987   55.2695   86.7073    1.5697
   5448.9096   12.2696    5.7500   31.8640   55.5232   56.9344   57.4292   42.9104    2.5123    2.6763   -0.0354    1.3707   55.0979   86.2741    1.5671
   5449.0620   11.8519    5.7500   31.6831   66.8654   70.2530   70.1192   42.9208    2.5083    2.4758   -0.0393    1.3558   55.5451   85.6341    1.5412
