~Version Information
 VERS.                  2.0:   CWLS log ASCII Standard -VERSION 2.0
 WRAP.                   NO:   One line per depth step
~Well Information Block
#MNEM.UNIT     VALUE/NAME     DESCRIPTION
#---------     -----------    ---------------------------
 STRT.F             14200.0000: START DEPTH
 STOP.F             16770.0000: STOP DEPTH
 STEP.F                 0.5000: STEP DEPTH
 NULL.               -999.2500: NULL VALUE
 UNIT.                12318515:  LOGGING EQUIPMENT ID
 CNTY.             HAIR DALMAH:  COUNTY NAME
 JOBN.        AD-XX-0905995035:  JOB TICKET NUMB
 FLD .             HAIR DALMAH:  FIELD NAME
 PDAT.          Mean Sea Level:  PERMANENT DATUM
 RIG .                     PN8:  RIG NAME
 MWDS.                    ICAD:  MWD SHOP
 CTRY.     United Arab Emirates:  COUNTRY NAME
 REGN.     Middle East/North Africa:  REGION
 BASE.               Abu Dhabi:  LOGGING EQUIPMENT BASE LOCATION
 WTYP.                Vertical:  WELL TYPE
 XYGR.     UTM Zones, Northern Hemisphere, Meters:  XYGROUP
 LLGR.      Latitude/Longitude:  LLGROUP
 MDS .              Win MagUTM:  MAG DATA SOURCE
 MMDD.       05 December, 2019:  MAG DATA DATE
 MMDL.            bggm2019.dat:  MAGNETIC MODEL
 CREF.     Ellipsoid Clarke - 1880:  CART REFERENCE
 GREF.     Ellipsoid World Geodetic System :  GEO REFERENCE
 CGSY.               SS CLRK51:  CART GRID SYS
 GGSY.                      LL:  GEO GRID SYS
 CCDE.     UTM Clarke 1880 (CM 51), Meters:  CART COORD DESC
 GCDE.     Generic Lat/Long's, Degrees, -180 ==> +180:  GEO COORD DESC
 SON .        AD-XX-0905995035:  JOB NUMBER
 COMP.          ADNOC Offshore:  COMPANY
 WELL.               HD011-02D:  WELL NAME
 FTOP.          Formation Tops:  FORM TOPS DESC
 ILTD.               Lithology:  INTERP LTH DESC
 SVYD.                  Survey:  SURVEY DESC
 DMOD.             Drill Model:  DRILL MOD DESC
 HPTY.       Minimum Curvature:  HOLE POS TYPE
 NREF.                    Grid:  NORTH REFERENCE
 SPUD.               17-Feb-20:  SPUD DATE
 DATE.      21.00.00 29-Aug-20:  END TIME
 STIM.      12.00.00 26-Jul-20:  START TIME
 DMF .             Drill Floor:  DRILL MEAS FROM
 DFST.                        :  DIST FSL TEXT
 DFWT.                        :  DIST FWL TEXT
 PROV.               Abu Dhabi:  PROVINCE
 STAT.               Abu Dhabi:  STATE NAME
 API .                        :  API NUMBER
 SRVC.             Halliburton:  SERVICE COMPANY
 UWI .                        :  UNIQUE WELL IDENTIFIER
 LOC .                        :  LOCATION
 LMF .             Drill Floor:  LOG MEASURED FROM
 DEP .ft              0.000000:  DEPTH
 AGAP.ft            118.000000:  AIR GAP
 CMER.deg            51.000000:  CENTRL MERIDIAN
 MMDE.ft              0.000000:  MAGUTM CALC DEP
 APD .ft            118.000000:  DEPTH ABOVE PD
 WDMS.ft             65.000000:  WD ELEV
 EGL .ft              0.000000:  GROUND ELEVATION
 EPD .ft              0.000000:  ELEVATION
 AZTC.deg             1.750428:  AZM TOTAL CORR
 GRDC.deg             0.592532:  GRID CORRECTION
 MDEC.deg             2.342959:  MAGNETIC DECL
 MDIP.deg            38.394272:  MAGNETIC DIP
 MFLD.nT          43612.476563:  MAGNETIC FIELD
 GVFD.g               1.000000:  GRAVITY FIELD
 VSDR.deg            91.860001:  VERT SEC DIRECT
 TDD .ft          16770.000000:  TOTAL DEPTH (DRILLER)
 SDEP.ft          14436.000000:  START DEPTH
 DFSL.ft              0.000000:  DISTANCE FSL
 DFWL.ft              0.000000:  DISTANCE FWL
 UTMY.m         2710911.810000:  UTM Y
 UTMX.m          644702.250000:  UTM X
 WHEW.ft              0.000000:  WELL HEAD E/W
 WHNS.ft              0.000000:  WELL HEAD N/S
 LONG.deg            52.428197:  LONGITUDE
 LATI.deg            24.507246:  LATITUDE
 TVDS.ft            118.000000:  TVDSS CORRECTN
 EKB .ft            118.000000:  KB ELEVATION
 EDF .ft            118.000000:  DF ELEVATION
 MAGU.                 1512580:  MAGUTM CHECKSUM
 VSC .                       0:  VS TO CLOSURE
~Parameter Information Block
#MNEM.UNIT       Value        Description
#---------     -----------    ---------------------------
 AV  .fpm           484.999969:  Ann Velocity 
 AVMX.fpm           969.999939:  Max Ann Veloc 
 AZIF.deg           166.490005:  Azm, Final 
 BHAT.               Mud Motor:  BHA Type 
 BROT.°/100'          0.030000:  Build Rotating 
 BS  .in              8.375000:  Bit Size 
 BSZ .in              8.375000:  Bit Size 
 BTPL.psig          415.000000:  Bit Press Loss 
 CABU.                      No:  Customer Abuse 
 CGEO.             Carey Mills:  Customer Geo 
 COMM.                     ÜhT:  Run Comments 1 
 TCS .hr             21.141129:  Time Ciculation Ended 
 CV  .fpm           564.000000:  Crit Velocity 
 CVMX.fpm           702.000000:  Max Crit Veloc 
 DD1 .     Mohamed Gayed Barakat:  Direct Drillr 1 
 DDSV.               Mud Motor:  DD Service 
 DEFF.%              98.000000:  % Det Eff 
 DLRX.°/100'          0.100000:  Dogleg Rot Max 
 DLSO.°/100'          0.070000:  Dogleg Oriented 
 DLSX.°/100'          0.100000:  Dogleg Str Max 
 DRET.      23.59.00 10-Aug-20:  Drill End Time 
 DRST.      15.30.00 10-Aug-20:  Drill Start Tim 
 DTIM.hr              4.412436:  Time Drilling 
 EDEP.ft          15118.000000:  End Depth 
 ENG1.             Ahmed Aleem:  Engineer 1 
 ETIM.      16.00.00 11-Aug-20:  End Time 
 FLOI.gpm           550.000000:  Flow In 
 FLON.gpm           499.999969:  Flow In Min 
 FLOS.mptm            3.000000:  Fluid Loss 
 FLOX.gpm           550.000000:  Flow In Max 
 DFT .                 Polymer:  Mud Type 
 HFLO.                      No:  High Flow 
 HPRE.                      No:  High Pressure 
 HTEM.                      No:  High Temp 
 HYDO.ft              0.000000:  Hydro Offset 
 IFIN.deg             1.530000:  Inc, Final 
 IMAX.deg             1.590000:  Inc Max 
 IMIN.deg             1.560000:  Inc Min 
 IMND.ft          14992.000000:  Inc Min Depth 
 IMXD.ft          14895.000000:  Inc Max Depth 
 JARR.                      No:  Jarring 
 LETM.      23.59.00 10-Aug-20:  Log End Time 
 LOST.hr                    42:  Lost Rig Time 
 LSTM.      11.00.00 10-Aug-20:  Log Start Time 
 MDCL.ppm        140000.000000:  Mud Chlorides 
 MDES.             Fresh Water:  Mud Desc 
 DFD .ppg            12.000000:  Mud Density 
 MDMN.ppg            12.000000:  Dens Mud Min 
 MDMX.ppg            12.000000:  Dens Mud Max 
 PH  .pH             10.000000:  Mud pH 
 MOWR.                    0 83:  Run Mud OWR 
 MSND.                       0:  Run Mud Sand % 
 MSOL.                      17:  Run Mud Solids% 
 MTV .                GeoForce:  Motor Variant 
 DFV .spqt           50.000000:  Mud Viscosity 
 MWOD.in              6.900000:  MWD Tool OD 
 MWSI.                     Yes:  Serv Intrp, MWD 
 OTIM.hr             49.000000:  Time Operating 
 PMAX.psig        10491.233398:  Press Op, Max 
 PV  .cP             22.000000:  Mud PV 
 RMS .ohmm            0.022000:  Mud Resistivity 
 RMCS.ohmm            0.033000:  Mud Cake Resistivity 
 MCST.degF          212.000000:  Mud Cake Sample Temperature 
 RMFS.ohmm            0.020000:  Mud Filtrate Resistivity 
 RMFT.degF          212.000000:  Mud Filtrate Sample Temperature 
 RMMT.ohmm            0.018000:  Rm @ Max Temp 
 MST .degF          212.000000:  Mud Sample Temperature 
 RUN .                    4200:  Run Number 
 ROPA.fph            20.629999:  ROP Avg 
 ROPN.fph            20.000000:  ROP Min 
 ROPX.fph            31.250002:  ROP Max 
 RPMA.rpm            90.000000:  RPM Surface Avg 
 RPMN.rpm            90.000000:  RPM Surface Min 
 RPMX.rpm            90.000000:  RPM Surface Max 
 RRUN.                    4200:  Rig Run Number 
 RTIM.hr              8.500000:  Time Reaming 
 SAZI.deg           168.300003:  Azm, Start 
 SDEP.ft          14972.500000:  Start Depth 
 SIDD.                      No:  Serv Intrp, DD 
 SINC.deg             1.570000:  Inc, Start 
 SPPA.psig         3000.000000:  SPP Avg 
 SPPN.psig         3000.000000:  SPP Min 
 SPPX.psig         3000.000000:  SPP Max 
 STIM.      21.30.00 09-Aug-20:  Start Time 
 SVCS.                 DD, MWD:  Services 
 SVER.                9.200000:  Sperry Version 
 TDAT.ft            348.000000:  Tot Depth Attmp 
 TDDF.                      No:  Trip for DD 
 TDLG.ft            145.500000:  Tot Depth Loggd 
 TFF .                     Yes:  Trip for Fail 
 TQAA.f-p            22.000000:  Torque Abs Avg 
 TQAN.f-p            22.000000:  Torque Abs Min 
 TQAX.f-p            22.000000:  Torque Abs Max 
 TRRT.°/100'          1.010000:  Turn Rotating 
 MRT .                     AFR:  Maximum Recorded Temperature 
 TTMX.degF          260.000000:  Max Tool Temp 
 VS01.     AD90608221 H7V5WCOF1 (6):  Virtual Str1 SN 
 VS02.     90608207 R11GV2CO (6):  Virtual Str2 SN 
 WBMN.klb            15.000000:  WOB Min 
 WITN.         Ricardo Vasquez:  Customer Rep 
 WOBA.klb            17.500000:  WOB Avg 
 WOBX.klb            20.000000:  WOB Max 
 YP  .lhf2           35.000000:  Yield Point 
~Curve Information Block
#MNEM.UNIT                 API CODE     Curve Description
#---------               -----------    ---------------------------
 DEPT.F                 00 000 000 000:  Depth
 RPTVD.ft               00 000 000 000:  ROP True Vertical Depth
 ROPA.fph               00 000 000 000:  Avg Rate of Penetration
 DGRCC.api              00 000 000 000:  DGR Comb Gamma Ray BCorr
 ALHSI.in               00 000 000 000:  ALD Hole Size Indicator
 ABR .ohmm              00 000 000 000:  At-Bit Resistivity
 AFXT.hr                00 000 000 000:  AFR Form Exp Time
 RM  .ohmm              00 000 000 000:  AFR Medium Avg Res
 RS  .ohmm              00 000 000 000:  AFR Shallow Avg Res
 RD  .ohmm              00 000 000 000:  AFR Deep Avg Res
 TNPL.pu                00 000 000 000:  CTN Porosity Limestone
 ALCDLC.g/cc            00 000 000 000:  ALD LCRB Comp Density
 ALDCLC.g/cc            00 000 000 000:  ALD LCRB Den Correction
 ALPELC.                00 000 000 000:  ALD LCRB Pe Factor
#Other Information
#
#WARRANTY: Halliburton will use its best efforts to furnish customers with 
#accurate information and interpretations that are part of, and incident to, the services 
#provided.  However, Halliburton cannot and does not warrant the accuracy 
#or correctness of such information and interpretations.  Under no circumstances should any 
#such information or interpretation be relied upon as the sole basis for any drilling, 
#completion, production, or financial decision or any procedure involving any risk to the 
#safety of any drilling venture, drilling rig or its crew or any other third party.  The 
#Customer has full responsibility for all drilling, completion and production operation.  
#Halliburton makes no representations or warranties, either expressed or 
#implied, including, but not limited to, the implied warranties of merchantability or fitness 
#for a particular purpose, with respect to the services rendered.  In no event will 
#Halliburton be liable for failure to obtain any particular results or for 
#any damages, including, but not limited to, indirect, special or consequential damages, 
#resulting from the use of any information or interpretation provided by Halliburton.
#
~A    DEPT      RPTVD      ROPA      DGRCC     ALHSI      ABR      AFXT        RM        RS         RD       TNPL     ALCDLC    ALDCLC    ALPELC   
# ...
   16400.0000 15265.3330   18.7622   28.0339    8.3750 1027.7928    3.3428   637.3641  120.2433  6335.4980    2.3612    2.8699   -0.0146    4.2799
   16400.5000 15265.8418   19.2117   28.8061    8.3750 1024.5002    3.3474   593.1346  122.1473  9910.1787    2.4159    2.8663   -0.0171    4.4334
   16401.0000 15266.3379   19.2360   26.8826    8.3750 1023.3719    3.3652   596.5755  126.1733 17696.4785    2.5389    2.8661   -0.0177    4.4693
   16401.5000 15266.8359   18.9093   24.5072    8.3750 1025.0278    3.3809   662.6099  130.6741 19783.4805    2.4460    2.8605   -0.0194    4.1673
   16402.0000 15267.3350   18.8117   24.8484    8.3750 1026.9438    3.3916   737.7047  134.4161 18703.0547    2.3252    2.8590   -0.0187    4.2651
   16402.5000 15267.8320   18.8342   27.5679    8.3750 1027.6257    3.4019   745.7023  130.8338 17622.6270    2.4168    2.8575   -0.0187    4.3053
   16403.0000 15268.3350   19.1274   24.6971    8.3750 1027.7378    3.4127   704.0760  123.6710 11810.6182    2.4372    2.8650   -0.0109    4.2660
   16403.5000 15268.8340   19.5930   24.2845    8.3750 1029.1693    3.4219   662.5294  119.1974  6068.3901    2.5584    2.8613   -0.0092    4.3195
   16404.0000 15269.3369   19.7779   24.8440    8.3750 1030.0339    3.4286   601.8328  115.3122  3876.8413    2.7533    2.8492   -0.0150    4.2978
   16404.5000 15269.8350   19.7710   24.5570    8.3750 1029.7933    3.4355   540.0994  113.0694  3024.3193    2.7881    2.8443   -0.0202    4.1805
   16405.0000 15270.3340   19.7533   23.1869    8.3750 1029.9979    3.4417   565.0815  126.9902  4181.1187    2.6283    2.8488   -0.0176    4.2603
   16405.5000 15270.8340   19.7514   22.5591    8.3750 1027.3074    3.4484   619.6243  148.0245 12118.4316    2.7102    2.8549   -0.0176    4.3187
   16406.0000 15271.3359   19.7851   24.1128    8.3750 1028.7087    3.4551   682.8732  169.8076 18758.7754    2.5688    2.8621   -0.0181    4.5050
   16406.5000 15271.8340   19.8007   23.4059    8.3750 1032.2534    3.4618   792.9524  199.5906 15834.5684    2.5890    2.8786   -0.0119    4.5914
   16407.0000 15272.3330   19.8050   21.8132    8.3750 1036.2120    3.4685   762.4743  188.5858 12910.3613    2.5588    2.8656   -0.0146    4.1306
   16407.5000 15272.8340   19.8150   28.9145    8.3750 1041.0931    3.4753   553.0250  139.9908  6362.3252    2.5602    2.8453   -0.0196    4.3815
   16408.0000 15273.3340   19.8022   31.5384    8.3750 1048.7361    3.4819   428.8110  108.9343  1925.3827    3.0240    2.8490   -0.0173    4.3845
   16408.5000 15273.8330   19.8027   24.8890    8.3750 1058.2146    3.4887   388.0478   92.2970  1296.7535    2.4911    2.8513   -0.0216    4.1361
   16409.0000 15274.3320   19.8117   21.3202    8.3750 1069.1450    3.4956   404.5703   89.0853  1256.5068    2.4294    2.8615   -0.0167    4.3498
   16409.5000 15274.8330   19.8106   20.5926    8.3750 1081.5338    3.5015   419.4136   89.1292  1241.6743    2.3144    2.8688   -0.0097    4.5707
   16410.0000 15275.3340   19.8048   20.4403    8.3750 1094.6102    3.5053   447.9944   94.4291  1437.4612    2.4474    2.8575   -0.0115    4.3707
   16410.5000 15275.8320   19.7948   25.8877    8.3750 1105.9403    3.5080   494.9431  107.6816  1952.2985    2.6116    2.8558   -0.0131    4.1257
   16411.0000 15276.3320   19.8242   29.6780    8.3750 1107.9230    3.5114   482.0696  120.9894  2098.5181    2.6425    2.8596   -0.0135    4.3095
   16411.5000 15276.8320   19.8104   22.8901    8.3750 1106.3190    3.5140   452.3360  131.0846  1920.3934    2.5149    2.8603   -0.0161    4.3236
   16412.0000 15277.3350   19.7844   18.2449    8.3750 1105.7664    3.5160   496.2495  148.4046  2467.3513    2.2826    2.8668   -0.0133    4.2756
   16412.5000 15277.8594   19.1075   19.8373    8.3750 1105.7867    3.5130   594.9623  169.1530  3807.3748    2.2845    2.8711   -0.0100    4.1968
   16413.0000 15278.2988   16.7394   20.8438    8.3750 1103.5406    3.5105   696.0064  180.7693  5333.5371    2.4136    2.8544   -0.0142    4.2243
   16413.5000 15278.8535   16.8801   21.7895    8.3754 1102.1567    3.5133   623.3848  159.9239  3331.3728    2.5892    2.8567   -0.0136    4.1472
   16414.0000 15279.3496   17.7868   20.5438    8.3799 1096.5924    3.5165   456.9303  133.9740  1552.3750    2.7393    2.8579   -0.0080    4.2756
   16414.5000 15279.7754   16.0431   21.2128    8.3756 1085.3787    3.5177   378.4844  118.8926  1017.4402    2.7602    2.8576   -0.0137    4.2586
   16415.0000 15280.3770   19.3217   21.1879    8.3750 1074.0004    3.5145   385.2588  116.1743   987.3838    2.6969    2.8548   -0.0200    4.3645
   16415.5000 15280.8867   19.3498   21.5796    8.3752 1071.0858    3.4998   401.2393  119.9338  1082.5159    2.6232    2.8607   -0.0130    4.3224
   16416.0000 15281.2285   13.8533   20.6769    8.3768 1067.1515    3.4850   350.7127  113.4694   999.0443    2.5985    2.8658   -0.0083    4.3849
   16416.5000 15281.9346   13.1711   22.5034    8.3761 1066.3287    3.4807   255.2881   94.0777   690.1282    2.8059    2.8612   -0.0099    4.2881
   16417.0000 15282.3379   12.4386   23.0399    8.3760 1069.4100    3.4412   177.3780   70.4996   424.6534    2.7281    2.8585   -0.0103    4.2066
   16417.5000 15282.7617    3.7143   23.5829    8.3750 1000.5956    3.2560   139.8651   55.3413   293.2474    2.5608    2.8506   -0.0151    4.3914
   16418.0000 15283.3281    6.9674   21.5251    8.3750  972.2322    3.0714   129.4057   47.3716   249.8394    2.4856    2.8494   -0.0186    4.2499
   16418.5000 15283.8389   17.6266   18.8831    8.3767  977.7153    3.0322   131.3794   43.3941   245.7776    2.8525    2.8686   -0.0108    4.4283
   16419.0000 15284.3721   16.6253   18.8412    8.3772  991.7784    3.0238   114.2660   36.7400   200.0803    3.0975    2.8700   -0.0129    4.2566
   16419.5000 15284.8340   12.9244   24.7956    8.3750 1016.0464    2.9920    86.7459   30.3799   139.5577    3.5014    2.8553   -0.0104    4.1789
   16420.0000 15285.3008    5.0985   33.4656    8.3750 1005.6787    2.9575    70.5505   28.0734   117.5297    4.0271    2.8416   -0.0115    4.2958
   16420.5000 15285.7949    0.5256   26.9397    8.3764  997.5836    2.9471    67.0945   27.5700   122.6688    3.9246    2.8456   -0.0131    4.4330
   16421.0000 15286.3154    9.3421   19.0964    8.3780 1004.2797    2.9456    69.9998   26.8768   130.0167    2.8567    2.8666   -0.0071    4.5187
   16421.5000 15286.8281   18.4565   20.3660    8.3782 1016.1131    2.9547    68.4171   25.2635   126.0213    2.6794    2.8697   -0.0046    4.4260
   16422.0000 15287.3262   19.8072   23.3038    8.3771 1033.7924    2.9660    61.9152   22.6763   112.6482    2.8144    2.8618   -0.0058    4.2168
   16422.5000 15287.8311   19.9036   24.1844    8.3750 1053.7573    2.9768    58.5462   21.4341   107.3009    3.0731    2.8525   -0.0092    4.3071
   16423.0000 15288.3311   19.4013   20.9765    8.3750 1060.0055    2.9868    60.1037   22.0625   112.6543    2.9571    2.8567   -0.0113    4.3779
   16423.5000 15288.8291   18.3817   20.3970    8.3760 1060.4315    2.9954    64.4421   24.1561   124.9950    2.6729    2.8671   -0.0063    4.5680
   16424.0000 15289.3232   17.6557   20.2936    8.3788 1061.5082    3.0036    58.7910   24.6448   120.8406    2.5397    2.8704   -0.0038    4.6546
   16424.5000 15289.8262   17.6244   22.0194    8.3755 1076.9189    3.0111    50.6586   23.8654   107.4066    2.6734    2.8568   -0.0128    4.3357
   16425.0000 15290.3252   17.8203   23.8582    8.3761 1092.1464    3.0129    50.7025   24.3691   107.9810    2.8049    2.8565   -0.0084    4.5189
   16425.5000 15290.8242   17.8741   22.4193    8.3796 1113.7356    3.0109    51.4561   23.0634   110.0962    2.7065    2.8654   -0.0055    4.3801
   16426.0000 15291.3271   17.9527   22.1898    8.3758 1163.4365    3.0086    45.3401   19.2000    95.2327    2.8726    2.8520   -0.0130    4.2685
   16426.5000 15291.8252   17.9250   20.6107    8.3752 1297.0303    3.0062    38.7523   16.2981    79.0805    3.1958    2.8617   -0.0107    4.4232
   16427.0000 15292.3242   17.8768   17.9140    8.3804 1364.9071    3.0038    34.5012   14.3690    68.2508    3.1470    2.8673   -0.0036    4.3561
