~Version Information
 VERS.                  2.0:   CWLS log ASCII Standard -VERSION 2.0
 WRAP.                   NO:   One line per depth step
~Well Information Block
#MNEM.UNIT     VALUE/NAME     DESCRIPTION
#---------     -----------    ---------------------------
 STRT.M              5223.0528: START DEPTH
 STOP.M              5536.2348: STOP DEPTH
 STEP.M                 0.1524: STEP DEPTH
 NULL.               -999.2500: NULL VALUE
 DFWT.                        :  DIST FWL TEXT
 DFST.                        :  DIST FSL TEXT
 DMF .             Drill Floor:  DRILL MEAS FROM
 STIM.      11.30.00 09-Jul-16:  START TIME
 DATE.      11.29.04 14-Aug-16:  END TIME
 SPUD.               17-Aug-15:  SPUD DATE
 NREF.                    Grid:  NORTH REFERENCE
 HPTY.       Minimum Curvature:  HOLE POS TYPE
 DMOD.             Drill Model:  DRILL MOD DESC
 SVYD.                  Survey:  SURVEY DESC
 ILTD.               Lithology:  INTERP LTH DESC
 FTOP.          Formation Tops:  FORM TOPS DESC
 WELL.              AF011-3D-1:  WELL NAME
 COMP.               TOTAL-ABK:  COMPANY
 SON .        AD-XX-0902156848:  JOB NUMBER
 GCDE.     Generic Lat/Long's, Degrees, -180 ==> +180:  GEO COORD DESC
 CCDE.     UTM Clarke 1880 (CM 51), Meters:  CART COORD DESC
 GGSY.                      LL:  GEO GRID SYS
 CGSY.               SS CLRK51:  CART GRID SYS
 GREF.     Ellipsoid World Geodetic System :  GEO REFERENCE
 CREF.     Ellipsoid Clarke - 1880:  CART REFERENCE
 MMDL.            bggm2016.dat:  MAGNETIC MODEL
 MMDD.            20 May, 2016:  MAG DATA DATE
 MDS .              Win MagUTM:  MAG DATA SOURCE
 LLGR.      Latitude/Longitude:  LLGROUP
 XYGR.     UTM Zones, Northern Hemisphere, Meters:  XYGROUP
 PDAT.          Mean Sea Level:  PERMANENT DATUM
 WTYP.                Deviated:  WELL TYPE
 BASE.               Abu Dhabi:  LOGGING EQUIPMENT BASE LOCATION
 REGN.     Middle East/North Africa:  REGION
 PROV.               Abu Dhabi:  PROVINCE
 STAT.               Abu Dhabi:  STATE NAME
 CTRY.     United Arab Emirates:  COUNTRY NAME
 FLD .         Abu Al Bukhoosh:  FIELD NAME
 SRVC.                  SAIPEM:  CONTRACTOR
 MWDS.                Musaffah:  MWD SHOP
 RIG .           Perro Negro 8:  RIG NAME
 CNTY.               Abu Dhabi:  COUNTY NAME
 DCON.             HALLIBURTON:  DIRECTNL CONTR
 UNIT.                    9804:  LOGGING EQUIPMENT ID
 DOE .        AD-XX-0902156848:  DOE NUMBER
 API .                        :  API NUMBER
 UWI .                        :  UNIQUE WELL IDENTIFIER
 LOC .                        :  LOCATION
 LMF .             Drill Floor:  LOG MEASURED FROM
 TVDS.m              43.899999:  TVDSS CORRECTN
 LATI.deg            25.504513:  LATITUDE
 LONG.deg            53.120396:  LONGITUDE
 WHNS.m               0.000000:  WELL HEAD N/S
 WHEW.m               0.000000:  WELL HEAD E/W
 UTMX.m          713123.300043:  UTM X
 UTMY.m         2822281.299893:  UTM Y
 DFWL.m               0.000000:  DISTANCE FWL
 DFSL.m               0.000000:  DISTANCE FSL
 SDEP.m            5253.990000:  START DEPTH
 TDD .m            5543.669658:  TOTAL DEPTH (DRILLER)
 VSDR.deg           249.940002:  VERT SEC DIRECT
 GVFD.g               1.000000:  GRAVITY FIELD
 MFLD.nT          43940.839844:  MAGNETIC FIELD
 MDIP.deg            39.918472:  MAGNETIC DIP
 MDEC.deg             2.250056:  MAGNETIC DECL
 GRDC.deg             0.913350:  GRID CORRECTION
 AZTC.deg             1.336706:  AZM TOTAL CORR
 EPD .m               0.000000:  ELEVATION
 EGL .m             -45.400001:  GROUND ELEVATION
 WDMS.m              45.400001:  WD ELEV
 APD .m              43.899999:  DEPTH ABOVE PD
 MMDE.m               0.000000:  MAGUTM CALC DEP
 CMER.deg            51.000000:  CENTRL MERIDIAN
 AGAP.m              23.099999:  AIR GAP
 EKB .m              43.899999:  KB ELEVATION
 EDF .m              43.899999:  DF ELEVATION
 VSC .                       0:  VS TO CLOSURE
 MAGU.                 1527179:  MAGUTM CHECKSUM
~Parameter Information Block
#MNEM.UNIT       Value        Description
#---------     -----------    ---------------------------
 AV  .mps             1.500000:  Ann Velocity 
 AVMX.mps             2.400000:  Max Ann Veloc 
 AZIF.deg           257.739990:  Azm, Final 
 BHAT.                 Turbine:  BHA Type 
 BROT.°/100'          0.000000:  Build Rotating 
 BS  .in              8.500000:  Bit Size 
 BSZ .in              8.500000:  Bit Size 
 BTPL.psig           43.511005:  Bit Press Loss 
 CABU.                      No:  Customer Abuse 
 TCS .hr            149.515671:  Time Ciculation Ended 
 CV  .mps             3.000000:  Crit Velocity 
 CVMX.mps             4.000000:  Max Crit Veloc 
 DD1 .            Ahmed Bayoud:  Direct Drillr 1 
 DD2 .        Hany Abdel Hafez:  Direct Drillr 2 
 DDSV.                 Turbine:  DD Service 
 DEFF.%              98.000000:  % Det Eff 
 DLRX.°/100'          0.000000:  Dogleg Rot Max 
 DLSO.°/100'          0.000000:  Dogleg Oriented 
 DLSX.°/100'          0.000000:  Dogleg Str Max 
 DRET.      12.28.32 23-Jun-16:  Drill End Time 
 DRST.      14.30.00 17-Jun-16:  Drill Start Tim 
 DTIM.hr            102.349998:  Time Drilling 
 EDEP.m            5254.000000:  End Depth 
 ENG1.         Ahmed Montasser:  Engineer 1 
 ENG2.              Do Dang Sa:  Engineer 2 
 ENG3.           Khaled Khalaf:  Engineer 3 
 ENG4.         Muhammad Mubeen:  Engineer 4 
 ETIM.      05.40.54 26-Jun-16:  End Time 
 FLOI.lpm          1800.000122:  Flow In 
 FLON.lpm          1500.000000:  Flow In Min 
 FLOS.lpm             0.000000:  Fluid Loss 
 FLOX.lpm          1800.000122:  Flow In Max 
 DFT .                   Other:  Mud Type 
 HFLO.                      No:  High Flow 
 HPRE.                      No:  High Pressure 
 HTEM.                      No:  High Temp 
 HYDO.m               1.400000:  Hydro Offset 
 IFIN.deg            10.460000:  Inc, Final 
 IMAX.deg            32.367214:  Inc Max 
 IMIN.deg            11.447388:  Inc Min 
 IMND.m            5236.799805:  Inc Min Depth 
 IMXD.m            4790.299805:  Inc Max Depth 
 JARR.                      No:  Jarring 
 LETM.      12.28.32 23-Jun-16:  Log End Time 
 LOST.hr                     0:  Lost Rig Time 
 LSTM.      14.30.00 17-Jun-16:  Log Start Time 
 MDCL.ppm         23000.000000:  Mud Chlorides 
 MDES.             Fresh Water:  Mud Desc 
 DFD .g/c3            1.170004:  Mud Density 
 MDMN.g/c3            1.160004:  Dens Mud Min 
 MDMX.g/c3            1.170004:  Dens Mud Max 
 PH  .pH              9.400000:  Mud pH 
 MOIL.                       0:  Run Mud Oil % 
 MOWR.                    1 91:  Run Mud OWR 
 MSND.                     0.1:  Run Mud Sand % 
 MSOL.                     6.2:  Run Mud Solids% 
 DFV .spl            73.000000:  Mud Viscosity 
 MWOD.in              6.750000:  MWD Tool OD 
 MWSI.                      No:  Serv Intrp, MWD 
 OTIM.hr            238.111023:  Time Operating 
 PMAX.psig         4000.000000:  Press Op, Max 
 PV  .mPsec          36.000000:  Mud PV 
 RMS .ohmm            0.299000:  Mud Resistivity 
 RMCS.ohmm            0.397000:  Mud Cake Resistivity 
 MCST.degC           35.000000:  Mud Cake Sample Temperature 
 RMFS.ohmm            0.200000:  Mud Filtrate Resistivity 
 RMFT.degC           35.000000:  Mud Filtrate Sample Temperature 
 RMMT.ohmm            0.118100:  Rm @ Max Temp 
 MST .degC           35.000000:  Mud Sample Temperature 
 RUN .                    3300:  Run Number 
 ROPA.m/hr            4.450000:  ROP Avg 
 ROPN.m/hr            2.000000:  ROP Min 
 ROPX.m/hr            7.000000:  ROP Max 
 RPMA.rpm            78.000000:  RPM Surface Avg 
 RPMN.rpm            35.000000:  RPM Surface Min 
 RPMX.rpm            80.000000:  RPM Surface Max 
 RRUN.                    3300:  Rig Run Number 
 RTIM.hr              7.150000:  Time Reaming 
 SAZI.deg           249.699997:  Azm, Start 
 SDEP.m            4799.000000:  Start Depth 
 SIDD.                      No:  Serv Intrp, DD 
 SINC.deg            30.049999:  Inc, Start 
 SPPA.psig         4543.999023:  SPP Avg 
 SPPN.psig         4264.078613:  SPP Min 
 SPPX.psig         4641.173828:  SPP Max 
 STIM.      09.00.00 16-Jun-16:  Start Time 
 SVCS.                 DD, MWD:  Services 
 SVER.                8.300000:  Sperry Version 
 TDAT.m             455.000000:  Tot Depth Attmp 
 TDDF.                      No:  Trip for DD 
 TDLG.m             455.000000:  Tot Depth Loggd 
 TFF .                      No:  Trip for Fail 
 TQAA.f-p         37070.000000:  Torque Abs Avg 
 TQAN.f-p         35000.000000:  Torque Abs Min 
 TQAX.f-p         39000.000000:  Torque Abs Max 
 TRRT.°/100'          0.000000:  Turn Rotating 
 MRT .                     PWD:  Maximum Recorded Temperature 
 TTMX.degC          121.568352:  Max Tool Temp 
 VS01.     AD90473258H2V5WGV2COXF1(6):  Virtual Str1 SN 
 WBMN.klb             4.409245:  WOB Min 
 WITN.           Roger Butters:  Customer Rep 
 WOBA.klb             9.788525:  WOB Avg 
 WOBX.klb            13.227736:  WOB Max 
 YP  .pa             43.000000:  Yield Point 
~Curve Information Block
#MNEM.UNIT                 API CODE     Curve Description
#---------               -----------    ---------------------------
 DEPT.M                 00 000 000 000:  Depth
 DGRCC.api              00 000 000 000:  DGR Comb Gamma Ray BCorr
 ALHSI.in               00 000 000 000:  ALD Hole Size Indicator
 ABR .ohmm              00 000 000 000:  At-Bit Resistivity
 AFRSA.ohmm             00 000 000 000:  AFR Shallow Avg Res
 AFRMA.ohmm             00 000 000 000:  AFR Medium Avg Res
 AFRDA.ohmm             00 000 000 000:  AFR Deep Avg Res
 AFXT.hr                00 000 000 000:  AFR Form Exp Time
 ALCDLC.g/c3            00 000 000 000:  ALD LCRB Comp Density
 ALPELC.NONE            00 000 000 000:  ALD LCRB Pe Factor
 ALDCLC.g/c3            00 000 000 000:  ALD LCRB Den Correction
 TNPL.pu                00 000 000 000:  CTN Porosity Limestone
 DTC .uspf              00 000 000 000:  BAT DTC
 DTRS.uspf              00 000 000 000:  BAT Refracted Shear
 VPVS.NONE              00 000 000 000:  BAT VP/VS
#Other Information
#
#WARRANTY: Halliburton will use its best efforts to furnish customers with 
#accurate information and interpretations that are part of, and incident to, the services 
#provided.  However, Halliburton cannot and does not warrant the accuracy 
#or correctness of such information and interpretations.  Under no circumstances should any 
#such information or interpretation be relied upon as the sole basis for any drilling, 
#completion, production, or financial decision or any procedure involving any risk to the 
#safety of any drilling venture, drilling rig or its crew or any other third party.  The 
#Customer has full responsibility for all drilling, completion and production operation.  
#Halliburton makes no representations or warranties, either expressed or 
#implied, including, but not limited to, the implied warranties of merchantability or fitness 
#for a particular purpose, with respect to the services rendered.  In no event will 
#Halliburton be liable for failure to obtain any particular results or for 
#any damages, including, but not limited to, indirect, special or consequential damages, 
#resulting from the use of any information or interpretation provided by Halliburton.
#
~A   DEPT      DGRCC     ALHSI      ABR      AFRSA     AFRMA     AFRDA     AFXT     ALCDLC    ALPELC    ALDCLC     TNPL       DTC      DTRS      VPVS    
# ...
   5311.9020   74.5440    6.9959   11.6094   22.9471   29.9464   31.4651   31.2896    2.7224    7.5481    0.2072   16.4831   59.9331  140.1105    2.3449
   5312.0544   80.7772    7.0842   11.5130   24.1243   26.7986   28.3771   31.2992    2.6323    7.7930    0.1650   18.7330   62.6010  128.3781    2.0597
   5312.2068   90.2372    6.7762   11.4902   20.3761   20.5486   22.0198   31.3088    2.5405    7.3017    0.1076   25.1361   66.0313  122.4839    1.8580
   5312.3592   96.2902    6.6846   11.4908   18.8647   17.7655   19.2276   31.3185    2.5646    7.2814    0.1052   24.2617   66.9289  114.6551    1.7132
   5312.5116   98.1579    6.4367   11.4597   20.9258   19.1420   20.4370   31.3284    2.5815    6.5184    0.0727   24.6959   66.5833  112.6110    1.6914
   5312.6640  101.5239    6.1086   11.3908   23.1784   21.3121   22.0317   31.3387    2.5867    5.5239    0.0284   25.1502   66.4310  111.6934    1.6817
   5312.8164  101.8196    5.9612   11.3171   25.7296   23.8519   24.0757   31.3494    2.6019    5.4680    0.0289   23.3625   65.6476  106.6568    1.6253
   5312.9688   98.4614    5.9094   11.3143   28.4894   26.5742   26.7161   31.3602    2.6231    5.1786    0.0251   20.8447   63.8998  106.0921    1.6609
   5313.1212   94.1257    5.9425   11.4154   30.5128   28.4734   28.9923   31.3710    2.6498    5.0701    0.0280   20.4965   62.9427  105.1552    1.6707
   5313.2736   97.3311    6.0342   11.5328   32.0694   29.9002   30.7602   31.3815    2.6623    5.0745    0.0266   20.1474   62.5093  105.6820    1.6907
   5313.4260  103.2328    6.0541   11.7390   32.2225   30.1096   30.8178   31.3918    2.6696    5.3838    0.0502   20.9585   62.0558  105.4537    1.6995
   5313.5784  108.7283    6.1530   12.1023   30.4910   28.4416   28.6437   31.4023    2.6696    5.8652    0.0748   22.8057   62.4699  105.9313    1.6958
   5313.7308  113.3512    6.2611   12.5827   28.7854   26.6762   26.4222   31.4127    2.6636    6.3630    0.0899   24.8012   63.7400  107.6809    1.6894
   5313.8832  115.1833    6.2978   13.0530   27.1620   24.9111   24.4730   31.4231    2.6469    6.5768    0.0838   25.5430   64.6140  108.2271    1.6751
   5314.0356  110.6392    6.2111   13.4595   25.8140   23.3060   22.9916   31.4336    2.6286    6.3708    0.0643   24.8425   64.6631  106.3779    1.6451
   5314.1880  107.9181    6.0397   13.8082   24.8876   22.3303   22.2675   31.4442    2.6115    6.0374    0.0448   23.9103   63.5248  103.6083    1.6312
   5314.3404   99.8488    5.9893   14.1715   26.0752   23.8383   24.1129   31.4566    2.6306    5.8432    0.0440   21.4974   61.7513  101.1832    1.6389
   5314.4928   85.3520    6.0966   14.5688   29.7034   28.4223   29.2471   31.4719    2.6682    5.7575    0.0619   18.9074   61.4864   99.4677    1.6182
   5314.6452   79.4824    6.3255   14.9382   34.1688   34.7421   35.9935   31.4851    2.6826    6.1515    0.0920   19.3818   61.6537  100.0389    1.6241
   5314.7976   93.4670    6.5540   15.2701   36.6021   38.4322   40.0299   31.4972    2.6690    6.5319    0.1018   22.4222   60.8484  108.8396    1.7905
   5314.9500  108.2439    6.5984   15.5389   31.8898   32.6951   34.6429   31.5091    2.6290    6.5632    0.0780   23.5087   62.2500  116.8548    1.8768
   5315.1024  118.6117    6.5492   15.7052   23.1685   22.8849   24.3194   31.5207    2.6001    6.3760    0.0523   26.9664   64.8884  122.5300    1.8888
   5315.2548  123.3989    6.4636   15.7459   18.2852   17.8604   18.7650   31.5331    2.6043    6.2215    0.0389   29.4699   66.5760  122.0850    1.8343
   5315.4072  121.8025    6.4892   15.5298   16.7933   16.6914   17.1605   31.5491    2.6377    6.7737    0.0706   30.6289   66.9806  117.4774    1.7540
   5315.5596  126.8754    6.6182   15.1675   15.3329   15.4342   15.5661   31.5835    2.6557    7.1051    0.0971   30.3449   66.5680  115.1447    1.7299
   5315.7120  122.8465    6.6081   14.8069   13.8361   13.8901   14.0195   31.6571    2.6289    7.1092    0.0863   30.7527   66.5279  117.7743    1.7710
   5315.8644  122.0638    6.6936   14.4862   13.3879   13.6048   13.8170   31.7387    2.6201    7.4271    0.1072   31.3498   65.8878  124.7981    1.8951
   5316.0168  121.3722    6.8300   14.1839   13.3878   14.0678   14.3050   31.7654    2.6388    6.8299    0.0906   30.0390   65.6942  129.8083    1.9765
   5316.1692  117.8354    7.0511   13.8909   13.0992   14.2171   14.5312   31.7773    2.6480    7.2322    0.1167   33.0578   66.9176  131.8416    1.9711
   5316.3216  120.6843    7.2578   13.6494   12.4785   13.7525   14.2748   31.7881    2.6319    7.5914    0.1277   33.4607   68.8295  132.1502    1.9238
   5316.4740  120.2966    7.3878   13.4972   11.8410   12.9028   13.6739   31.7991    2.6189    7.3925    0.1268   34.4889   73.1203  130.6710    1.7914
   5316.6264  120.4320    6.9374   13.3931   11.6956   12.2531   13.0998   31.8099    2.5623    6.8665    0.0752   35.8710   75.8285  125.4716    1.6572
   5316.7788  119.5691    6.3659   13.3059   12.1584   12.4144   13.1150   31.8212    2.5180    6.1111    0.0353   36.0800   74.2224  121.7239    1.6446
   5316.9312  119.6110    6.3392   13.3099   13.0566   13.3851   13.8386   31.8364    2.5731    6.0827    0.0689   35.3508   69.9407  120.7362    1.7306
   5317.0836  114.1635    6.3869   13.3044   14.0274   14.4289   14.7517   31.8572    2.5878    6.1373    0.0816   38.3997   67.6343  119.7864    1.7720
   5317.2360  109.1148    6.4009   13.3523   14.7058   14.9805   15.2150   31.8709    2.5850    5.9024    0.0656   35.3427   67.2490  120.0355    1.7851
   5317.3884  108.4413    6.3753   13.4691   15.0780   14.9130   15.1759   31.8820    2.5817    5.8554    0.0589   36.1059   67.1226  120.1902    1.7906
   5317.5408  107.0913    6.2827   13.6084   15.6980   15.0368   15.3343   31.8926    2.5940    5.9948    0.0685   35.6839   66.9863  119.1939    1.7793
   5317.6932  102.6967    6.2778   13.7136   17.4365   16.2602   16.6482   31.9035    2.5967    6.1358    0.0745   35.1771   66.5899  116.7525    1.7531
   5317.8456  104.9611    6.2877   13.8315   21.3420   19.5267   20.0660   31.9144    2.6040    6.1238    0.0696   32.5168   65.6820  112.7051    1.7158
   5317.9980  103.8522    6.1921   13.9716   27.2596   24.4961   25.1799   31.9249    2.5950    5.5435    0.0531   30.8839   64.6020  109.8101    1.6997
   5318.1504   98.0052    6.1741   14.1438   31.3321   27.2405   28.0528   31.9358    2.6032    5.3293    0.0566   29.2089   63.1506  106.5630    1.6869
   5318.3028   93.1167    6.2248   14.3774   34.6631   28.9142   30.0877   31.9468    2.6175    5.8531    0.0705   26.8431   60.5750  101.3900    1.6748
   5318.4552   90.7047    5.9087   14.6533   52.6238   45.9369   46.1611   31.9574    2.5799    5.1159    0.0016   24.9537   57.5160   99.5690    1.7332
   5318.6076   97.6541    5.8229   14.7635   82.2843   77.5167   73.1068   31.9681    2.6119    4.5895   -0.0104   21.8431   56.0747  100.9613    1.8010
   5318.7600   81.9942    5.9878   14.6369   57.8765   50.9120   48.7383   31.9790    2.6790    4.9526    0.0396   24.6254   56.8207  104.8669    1.8439
   5318.9124   68.5300    6.4096   14.4433   28.8953   24.4537   23.9288   31.9900    2.7134    6.3155    0.1146   25.2978   60.0846  116.3791    1.9359
   5319.0648   81.3038    6.6099   14.2306   18.1948   15.5063   15.5436   32.0004    2.6652    6.7550    0.1109   18.9911   64.5924  121.4175    1.8828
   5319.2172  100.2801    6.7865   14.0444   16.4409   14.7864   14.8166   32.0113    2.6316    6.6517    0.0934   20.7828   67.3831  122.9715    1.8260
   5319.3696  111.4044    6.7727   13.9543   15.3790   14.4816   14.6008   32.0223    2.6236    6.3724    0.0808   26.4207   68.5001  125.8530    1.8373
   5319.5220  116.8678    6.6592   13.9615   14.1871   13.7949   14.0000   32.0331    2.5979    6.6978    0.0837   30.8215   69.1667  126.5643    1.8299
   5319.6744  123.5634    6.6725   13.8691   13.2785   13.2467   13.4837   32.0436    2.5966    6.8137    0.1049   36.6348   69.8503  126.4912    1.8111
   5319.8268  122.3373    6.6656   13.7249   12.6786   12.9491   13.1829   32.0546    2.5940    6.8358    0.1114   37.5832   70.2283  124.0872    1.7671
