~Version Information
 VERS.                  2.0:   CWLS log ASCII Standard -VERSION 2.0
 WRAP.                   NO:   One line per depth step
~Well Information Block
#MNEM.UNIT     VALUE/NAME     DESCRIPTION
#---------     -----------    ---------------------------
 STRT.F             10112.0000: START DEPTH
 STOP.F             11135.0000: STOP DEPTH
 STEP.F                 0.5000: STEP DEPTH
 NULL.               -999.2500: NULL VALUE
 UNIT.                12318515:  LOGGING EQUIPMENT ID
 CNTY.             HAIR DALMAH:  COUNTY NAME
 JOBN.        AD-XX-0905995035:  JOB TICKET NUMB
 FLD .             HAIR DALMAH:  FIELD NAME
 PDAT.          Mean Sea Level:  PERMANENT DATUM
 RIG .                     PN8:  RIG NAME
 MWDS.                    ICAD:  MWD SHOP
 CTRY.     United Arab Emirates:  COUNTRY NAME
 REGN.     Middle East/North Africa:  REGION
 BASE.               Abu Dhabi:  LOGGING EQUIPMENT BASE LOCATION
 WTYP.                Deviated:  WELL TYPE
 XYGR.     UTM Zones, Northern Hemisphere, Meters:  XYGROUP
 LLGR.      Latitude/Longitude:  LLGROUP
 MDS .              Win MagUTM:  MAG DATA SOURCE
 MMDD.       05 December, 2019:  MAG DATA DATE
 MMDL.            bggm2019.dat:  MAGNETIC MODEL
 CREF.     Ellipsoid Clarke - 1880:  CART REFERENCE
 GREF.     Ellipsoid World Geodetic System :  GEO REFERENCE
 CGSY.               SS CLRK51:  CART GRID SYS
 GGSY.                      LL:  GEO GRID SYS
 CCDE.     UTM Clarke 1880 (CM 51), Meters:  CART COORD DESC
 GCDE.     Generic Lat/Long's, Degrees, -180 ==> +180:  GEO COORD DESC
 SON .        AD-XX-0905995035:  JOB NUMBER
 COMP.          ADNOC Offshore:  COMPANY
 WELL.               HD011-02D:  WELL NAME
 FTOP.          Formation Tops:  FORM TOPS DESC
 ILTD.               Lithology:  INTERP LTH DESC
 SVYD.                  Survey:  SURVEY DESC
 DMOD.             Drill Model:  DRILL MOD DESC
 HPTY.       Minimum Curvature:  HOLE POS TYPE
 NREF.                    Grid:  NORTH REFERENCE
 SPUD.               17-Feb-20:  SPUD DATE
 DATE.      06.00.00 09-Apr-20:  END TIME
 STIM.      11.40.00 06-Apr-20:  START TIME
 DMF .             Drill Floor:  DRILL MEAS FROM
 DFST.                        :  DIST FSL TEXT
 DFWT.                        :  DIST FWL TEXT
 PROV.               Abu Dhabi:  PROVINCE
 STAT.               Abu Dhabi:  STATE NAME
 API .                        :  API NUMBER
 SRVC.             Halliburton:  SERVICE COMPANY
 UWI .                        :  UNIQUE WELL IDENTIFIER
 LOC .                        :  LOCATION
 LMF .             Drill Floor:  LOG MEASURED FROM
 DEP .ft              0.000000:  DEPTH
 AGAP.ft            118.000000:  AIR GAP
 CMER.deg            51.000000:  CENTRL MERIDIAN
 MMDE.ft              0.000000:  MAGUTM CALC DEP
 APD .ft            118.000000:  DEPTH ABOVE PD
 WDMS.ft             65.000000:  WD ELEV
 EGL .ft              0.000000:  GROUND ELEVATION
 EPD .ft              0.000000:  ELEVATION
 AZTC.deg             1.750428:  AZM TOTAL CORR
 GRDC.deg             0.592532:  GRID CORRECTION
 MDEC.deg             2.342959:  MAGNETIC DECL
 MDIP.deg            38.394272:  MAGNETIC DIP
 MFLD.nT          43612.476563:  MAGNETIC FIELD
 GVFD.g               1.000000:  GRAVITY FIELD
 VSDR.deg            91.860001:  VERT SEC DIRECT
 TDD .ft          11135.000000:  TOTAL DEPTH (DRILLER)
 SDEP.ft          10171.000000:  START DEPTH
 DFSL.ft              0.000000:  DISTANCE FSL
 DFWL.ft              0.000000:  DISTANCE FWL
 UTMY.m         2710911.810000:  UTM Y
 UTMX.m          644702.250000:  UTM X
 WHEW.ft              0.000000:  WELL HEAD E/W
 WHNS.ft              0.000000:  WELL HEAD N/S
 LONG.deg            52.428197:  LONGITUDE
 LATI.deg            24.507246:  LATITUDE
 TVDS.ft            118.000000:  TVDSS CORRECTN
 EKB .ft            118.000000:  KB ELEVATION
 EDF .ft            118.000000:  DF ELEVATION
 MAGU.                 1512580:  MAGUTM CHECKSUM
 VSC .                       0:  VS TO CLOSURE
~Parameter Information Block
#MNEM.UNIT       Value        Description
#---------     -----------    ---------------------------
 AV  .fpm             1.000000:  Ann Velocity 
 AVMX.fpm             1.000000:  Max Ann Veloc 
 AZIF.deg            83.830002:  Azm, Final 
 BHAT.               Mud Motor:  BHA Type 
 BS  .in             14.500000:  Bit Size 
 BSZ .in             14.500000:  Bit Size 
 BTPL.psig            1.000000:  Bit Press Loss 
 CABU.                      No:  Customer Abuse 
 CGEO.             Carey Mills:  Customer Geo 
 COMM.                     t i:  Run Comments 1 
 TCS .hr             83.600342:  Time Ciculation Ended 
 CV  .fpm             1.000000:  Crit Velocity 
 CVMX.fpm             1.000000:  Max Crit Veloc 
 DD1 .          Devinder Kumar:  Direct Drillr 1 
 DD2 .     Mohamed Gayed Barakat:  Direct Drillr 2 
 DDSV.               Mud Motor:  DD Service 
 DEFF.%              90.000000:  % Det Eff 
 DRET.      06.15.00 04-Apr-20:  Drill End Time 
 DRST.      13.57.20 31-Mar-20:  Drill Start Tim 
 DTIM.hr             56.449772:  Time Drilling 
 EDEP.ft          10171.000000:  End Depth 
 ENG1.           Denis Sobolev:  Engineer 1 
 ENG2.            Imad Youssef:  Engineer 2 
 ETIM.      23.30.00 06-Apr-20:  End Time 
 FLOI.gpm           999.999939:  Flow In 
 FLON.gpm           964.999939:  Flow In Min 
 FLOS.mptm            2.600000:  Fluid Loss 
 FLOX.gpm          1100.000000:  Flow In Max 
 DFT .                 Polymer:  Mud Type 
 HFLO.                      No:  High Flow 
 HPRE.                      No:  High Pressure 
 HTEM.                      No:  High Temp 
 HYDO.ft              0.000000:  Hydro Offset 
 IFIN.deg            26.030001:  Inc, Final 
 IMAX.deg            26.559999:  Inc Max 
 IMIN.deg            24.139999:  Inc Min 
 IMND.ft           9477.000000:  Inc Min Depth 
 IMXD.ft           9942.000000:  Inc Max Depth 
 JARR.                      No:  Jarring 
 LETM.      23.30.00 06-Apr-20:  Log End Time 
 LOST.hr                     0:  Lost Rig Time 
 LSTM.      13.57.20 31-Mar-20:  Log Start Time 
 MDCL.ppm        150000.000000:  Mud Chlorides 
 MDES.             Fresh Water:  Mud Desc 
 DFD .ppg            12.000000:  Mud Density 
 MDMN.ppg            12.000000:  Dens Mud Min 
 MDMX.ppg            12.000000:  Dens Mud Max 
 PH  .pH             10.300000:  Mud pH 
 MOIL.                      19:  Run Mud Oil % 
 MOWR.                   19 81:  Run Mud OWR 
 MSND.                       0:  Run Mud Sand % 
 MSOL.                      19:  Run Mud Solids% 
 MTV .                GeoForce:  Motor Variant 
 DFV .spqt           51.000000:  Mud Viscosity 
 MWOD.in              8.150000:  MWD Tool OD 
 MWSI.                      No:  Serv Intrp, MWD 
 OTIM.hr            106.542305:  Time Operating 
 PMAX.psig         6850.255859:  Press Op, Max 
 PV  .cP             21.000000:  Mud PV 
 RMS .ohmm            0.039000:  Mud Resistivity 
 RMCS.ohmm            0.059000:  Mud Cake Resistivity 
 MCST.degF           80.000000:  Mud Cake Sample Temperature 
 RMFS.ohmm            0.030000:  Mud Filtrate Resistivity 
 RMFT.degF           80.000000:  Mud Filtrate Sample Temperature 
 RMMT.ohmm            0.018000:  Rm @ Max Temp 
 MST .degF           80.000000:  Mud Sample Temperature 
 RUN .                    2300:  Run Number 
 RRUN.                    2300:  Rig Run Number 
 SAZI.deg           101.400002:  Azm, Start 
 SDEP.ft           9467.000000:  Start Depth 
 SIDD.                      No:  Serv Intrp, DD 
 SINC.deg            24.139999:  Inc, Start 
 STIM.      13.57.20 31-Mar-20:  Start Time 
 SVER.                9.200000:  Sperry Version 
 TDAT.ft            704.000000:  Tot Depth Attmp 
 TDDF.                      No:  Trip for DD 
 TDLG.ft            704.000000:  Tot Depth Loggd 
 TFF .                      No:  Trip for Fail 
 MRT .                     PWD:  Maximum Recorded Temperature 
 TTMX.degF          181.000000:  Max Tool Temp 
 VS01.           F1(8)90603244:  Virtual Str1 SN 
 VS02.     H2V5WGV2R(8)90604159:  Virtual Str2 SN 
 WITN.     Mohamed Sharaf el Din:  Customer Rep 
 YP  .lhf2           29.000000:  Yield Point 
~Curve Information Block
#MNEM.UNIT                 API CODE     Curve Description
#---------               -----------    ---------------------------
 DEPT.F                 00 000 000 000:  Depth
 RPTVD.ft               00 000 000 000:  ROP True Vertical Depth
 ROPA.fph               00 000 000 000:  Avg Rate of Penetration
 DGRCC.api              00 000 000 000:  DGR Comb Gamma Ray BCorr
 EWXT.hr                00 000 000 000:  EWR Formation Exp Time
 R15P.ohmm              00 000 000 000:  EWR Shallow Phase Res
 R15A.ohmm              00 000 000 000:  EWR Shallow Atten Res
 R27P.ohmm              00 000 000 000:  EWR Medium Phase Res
 R27A.ohmm              00 000 000 000:  EWR Medium Atten Res
 R39P.ohmm              00 000 000 000:  EWR Deep Phase Res
 R39A.ohmm              00 000 000 000:  EWR Deep Atten Res
 ABR .ohmm              00 000 000 000:  At-Bit Resistivity
 AFRSA.ohmm             00 000 000 000:  AFR Shallow Avg Res
 AFRDA.ohmm             00 000 000 000:  AFR Deep Avg Res
 AFXT.hr                00 000 000 000:  AFR Form Exp Time
#Other Information
#
#WARRANTY: Halliburton will use its best efforts to furnish customers with 
#accurate information and interpretations that are part of, and incident to, the services 
#provided.  However, Halliburton cannot and does not warrant the accuracy 
#or correctness of such information and interpretations.  Under no circumstances should any 
#such information or interpretation be relied upon as the sole basis for any drilling, 
#completion, production, or financial decision or any procedure involving any risk to the 
#safety of any drilling venture, drilling rig or its crew or any other third party.  The 
#Customer has full responsibility for all drilling, completion and production operation.  
#Halliburton makes no representations or warranties, either expressed or 
#implied, including, but not limited to, the implied warranties of merchantability or fitness 
#for a particular purpose, with respect to the services rendered.  In no event will 
#Halliburton be liable for failure to obtain any particular results or for 
#any damages, including, but not limited to, indirect, special or consequential damages, 
#resulting from the use of any information or interpretation provided by Halliburton.
#
~A    DEPT      RPTVD      ROPA      DGRCC     EWXT      R15P      R15A      R27P      R27A      R39P      R39A       ABR       AFRSA      AFRDA      AFXT    
# ...
   10698.5000  9733.9219   36.6270   12.4301    2.1133   46.1425   14.6609  283.4684  200.0000 2000.0000  200.0000   447.8623   172.2411   280.1782    1.8320
   10699.0000  9734.3555   38.6408   11.1388    2.1085   49.5748   13.1838  232.5082  200.0000 2000.0000  200.0000   438.7097   145.2780   250.1474    1.8334
   10699.5000  9734.7910   38.1151   10.2680    2.1029   55.0883   10.8681  385.1104  200.0000 2000.0000  200.0000   430.3911   125.7523   227.2822    1.8348
   10700.0000  9735.2266   38.3160   11.6153    2.0985   42.9746   11.5941  226.3615  200.0000 2000.0000  200.0000   423.5555   114.0859   207.0054    1.8362
   10700.5000  9735.6563   39.0093   11.3443    2.0951   37.1114   13.4437  156.2908  200.0000 2000.0000  200.0000   417.9529   115.7474   204.8841    1.8378
   10701.0000  9736.0977   39.2767    9.6710    2.0911   42.3811   14.4437  222.6839  200.0000 2000.0000  200.0000   413.2602   130.8768   230.0470    1.8396
   10701.5000  9736.5264   40.2893    9.6272    2.0876   46.6700   12.1889  478.5645  200.0000 2000.0000  200.0000   409.5864   150.9136   267.1949    1.8418
   10702.0000  9736.9668   41.4170   10.3733    2.0843   53.0511   13.9815  232.0183  200.0000 2000.0000  200.0000   406.5298   165.1855   289.4468    1.8442
   10702.5000  9737.4023   41.6974   11.4917    2.0812   55.4626   13.4876  264.8347  200.0000 2000.0000  200.0000   403.4050   166.3667   282.7757    1.8464
   10703.0000  9737.8320   41.7279   10.0473    2.0780   52.9307   11.8533  615.3067  200.0000 2000.0000  200.0000   400.3500   158.9538   256.7033    1.8475
   10703.5000  9738.2773   41.5914    9.9424    2.0745   71.9412   11.4511  344.4867  200.0000 2000.0000  200.0000   397.5617   170.7188   267.7971    1.8480
   10704.0000  9738.7129   40.3566    8.9995    2.0708   54.3527   14.2962  268.5405  200.0000 2000.0000  200.0000   394.9706   208.3057   340.5032    1.8483
   10704.5000  9739.1299   37.6390   10.1887    2.0662   57.3823   14.6605  407.3488  200.0000 2000.0000  200.0000   393.4546   244.1930   422.4370    1.8474
   10705.0000  9739.5771   37.2247   10.5668    2.0615   76.4893   13.7688  350.0445  200.0000 2000.0000  200.0000   392.6548   255.3288   437.6659    1.8467
   10705.5000  9740.0166   38.9784   12.8598    2.0573   75.1576   11.7841  249.3959  200.0000 2000.0000  200.0000   393.2283   266.9965   446.9435    1.8461
   10706.0000  9740.4531   39.0978   10.3601    2.0531   56.5955   12.5912  199.3061  200.0000 2000.0000  200.0000   395.1297   273.6122   442.0946    1.8445
   10706.5000  9740.8848   38.0678    9.4655    2.0480   58.5621   13.9011  337.9648  200.0000 2000.0000  200.0000   397.5946   265.1641   414.7950    1.8416
   10707.0000  9741.3184   35.9182   10.3807    2.0428   61.7676   15.7022  181.4738  200.0000 2000.0000  200.0000   399.5864   260.6164   418.8147    1.8371
   10707.5000  9741.7432   34.6223   11.5936    2.0373   69.8741   14.3577  213.2018  200.0000 2000.0000  200.0000   401.4849   269.6963   449.9597    1.8312
   10708.0000  9742.1816   34.4936   13.9553    2.0316   56.1087   13.7757  180.2910  200.0000 2000.0000  200.0000   403.6232   268.9224   442.8340    1.8250
   10708.5000  9742.6191   34.5596   17.1107    2.0259   55.4973   13.0990  146.7597  200.0000 2000.0000  200.0000   406.9506   252.5448   403.9983    1.8186
   10709.0000  9743.0508   34.5202   12.1175    2.0203   37.1208   11.7465  146.4919  200.0000 2000.0000  200.0000   410.7585   234.6782   381.4972    1.8121
   10709.5000  9743.4912   34.5529   13.7393    2.0145   47.7971   11.5019  578.4044  200.0000 2000.0000  200.0000   411.8474   220.2332   389.7766    1.8055
   10710.0000  9743.9238   34.4903   14.6844    2.0089   54.2125   12.3014 1089.1342  200.0000 2000.0000  200.0000   409.1308   201.7652   385.2590    1.7988
   10710.5000  9744.3564   34.4922   11.0980    2.0041   53.4890   12.1475 1669.5032  200.0000 2000.0000  200.0000   404.1273   163.9385   307.0154    1.7922
   10711.0000  9744.7959   34.5230   11.5495    1.9986   61.9286   14.5245  473.0717  200.0000 2000.0000  200.0000   397.6566   118.0025   220.8181    1.7856
   10711.5000  9745.2373   34.5454   10.3062    1.9935   51.3576   12.4975  404.1794  200.0000 2000.0000  200.0000   389.2581    91.9763   187.1333    1.7789
   10712.0000  9745.6592   34.5599   10.6439    1.9880   36.5390   10.3023  449.1078  200.0000 2000.0000  200.0000   381.4812    84.9476   186.1214    1.7725
   10712.5000  9746.0977   34.5535   10.9396    1.9862   63.2792   10.7988 1656.6628  200.0000 2000.0000  200.0000   375.1621    85.9899   187.3956    1.7674
   10713.0000  9746.5293   34.5240   10.8027    1.9834   43.4842   11.9862 1539.2313  200.0000 2000.0000  200.0000   369.0109    91.1464   191.0608    1.7617
   10713.5000  9746.9736   34.5692   10.6036    1.9801   44.6086   12.5925  982.2599  200.0000 2000.0000  200.0000   362.7742   100.4075   206.5082    1.7558
   10714.0000  9747.3984   34.5757   10.5275    1.9768   47.4033   10.5776 1410.6791  200.0000 2000.0000  200.0000   357.8958   117.1847   246.4825    1.7500
   10714.5000  9747.8359   34.5504   11.8846    1.9737   61.2592   10.1585  978.3088  200.0000 2000.0000  200.0000   354.2925   130.6402   275.4426    1.7443
   10715.0000  9748.2754   34.5000   10.5021    1.9703   52.8968   12.2962  488.7995  200.0000 2000.0000  200.0000   352.8457   105.5800   196.4205    1.7387
   10715.5000  9748.7314   34.2559    9.6348    1.9664   42.6865   11.9555  575.5602  200.0000 2000.0000  200.0000   352.5397    85.7327   142.2418    1.7329
   10716.0000  9749.1553   31.5321    8.6638    1.9619   46.3900   11.5493  706.5670  200.0000 2000.0000  200.0000   352.9870    92.0118   149.4622    1.7264
   10716.5000  9749.5625   29.2303   11.0998    1.9540   57.1807   10.2958 1409.1697  200.0000 2000.0000  200.0000   354.7936   106.5075   191.0028    1.7168
   10717.0000  9750.0615   28.8576   10.8120    1.9447   54.7925   10.0181 1340.4589  200.0000 2000.0000  200.0000   356.8082   121.4760   252.2171    1.7057
   10717.5000  9750.4434   25.8925   12.0783    1.9325   45.8013    9.8875  670.8872  200.0000 2000.0000  200.0000   359.4940   149.5804   323.0509    1.6917
   10718.0000  9750.8496   21.4075   12.7848    1.9214  122.3448    9.0505 1177.2302  200.0000 2000.0000  200.0000   364.6049   170.8062   353.3990    1.6784
   10718.5000  9751.2715   25.0977   12.5909    1.9163 1171.8649    7.8122 1914.4968  200.0000 2000.0000  200.0000   371.1524   169.3266   346.3677    1.6700
   10719.0000  9751.7793   37.1264    9.9302    1.8626  432.0488    9.1691 1785.1377  200.0000 2000.0000  200.0000   376.4790   170.2760   329.6061    1.6114
   10719.5000  9752.2354   26.5687    9.7827    1.5996   48.8621   10.7555  621.8764  200.0000 2000.0000  200.0000   367.8654   152.6874   283.3435    1.3520
   10720.0000  9752.5234    8.3181    9.6817    1.3496   37.2657   11.7709  410.5361  200.0000 1952.2987  200.0000   375.9788   113.5134   228.4140    1.0930
   10720.5000  9753.0479    6.2001   10.5166    1.2915   27.2414    9.5774  136.0231  200.0000  871.1648  200.0000   391.0637    83.5701   193.5943    1.0352
   10721.0000  9753.6748   24.9112   10.0007    1.2803   29.7430    7.1420  258.9578  200.0000  806.8336  200.0000   393.5689    65.7676   177.1592    1.0213
   10721.5000  9753.9160   16.6012   10.0263    1.2390  102.6433   12.3691 1641.7660  200.0000 1946.2372  200.0000   389.1025    60.8382   192.5338    0.9781
   10722.0000  9754.1738   12.0557   11.0808    1.1976  127.8004   17.2340 2000.0000  200.0000 2000.0000  200.0000   386.0496    68.0814   263.2025    0.9332
   10722.5000  9754.8682   21.4989    9.9657    1.1773   44.1060   11.2676 1990.0117  200.0000 2000.0000  200.0000   382.3972    86.5982   400.4503    0.9110
   10723.0000  9755.1543   23.9950   10.7241    1.1648   47.9520   10.3621 1376.7039  200.0000 2000.0000  200.0000   380.3085   111.9745   504.5584    0.8968
   10723.5000  9755.6660   20.5952   10.4402    1.1601   41.0445   14.4555  221.7215  200.0000 2000.0000  200.0000   376.4472   127.0967   501.8596    0.8898
