~Version Information
 VERS.                  2.0:   CWLS log ASCII Standard -VERSION 2.0
 WRAP.                   NO:   One line per depth step
~Well Information Block
#MNEM.UNIT     VALUE/NAME     DESCRIPTION
#---------     -----------    ---------------------------
 STRT.F             14200.0000: START DEPTH
 STOP.F             16770.0000: STOP DEPTH
 STEP.F                 0.5000: STEP DEPTH
 NULL.               -999.2500: NULL VALUE
 UNIT.                12318515:  LOGGING EQUIPMENT ID
 CNTY.             HAIR DALMAH:  COUNTY NAME
 JOBN.        AD-XX-0905995035:  JOB TICKET NUMB
 FLD .             HAIR DALMAH:  FIELD NAME
 PDAT.          Mean Sea Level:  PERMANENT DATUM
 RIG .                     PN8:  RIG NAME
 MWDS.                    ICAD:  MWD SHOP
 CTRY.     United Arab Emirates:  COUNTRY NAME
 REGN.     Middle East/North Africa:  REGION
 BASE.               Abu Dhabi:  LOGGING EQUIPMENT BASE LOCATION
 WTYP.                Vertical:  WELL TYPE
 XYGR.     UTM Zones, Northern Hemisphere, Meters:  XYGROUP
 LLGR.      Latitude/Longitude:  LLGROUP
 MDS .              Win MagUTM:  MAG DATA SOURCE
 MMDD.       05 December, 2019:  MAG DATA DATE
 MMDL.            bggm2019.dat:  MAGNETIC MODEL
 CREF.     Ellipsoid Clarke - 1880:  CART REFERENCE
 GREF.     Ellipsoid World Geodetic System :  GEO REFERENCE
 CGSY.               SS CLRK51:  CART GRID SYS
 GGSY.                      LL:  GEO GRID SYS
 CCDE.     UTM Clarke 1880 (CM 51), Meters:  CART COORD DESC
 GCDE.     Generic Lat/Long's, Degrees, -180 ==> +180:  GEO COORD DESC
 SON .        AD-XX-0905995035:  JOB NUMBER
 COMP.          ADNOC Offshore:  COMPANY
 WELL.               HD011-02D:  WELL NAME
 FTOP.          Formation Tops:  FORM TOPS DESC
 ILTD.               Lithology:  INTERP LTH DESC
 SVYD.                  Survey:  SURVEY DESC
 DMOD.             Drill Model:  DRILL MOD DESC
 HPTY.       Minimum Curvature:  HOLE POS TYPE
 NREF.                    Grid:  NORTH REFERENCE
 SPUD.               17-Feb-20:  SPUD DATE
 DATE.      21.00.00 29-Aug-20:  END TIME
 STIM.      12.00.00 26-Jul-20:  START TIME
 DMF .             Drill Floor:  DRILL MEAS FROM
 DFST.                        :  DIST FSL TEXT
 DFWT.                        :  DIST FWL TEXT
 PROV.               Abu Dhabi:  PROVINCE
 STAT.               Abu Dhabi:  STATE NAME
 API .                        :  API NUMBER
 SRVC.             Halliburton:  SERVICE COMPANY
 UWI .                        :  UNIQUE WELL IDENTIFIER
 LOC .                        :  LOCATION
 LMF .             Drill Floor:  LOG MEASURED FROM
 DEP .ft              0.000000:  DEPTH
 AGAP.ft            118.000000:  AIR GAP
 CMER.deg            51.000000:  CENTRL MERIDIAN
 MMDE.ft              0.000000:  MAGUTM CALC DEP
 APD .ft            118.000000:  DEPTH ABOVE PD
 WDMS.ft             65.000000:  WD ELEV
 EGL .ft              0.000000:  GROUND ELEVATION
 EPD .ft              0.000000:  ELEVATION
 AZTC.deg             1.750428:  AZM TOTAL CORR
 GRDC.deg             0.592532:  GRID CORRECTION
 MDEC.deg             2.342959:  MAGNETIC DECL
 MDIP.deg            38.394272:  MAGNETIC DIP
 MFLD.nT          43612.476563:  MAGNETIC FIELD
 GVFD.g               1.000000:  GRAVITY FIELD
 VSDR.deg            91.860001:  VERT SEC DIRECT
 TDD .ft          16770.000000:  TOTAL DEPTH (DRILLER)
 SDEP.ft          14436.000000:  START DEPTH
 DFSL.ft              0.000000:  DISTANCE FSL
 DFWL.ft              0.000000:  DISTANCE FWL
 UTMY.m         2710911.810000:  UTM Y
 UTMX.m          644702.250000:  UTM X
 WHEW.ft              0.000000:  WELL HEAD E/W
 WHNS.ft              0.000000:  WELL HEAD N/S
 LONG.deg            52.428197:  LONGITUDE
 LATI.deg            24.507246:  LATITUDE
 TVDS.ft            118.000000:  TVDSS CORRECTN
 EKB .ft            118.000000:  KB ELEVATION
 EDF .ft            118.000000:  DF ELEVATION
 MAGU.                 1512580:  MAGUTM CHECKSUM
 VSC .                       0:  VS TO CLOSURE
~Parameter Information Block
#MNEM.UNIT       Value        Description
#---------     -----------    ---------------------------
 AV  .fpm           484.999969:  Ann Velocity 
 AVMX.fpm           969.999939:  Max Ann Veloc 
 AZIF.deg           166.490005:  Azm, Final 
 BHAT.               Mud Motor:  BHA Type 
 BROT.°/100'          0.030000:  Build Rotating 
 BS  .in              8.375000:  Bit Size 
 BSZ .in              8.375000:  Bit Size 
 BTPL.psig          415.000000:  Bit Press Loss 
 CABU.                      No:  Customer Abuse 
 CGEO.             Carey Mills:  Customer Geo 
 COMM.                     ÜhT:  Run Comments 1 
 TCS .hr             21.141129:  Time Ciculation Ended 
 CV  .fpm           564.000000:  Crit Velocity 
 CVMX.fpm           702.000000:  Max Crit Veloc 
 DD1 .     Mohamed Gayed Barakat:  Direct Drillr 1 
 DDSV.               Mud Motor:  DD Service 
 DEFF.%              98.000000:  % Det Eff 
 DLRX.°/100'          0.100000:  Dogleg Rot Max 
 DLSO.°/100'          0.070000:  Dogleg Oriented 
 DLSX.°/100'          0.100000:  Dogleg Str Max 
 DRET.      23.59.00 10-Aug-20:  Drill End Time 
 DRST.      15.30.00 10-Aug-20:  Drill Start Tim 
 DTIM.hr              4.412436:  Time Drilling 
 EDEP.ft          15118.000000:  End Depth 
 ENG1.             Ahmed Aleem:  Engineer 1 
 ETIM.      16.00.00 11-Aug-20:  End Time 
 FLOI.gpm           550.000000:  Flow In 
 FLON.gpm           499.999969:  Flow In Min 
 FLOS.mptm            3.000000:  Fluid Loss 
 FLOX.gpm           550.000000:  Flow In Max 
 DFT .                 Polymer:  Mud Type 
 HFLO.                      No:  High Flow 
 HPRE.                      No:  High Pressure 
 HTEM.                      No:  High Temp 
 HYDO.ft              0.000000:  Hydro Offset 
 IFIN.deg             1.530000:  Inc, Final 
 IMAX.deg             1.590000:  Inc Max 
 IMIN.deg             1.560000:  Inc Min 
 IMND.ft          14992.000000:  Inc Min Depth 
 IMXD.ft          14895.000000:  Inc Max Depth 
 JARR.                      No:  Jarring 
 LETM.      23.59.00 10-Aug-20:  Log End Time 
 LOST.hr                    42:  Lost Rig Time 
 LSTM.      11.00.00 10-Aug-20:  Log Start Time 
 MDCL.ppm        140000.000000:  Mud Chlorides 
 MDES.             Fresh Water:  Mud Desc 
 DFD .ppg            12.000000:  Mud Density 
 MDMN.ppg            12.000000:  Dens Mud Min 
 MDMX.ppg            12.000000:  Dens Mud Max 
 PH  .pH             10.000000:  Mud pH 
 MOWR.                    0 83:  Run Mud OWR 
 MSND.                       0:  Run Mud Sand % 
 MSOL.                      17:  Run Mud Solids% 
 MTV .                GeoForce:  Motor Variant 
 DFV .spqt           50.000000:  Mud Viscosity 
 MWOD.in              6.900000:  MWD Tool OD 
 MWSI.                     Yes:  Serv Intrp, MWD 
 OTIM.hr             49.000000:  Time Operating 
 PMAX.psig        10491.233398:  Press Op, Max 
 PV  .cP             22.000000:  Mud PV 
 RMS .ohmm            0.022000:  Mud Resistivity 
 RMCS.ohmm            0.033000:  Mud Cake Resistivity 
 MCST.degF          212.000000:  Mud Cake Sample Temperature 
 RMFS.ohmm            0.020000:  Mud Filtrate Resistivity 
 RMFT.degF          212.000000:  Mud Filtrate Sample Temperature 
 RMMT.ohmm            0.018000:  Rm @ Max Temp 
 MST .degF          212.000000:  Mud Sample Temperature 
 RUN .                    4200:  Run Number 
 ROPA.fph            20.629999:  ROP Avg 
 ROPN.fph            20.000000:  ROP Min 
 ROPX.fph            31.250002:  ROP Max 
 RPMA.rpm            90.000000:  RPM Surface Avg 
 RPMN.rpm            90.000000:  RPM Surface Min 
 RPMX.rpm            90.000000:  RPM Surface Max 
 RRUN.                    4200:  Rig Run Number 
 RTIM.hr              8.500000:  Time Reaming 
 SAZI.deg           168.300003:  Azm, Start 
 SDEP.ft          14972.500000:  Start Depth 
 SIDD.                      No:  Serv Intrp, DD 
 SINC.deg             1.570000:  Inc, Start 
 SPPA.psig         3000.000000:  SPP Avg 
 SPPN.psig         3000.000000:  SPP Min 
 SPPX.psig         3000.000000:  SPP Max 
 STIM.      21.30.00 09-Aug-20:  Start Time 
 SVCS.                 DD, MWD:  Services 
 SVER.                9.200000:  Sperry Version 
 TDAT.ft            348.000000:  Tot Depth Attmp 
 TDDF.                      No:  Trip for DD 
 TDLG.ft            145.500000:  Tot Depth Loggd 
 TFF .                     Yes:  Trip for Fail 
 TQAA.f-p            22.000000:  Torque Abs Avg 
 TQAN.f-p            22.000000:  Torque Abs Min 
 TQAX.f-p            22.000000:  Torque Abs Max 
 TRRT.°/100'          1.010000:  Turn Rotating 
 MRT .                     AFR:  Maximum Recorded Temperature 
 TTMX.degF          260.000000:  Max Tool Temp 
 VS01.     AD90608221 H7V5WCOF1 (6):  Virtual Str1 SN 
 VS02.     90608207 R11GV2CO (6):  Virtual Str2 SN 
 WBMN.klb            15.000000:  WOB Min 
 WITN.         Ricardo Vasquez:  Customer Rep 
 WOBA.klb            17.500000:  WOB Avg 
 WOBX.klb            20.000000:  WOB Max 
 YP  .lhf2           35.000000:  Yield Point 
~Curve Information Block
#MNEM.UNIT                 API CODE     Curve Description
#---------               -----------    ---------------------------
 DEPT.F                 00 000 000 000:  Depth
 RPTVD.ft               00 000 000 000:  ROP True Vertical Depth
 ROPA.fph               00 000 000 000:  Avg Rate of Penetration
 DGRCC.api              00 000 000 000:  DGR Comb Gamma Ray BCorr
 ALHSI.in               00 000 000 000:  ALD Hole Size Indicator
 ABR .ohmm              00 000 000 000:  At-Bit Resistivity
 AFXT.hr                00 000 000 000:  AFR Form Exp Time
 RM  .ohmm              00 000 000 000:  AFR Medium Avg Res
 RS  .ohmm              00 000 000 000:  AFR Shallow Avg Res
 RD  .ohmm              00 000 000 000:  AFR Deep Avg Res
 TNPL.pu                00 000 000 000:  CTN Porosity Limestone
 ALCDLC.g/cc            00 000 000 000:  ALD LCRB Comp Density
 ALDCLC.g/cc            00 000 000 000:  ALD LCRB Den Correction
 ALPELC.                00 000 000 000:  ALD LCRB Pe Factor
#Other Information
#
#WARRANTY: Halliburton will use its best efforts to furnish customers with 
#accurate information and interpretations that are part of, and incident to, the services 
#provided.  However, Halliburton cannot and does not warrant the accuracy 
#or correctness of such information and interpretations.  Under no circumstances should any 
#such information or interpretation be relied upon as the sole basis for any drilling, 
#completion, production, or financial decision or any procedure involving any risk to the 
#safety of any drilling venture, drilling rig or its crew or any other third party.  The 
#Customer has full responsibility for all drilling, completion and production operation.  
#Halliburton makes no representations or warranties, either expressed or 
#implied, including, but not limited to, the implied warranties of merchantability or fitness 
#for a particular purpose, with respect to the services rendered.  In no event will 
#Halliburton be liable for failure to obtain any particular results or for 
#any damages, including, but not limited to, indirect, special or consequential damages, 
#resulting from the use of any information or interpretation provided by Halliburton.
#
~A    DEPT      RPTVD      ROPA      DGRCC     ALHSI      ABR      AFXT        RM        RS         RD       TNPL     ALCDLC    ALDCLC    ALPELC   
# ...
   15327.5000  -999.2500 -999.2500   38.2005    8.3750  127.1862    1.6022    65.1252   52.9448   116.8162    3.6785    2.8191   -0.0175    4.5042
   15328.0000  -999.2500 -999.2500   40.3882    8.3750  126.8027    1.3646    60.5933   47.7697   109.0535    3.8123    2.8219   -0.0163    4.5617
   15328.5000  -999.2500 -999.2500   41.2085    8.3750  126.1528    1.4572    69.7503   46.2880   128.2196    3.8197    2.8319   -0.0117    4.8159
   15329.0000  -999.2500 -999.2500   32.9159    8.3750  124.8658    1.3647    59.3082   35.3851   113.1645    4.0416    2.8203   -0.0141    4.7813
   15329.5000  -999.2500 -999.2500   29.3860    8.3750  122.3233    1.7079    37.1161   23.2175    72.7758    4.2394    2.8147   -0.0134    4.8032
   15330.0000  -999.2500 -999.2500   25.9922    8.3750  119.3168    1.4483    19.7781   13.7793    41.9971    4.3894    2.8045   -0.0237    5.8459
   15330.5000  -999.2500 -999.2500   29.1406    8.3750  117.4319    1.2090    10.9572    7.4564    22.9563    4.8572    2.8043   -0.0265    6.3179
   15331.0000  -999.2500 -999.2500   31.0682    8.3750  116.5373    1.2651     8.3794    5.2520    17.5544    5.5038    2.8131   -0.0208    6.2482
   15331.5000  -999.2500 -999.2500   35.2771    8.3750  116.6165    1.9681     8.3058    4.6514    17.8293    6.2439    2.7992   -0.0250    6.4307
   15332.0000  -999.2500 -999.2500   32.2609    8.3750  117.6419    1.2572     8.9594    4.3965    19.1438    6.3066    2.7922   -0.0270    6.5787
   15332.5000  -999.2500 -999.2500   28.7261    8.3750  119.5856    1.2040    10.0344    4.4416    21.6922    6.6211    2.7965   -0.0231    6.5904
   15333.0000  -999.2500 -999.2500   28.3282    8.3750  122.4666    1.4490    10.5542    4.6116    24.9840    6.8494    2.8023   -0.0164    6.1978
   15333.5000  -999.2500 -999.2500   33.0700    8.3750  125.3576    1.4724     9.8207    4.6382    26.4771    6.9248    2.7922   -0.0141    6.0473
   15334.0000  -999.2500 -999.2500   29.6961    8.3767  126.7514    1.2478     8.8569    4.6979    26.4742    6.9256    2.7718   -0.0107    5.8271
   15334.5000  -999.2500 -999.2500   28.4855    8.3768  127.5252    1.4962     8.7874    5.0146    25.2450    7.0778    2.7610   -0.0125    5.6169
   15335.0000  -999.2500 -999.2500   30.8720    8.3750  129.9880    1.7407     9.5136    5.5223    23.8360    6.6930    2.7668   -0.0229    5.6158
   15335.5000  -999.2500 -999.2500   29.6714    8.3750  132.4593    1.4367    10.9581    6.3449    23.2735    5.4082    2.7866   -0.0204    5.6105
   15336.0000  -999.2500 -999.2500   31.7830    8.3750  133.8025    1.2386    12.8957    7.9020    24.4883    6.0086    2.8024   -0.0146    5.5706
   15336.5000  -999.2500 -999.2500   28.3368    8.3750  131.2366    1.1391    13.4584    9.3206    23.8581    5.1807    2.7926   -0.0158    5.2840
   15337.0000  -999.2500 -999.2500   32.4018    8.3750  120.0068    1.5275    13.4327   10.6091    22.3538    4.8404    2.7873   -0.0249    4.9651
   15337.5000  -999.2500 -999.2500   37.3777    8.3750  109.2174    1.3291    18.8564   16.3389    31.6989    4.2647    2.8124   -0.0193    4.5952
   15338.0000  -999.2500 -999.2500   32.0352    8.3750  105.9482    1.4525    38.4803   33.6151    74.0808    3.8142    2.8251   -0.0178    4.4907
   15338.5000  -999.2500 -999.2500   34.6041    8.3750  104.1284    1.5345    65.5544   52.0790   126.0396    3.5863    2.8176   -0.0166    4.6124
   15339.0000  -999.2500 -999.2500   52.1513    8.3750  103.3109    1.2670    85.5192   59.5976   138.8009    3.1789    2.8110   -0.0187    4.3900
   15339.5000  -999.2500 -999.2500   45.9480    8.3750  102.6339    1.3560    97.9333   66.4309   149.3174    3.4851    2.8088   -0.0238    4.4515
   15340.0000  -999.2500 -999.2500   36.4169    8.3750   96.6299    1.3057   119.0831   76.5261   181.0298    3.3262    2.8241   -0.0194    4.6106
   15340.5000  -999.2500 -999.2500   35.5081    8.3750   88.0639    1.2549   132.0698   82.5431   204.7159    3.2134    2.8294   -0.0178    4.5554
   15341.0000  -999.2500 -999.2500   35.4003    8.3750   82.1747    1.1392   122.7715   77.7067   181.5461    3.1884    2.8301   -0.0182    4.4122
   15341.5000  -999.2500 -999.2500   34.1418    8.3750   78.8656    1.4175   114.7267   73.7365   160.9714    3.1583    2.8197   -0.0218    4.2663
   15342.0000  -999.2500 -999.2500   37.6512    8.3750   76.6314    1.5011   129.5200   79.1351   180.9644    2.9637    2.8227   -0.0215    4.4766
   15342.5000  -999.2500 -999.2500   37.1254    8.3750   70.9379    1.5188   165.5029   90.2146   237.4569    2.8519    2.8281   -0.0254    4.3860
   15343.0000  -999.2500 -999.2500   36.7550    8.3750   61.6234    1.2656   196.7076   99.0085   300.5390    2.9654    2.8529   -0.0177    4.4613
   15343.5000  -999.2500 -999.2500   37.2833    8.3750   57.2214    1.7523   196.1873  100.4722   330.4642    2.8765    2.8539   -0.0205    4.2877
   15344.0000  -999.2500 -999.2500   35.5747    8.3750   57.3816    1.3376   182.8061   97.6196   325.8910    2.8576    2.8542   -0.0197    4.4008
   15344.5000  -999.2500 -999.2500   37.5757    8.3750   59.5300    1.2772   178.3390   94.5357   319.3475    2.9576    2.8572   -0.0140    4.5351
   15345.0000  -999.2500 -999.2500   39.9131    8.3750   62.1951    1.0103   184.1317   94.1653   328.9973    2.8314    2.8516   -0.0138    4.5745
   15345.5000  -999.2500 -999.2500   39.2725    8.3750   65.0801    1.1860   185.7341   93.3938   329.9395    2.7453    2.8488   -0.0159    4.4510
   15346.0000  -999.2500 -999.2500   37.2387    8.3750   68.2068    1.4926   165.7602   89.2502   294.8173    3.0103    2.8403   -0.0196    4.4349
   15346.5000  -999.2500 -999.2500   40.5886    8.3750   71.1812    1.4309   129.8739   79.6412   227.8795    3.1504    2.8355   -0.0156    4.5054
   15347.0000  -999.2500 -999.2500   40.6084    8.3750   74.9022    1.2335   107.5823   71.3659   175.6050    3.1688    2.8261   -0.0198    4.4834
   15347.5000  -999.2500 -999.2500   43.4622    8.3750   79.8182    1.2782   118.7650   73.4584   179.3443    3.0038    2.8268   -0.0232    4.3915
   15348.0000  -999.2500 -999.2500   41.5138    8.3750   83.4983    1.1580   146.7896   80.3556   214.3156    3.3716    2.8341   -0.0201    4.4622
   15348.5000  -999.2500 -999.2500   36.9641    8.3750   83.8676    1.2960   148.6209   79.2950   215.7531    3.2293    2.8270   -0.0188    4.5116
   15349.0000  -999.2500 -999.2500   35.9846    8.3750   82.6316    1.1326   138.1796   79.2071   209.7504    3.2810    2.8176   -0.0235    4.3307
   15349.5000  -999.2500 -999.2500   36.6042    8.3750   78.1633    1.3185   134.6627   85.2851   223.5535    3.3819    2.8232   -0.0232    4.2782
   15350.0000  -999.2500 -999.2500   33.3985    8.3750   74.6509    1.6635   130.9618   90.1570   233.6841    3.2933    2.8287   -0.0247    4.3757
   15350.5000  -999.2500 -999.2500   33.0536    8.3750   74.6073    1.7128   143.5528   97.8407   259.5496    3.1943    2.8373   -0.0208    4.4812
   15351.0000  -999.2500 -999.2500   35.0165    8.3750   75.5292    1.6385   168.9214  103.1438   282.7713    3.1860    2.8333   -0.0203    4.3622
   15351.5000  -999.2500 -999.2500   38.6850    8.3750   77.4144    1.2498   157.8699   90.1187   231.0741    3.2578    2.8306   -0.0162    4.3561
   15352.0000  -999.2500 -999.2500   39.2177    8.3750   78.7395    1.3197   121.1331   74.4178   163.0388    3.4953    2.8165   -0.0189    4.5374
   15352.5000  -999.2500 -999.2500   38.8286    8.3750   81.0387    1.1846    85.5029   59.5892   108.5442    3.6263    2.8061   -0.0223    4.4768
   15353.0000  -999.2500 -999.2500   40.8703    8.3750   84.9233    1.4789    70.1604   50.4432    85.6162    4.1311    2.8060   -0.0229    4.4595
   15353.5000  -999.2500 -999.2500   39.3139    8.3750   84.6755    1.3536    79.3794   53.3608   100.7255    3.7225    2.8197   -0.0236    4.5351
   15354.0000  -999.2500 -999.2500   37.1184    8.3750   82.3322    1.3676   115.6522   67.1251   159.7699    3.4227    2.8397   -0.0098    4.8949
   15354.5000  -999.2500 -999.2500   41.5925    8.3750   82.1346    1.4246   154.1503   80.9176   235.7894    3.2753    2.8412   -0.0199    4.4402
