~Version Information
 VERS.                  2.0:   CWLS log ASCII Standard -VERSION 2.0
 WRAP.                   NO:   One line per depth step
~Well Information Block
#MNEM.UNIT     VALUE/NAME     DESCRIPTION
#---------     -----------    ---------------------------
 STRT.F             10112.0000: START DEPTH
 STOP.F             11135.0000: STOP DEPTH
 STEP.F                 0.5000: STEP DEPTH
 NULL.               -999.2500: NULL VALUE
 UNIT.                12318515:  LOGGING EQUIPMENT ID
 CNTY.             HAIR DALMAH:  COUNTY NAME
 JOBN.        AD-XX-0905995035:  JOB TICKET NUMB
 FLD .             HAIR DALMAH:  FIELD NAME
 PDAT.          Mean Sea Level:  PERMANENT DATUM
 RIG .                     PN8:  RIG NAME
 MWDS.                    ICAD:  MWD SHOP
 CTRY.     United Arab Emirates:  COUNTRY NAME
 REGN.     Middle East/North Africa:  REGION
 BASE.               Abu Dhabi:  LOGGING EQUIPMENT BASE LOCATION
 WTYP.                Deviated:  WELL TYPE
 XYGR.     UTM Zones, Northern Hemisphere, Meters:  XYGROUP
 LLGR.      Latitude/Longitude:  LLGROUP
 MDS .              Win MagUTM:  MAG DATA SOURCE
 MMDD.       05 December, 2019:  MAG DATA DATE
 MMDL.            bggm2019.dat:  MAGNETIC MODEL
 CREF.     Ellipsoid Clarke - 1880:  CART REFERENCE
 GREF.     Ellipsoid World Geodetic System :  GEO REFERENCE
 CGSY.               SS CLRK51:  CART GRID SYS
 GGSY.                      LL:  GEO GRID SYS
 CCDE.     UTM Clarke 1880 (CM 51), Meters:  CART COORD DESC
 GCDE.     Generic Lat/Long's, Degrees, -180 ==> +180:  GEO COORD DESC
 SON .        AD-XX-0905995035:  JOB NUMBER
 COMP.          ADNOC Offshore:  COMPANY
 WELL.               HD011-02D:  WELL NAME
 FTOP.          Formation Tops:  FORM TOPS DESC
 ILTD.               Lithology:  INTERP LTH DESC
 SVYD.                  Survey:  SURVEY DESC
 DMOD.             Drill Model:  DRILL MOD DESC
 HPTY.       Minimum Curvature:  HOLE POS TYPE
 NREF.                    Grid:  NORTH REFERENCE
 SPUD.               17-Feb-20:  SPUD DATE
 DATE.      06.00.00 09-Apr-20:  END TIME
 STIM.      11.40.00 06-Apr-20:  START TIME
 DMF .             Drill Floor:  DRILL MEAS FROM
 DFST.                        :  DIST FSL TEXT
 DFWT.                        :  DIST FWL TEXT
 PROV.               Abu Dhabi:  PROVINCE
 STAT.               Abu Dhabi:  STATE NAME
 API .                        :  API NUMBER
 SRVC.             Halliburton:  SERVICE COMPANY
 UWI .                        :  UNIQUE WELL IDENTIFIER
 LOC .                        :  LOCATION
 LMF .             Drill Floor:  LOG MEASURED FROM
 DEP .ft              0.000000:  DEPTH
 AGAP.ft            118.000000:  AIR GAP
 CMER.deg            51.000000:  CENTRL MERIDIAN
 MMDE.ft              0.000000:  MAGUTM CALC DEP
 APD .ft            118.000000:  DEPTH ABOVE PD
 WDMS.ft             65.000000:  WD ELEV
 EGL .ft              0.000000:  GROUND ELEVATION
 EPD .ft              0.000000:  ELEVATION
 AZTC.deg             1.750428:  AZM TOTAL CORR
 GRDC.deg             0.592532:  GRID CORRECTION
 MDEC.deg             2.342959:  MAGNETIC DECL
 MDIP.deg            38.394272:  MAGNETIC DIP
 MFLD.nT          43612.476563:  MAGNETIC FIELD
 GVFD.g               1.000000:  GRAVITY FIELD
 VSDR.deg            91.860001:  VERT SEC DIRECT
 TDD .ft          11135.000000:  TOTAL DEPTH (DRILLER)
 SDEP.ft          10171.000000:  START DEPTH
 DFSL.ft              0.000000:  DISTANCE FSL
 DFWL.ft              0.000000:  DISTANCE FWL
 UTMY.m         2710911.810000:  UTM Y
 UTMX.m          644702.250000:  UTM X
 WHEW.ft              0.000000:  WELL HEAD E/W
 WHNS.ft              0.000000:  WELL HEAD N/S
 LONG.deg            52.428197:  LONGITUDE
 LATI.deg            24.507246:  LATITUDE
 TVDS.ft            118.000000:  TVDSS CORRECTN
 EKB .ft            118.000000:  KB ELEVATION
 EDF .ft            118.000000:  DF ELEVATION
 MAGU.                 1512580:  MAGUTM CHECKSUM
 VSC .                       0:  VS TO CLOSURE
~Parameter Information Block
#MNEM.UNIT       Value        Description
#---------     -----------    ---------------------------
 AV  .fpm             1.000000:  Ann Velocity 
 AVMX.fpm             1.000000:  Max Ann Veloc 
 AZIF.deg            83.830002:  Azm, Final 
 BHAT.               Mud Motor:  BHA Type 
 BS  .in             14.500000:  Bit Size 
 BSZ .in             14.500000:  Bit Size 
 BTPL.psig            1.000000:  Bit Press Loss 
 CABU.                      No:  Customer Abuse 
 CGEO.             Carey Mills:  Customer Geo 
 COMM.                     t i:  Run Comments 1 
 TCS .hr             83.600342:  Time Ciculation Ended 
 CV  .fpm             1.000000:  Crit Velocity 
 CVMX.fpm             1.000000:  Max Crit Veloc 
 DD1 .          Devinder Kumar:  Direct Drillr 1 
 DD2 .     Mohamed Gayed Barakat:  Direct Drillr 2 
 DDSV.               Mud Motor:  DD Service 
 DEFF.%              90.000000:  % Det Eff 
 DRET.      06.15.00 04-Apr-20:  Drill End Time 
 DRST.      13.57.20 31-Mar-20:  Drill Start Tim 
 DTIM.hr             56.449772:  Time Drilling 
 EDEP.ft          10171.000000:  End Depth 
 ENG1.           Denis Sobolev:  Engineer 1 
 ENG2.            Imad Youssef:  Engineer 2 
 ETIM.      23.30.00 06-Apr-20:  End Time 
 FLOI.gpm           999.999939:  Flow In 
 FLON.gpm           964.999939:  Flow In Min 
 FLOS.mptm            2.600000:  Fluid Loss 
 FLOX.gpm          1100.000000:  Flow In Max 
 DFT .                 Polymer:  Mud Type 
 HFLO.                      No:  High Flow 
 HPRE.                      No:  High Pressure 
 HTEM.                      No:  High Temp 
 HYDO.ft              0.000000:  Hydro Offset 
 IFIN.deg            26.030001:  Inc, Final 
 IMAX.deg            26.559999:  Inc Max 
 IMIN.deg            24.139999:  Inc Min 
 IMND.ft           9477.000000:  Inc Min Depth 
 IMXD.ft           9942.000000:  Inc Max Depth 
 JARR.                      No:  Jarring 
 LETM.      23.30.00 06-Apr-20:  Log End Time 
 LOST.hr                     0:  Lost Rig Time 
 LSTM.      13.57.20 31-Mar-20:  Log Start Time 
 MDCL.ppm        150000.000000:  Mud Chlorides 
 MDES.             Fresh Water:  Mud Desc 
 DFD .ppg            12.000000:  Mud Density 
 MDMN.ppg            12.000000:  Dens Mud Min 
 MDMX.ppg            12.000000:  Dens Mud Max 
 PH  .pH             10.300000:  Mud pH 
 MOIL.                      19:  Run Mud Oil % 
 MOWR.                   19 81:  Run Mud OWR 
 MSND.                       0:  Run Mud Sand % 
 MSOL.                      19:  Run Mud Solids% 
 MTV .                GeoForce:  Motor Variant 
 DFV .spqt           51.000000:  Mud Viscosity 
 MWOD.in              8.150000:  MWD Tool OD 
 MWSI.                      No:  Serv Intrp, MWD 
 OTIM.hr            106.542305:  Time Operating 
 PMAX.psig         6850.255859:  Press Op, Max 
 PV  .cP             21.000000:  Mud PV 
 RMS .ohmm            0.039000:  Mud Resistivity 
 RMCS.ohmm            0.059000:  Mud Cake Resistivity 
 MCST.degF           80.000000:  Mud Cake Sample Temperature 
 RMFS.ohmm            0.030000:  Mud Filtrate Resistivity 
 RMFT.degF           80.000000:  Mud Filtrate Sample Temperature 
 RMMT.ohmm            0.018000:  Rm @ Max Temp 
 MST .degF           80.000000:  Mud Sample Temperature 
 RUN .                    2300:  Run Number 
 RRUN.                    2300:  Rig Run Number 
 SAZI.deg           101.400002:  Azm, Start 
 SDEP.ft           9467.000000:  Start Depth 
 SIDD.                      No:  Serv Intrp, DD 
 SINC.deg            24.139999:  Inc, Start 
 STIM.      13.57.20 31-Mar-20:  Start Time 
 SVER.                9.200000:  Sperry Version 
 TDAT.ft            704.000000:  Tot Depth Attmp 
 TDDF.                      No:  Trip for DD 
 TDLG.ft            704.000000:  Tot Depth Loggd 
 TFF .                      No:  Trip for Fail 
 MRT .                     PWD:  Maximum Recorded Temperature 
 TTMX.degF          181.000000:  Max Tool Temp 
 VS01.           F1(8)90603244:  Virtual Str1 SN 
 VS02.     H2V5WGV2R(8)90604159:  Virtual Str2 SN 
 WITN.     Mohamed Sharaf el Din:  Customer Rep 
 YP  .lhf2           29.000000:  Yield Point 
~Curve Information Block
#MNEM.UNIT                 API CODE     Curve Description
#---------               -----------    ---------------------------
 DEPT.F                 00 000 000 000:  Depth
 RPTVD.ft               00 000 000 000:  ROP True Vertical Depth
 ROPA.fph               00 000 000 000:  Avg Rate of Penetration
 DGRCC.api              00 000 000 000:  DGR Comb Gamma Ray BCorr
 EWXT.hr                00 000 000 000:  EWR Formation Exp Time
 R15P.ohmm              00 000 000 000:  EWR Shallow Phase Res
 R15A.ohmm              00 000 000 000:  EWR Shallow Atten Res
 R27P.ohmm              00 000 000 000:  EWR Medium Phase Res
 R27A.ohmm              00 000 000 000:  EWR Medium Atten Res
 R39P.ohmm              00 000 000 000:  EWR Deep Phase Res
 R39A.ohmm              00 000 000 000:  EWR Deep Atten Res
 ABR .ohmm              00 000 000 000:  At-Bit Resistivity
 AFRSA.ohmm             00 000 000 000:  AFR Shallow Avg Res
 AFRDA.ohmm             00 000 000 000:  AFR Deep Avg Res
 AFXT.hr                00 000 000 000:  AFR Form Exp Time
#Other Information
#
#WARRANTY: Halliburton will use its best efforts to furnish customers with 
#accurate information and interpretations that are part of, and incident to, the services 
#provided.  However, Halliburton cannot and does not warrant the accuracy 
#or correctness of such information and interpretations.  Under no circumstances should any 
#such information or interpretation be relied upon as the sole basis for any drilling, 
#completion, production, or financial decision or any procedure involving any risk to the 
#safety of any drilling venture, drilling rig or its crew or any other third party.  The 
#Customer has full responsibility for all drilling, completion and production operation.  
#Halliburton makes no representations or warranties, either expressed or 
#implied, including, but not limited to, the implied warranties of merchantability or fitness 
#for a particular purpose, with respect to the services rendered.  In no event will 
#Halliburton be liable for failure to obtain any particular results or for 
#any damages, including, but not limited to, indirect, special or consequential damages, 
#resulting from the use of any information or interpretation provided by Halliburton.
#
~A    DEPT      RPTVD      ROPA      DGRCC     EWXT      R15P      R15A      R27P      R27A      R39P      R39A       ABR       AFRSA      AFRDA      AFXT    
# ...
   10928.0000  9933.2900   39.0184   11.6986    1.2224   29.0361   10.4937  100.2492  200.0000  658.9128  200.0000   106.4801    35.2609    57.5252    0.9103
   10928.5000  9933.7285   39.2230    8.8907    1.2235   26.9212   11.3914   72.1596  200.0000  343.2393  200.0000   107.3157    33.8510    57.2257    0.9111
   10929.0000  9934.1748   42.2209   10.2903    1.2249   25.7937   11.5199   76.9666  200.0000  419.1486  200.0000   108.5106    34.7472    58.4724    0.9124
   10929.5000  9934.5947   46.5946   11.1669    1.2273   25.6692    9.8179   78.0623  200.0000  423.1984  200.0000   108.6308    35.0188    58.7863    0.9151
   10930.0000  9935.0332   50.3673   11.3615    1.2298   32.7674    8.7562  373.0404  200.0000 1668.5568  200.0000   107.7371    35.8172    60.3850    0.9182
   10930.5000  9935.4834   52.9519   10.1720    1.2326   44.2465   10.1430  494.1854  200.0000 2000.0000  200.0000   106.3122    37.2650    63.1395    0.9215
   10931.0000  9935.9150   54.1539   12.5375    1.2352   39.5646   13.7824  232.0654  200.0000 2000.0000  200.0000   105.3052    42.5698    72.2178    0.9252
   10931.5000  9936.3516   54.1108   10.8184    1.2369   43.7543   12.3540  185.5743  200.0000 1740.8281  200.0000   104.6370    64.1572   113.0568    0.9290
   10932.0000  9936.8008   54.0336   11.3828    1.2380   43.0181   10.3766  119.8578  200.0000  936.7365  200.0000   104.0895   108.3297   197.0958    0.9325
   10932.5000  9937.2354   53.8521   12.1746    1.2385   40.0249    9.6101  110.3385  200.0000  607.8926  200.0000   103.1352   117.5756   190.0699    0.9358
   10933.0000  9937.6553   51.9471   11.2457    1.2389   32.7757   10.2400   89.8738  200.0000  424.5580  200.0000   101.9117    92.8271   132.2328    0.9388
   10933.5000  9938.0781   47.6819   11.9186    1.2392   31.7185   11.9467   97.0181  200.0000  574.6821  200.0000   101.2261    73.3482   101.4357    0.9404
   10934.0000  9938.5361   43.3363    8.8091    1.2375   33.2384   11.2688  104.0380  200.0000  663.6611  200.0000   101.1280    64.2804    89.8202    0.9412
   10934.5000  9938.9561   37.2105   10.0222    1.2332   38.1176    9.0462  121.7274  200.0000  514.7520  200.0000   102.0466    54.9900    77.5991    0.9397
   10935.0000  9939.3887   33.5037   13.5971    1.2284   34.6026    9.6124   91.5052  200.0000  336.4393  200.0000   103.1743    48.0890    69.7186    0.9377
   10935.5000  9939.8281   34.5271   13.1621    1.2243   31.4925   12.0292   88.3991  200.0000  419.2361  200.0000   103.2779    46.3798    71.8695    0.9363
   10936.0000  9940.2490   36.0958   10.5191    1.2207   30.9443   15.0422   79.9606  200.0000  826.8674  200.0000   103.4447    43.3306    70.9626    0.9356
   10936.5000  9940.6934   38.2351    9.7059    1.2172   33.7959   11.9751   96.4997  200.0000 1013.4626  200.0000   103.9764    38.7107    63.9708    0.9356
   10937.0000  9941.1230   39.3780    9.1092    1.2137   40.9878    9.0642  111.9994  200.0000  755.0677  200.0000   104.3083    38.6941    64.0320    0.9356
   10937.5000  9941.5605   39.4537   11.1798    1.2094   38.9578    9.3957   94.0042  200.0000  435.3967  200.0000   104.9257    43.7294    73.0976    0.9357
   10938.0000  9942.0166   39.3995   10.5552    1.2050   36.5466   10.2178  103.8784  200.0000  630.3214  200.0000   105.3390    51.8983    87.2908    0.9358
   10938.5000  9942.4258   38.8161   11.4729    1.2003   33.6019   12.9198   89.1630  200.0000 1369.3485  200.0000   105.1350    59.1119    97.6899    0.9356
   10939.0000  9942.8662   38.7838   11.8598    1.1960   35.5259   14.8085   86.3179  200.0000  927.4429  200.0000   105.1505    64.2877   104.6686    0.9356
   10939.5000  9943.2979   39.3691   11.1656    1.1919   34.7268   13.2697   89.9593  200.0000 1057.6698  200.0000   105.3725    62.4319   104.5015    0.9359
   10940.0000  9943.7461   39.4771    9.5070    1.1901   38.1635   11.9620   78.4278  200.0000  537.0212  200.0000   104.9099    51.9986    87.5695    0.9364
   10940.5000  9944.1592   39.4724    9.8615    1.1900   33.4439    9.8789   81.1465  200.0000  356.1952  200.0000   103.8318    45.6753    72.2206    0.9370
   10941.0000  9944.6113   39.5120    9.8895    1.1901   27.7170   12.3417   67.6375  200.0000  620.2903  200.0000   102.7306    45.1773    68.2230    0.9372
   10941.5000  9945.0459   39.4852   12.1958    1.1901   34.9322   14.2969   74.6330  200.0000  849.2376  200.0000   102.3419    47.7558    72.1691    0.9375
   10942.0000  9945.4648   39.5260    9.9173    1.1902   35.2057   12.4876   79.9625  200.0000 1353.5984  200.0000   102.4754    51.6294    78.2438    0.9372
   10942.5000  9945.9102   39.4689   11.0692    1.1903   38.9725   11.2345   97.1581  200.0000 1340.2408  200.0000   102.7698    55.4708    84.1912    0.9368
   10943.0000  9946.3438   39.3990   11.8848    1.1903   33.9677   12.4696   80.7618  200.0000 1003.6476  200.0000   103.0949    60.7618    90.9716    0.9361
   10943.5000  9946.7734   39.3822    9.8780    1.1902   35.6789   12.8355   86.8570  200.0000 1279.9773  200.0000   103.1206    68.3501    99.1397    0.9346
   10944.0000  9947.2080   39.4401   10.6547    1.1900   36.8795   15.4624   89.4165  200.0000 1337.4532  200.0000   103.2363    79.1095   110.3532    0.9320
   10944.5000  9947.6416   39.5239   10.6839    1.1902   40.9439   12.7627  112.0202  200.0000 1745.6438  200.0000   103.8194    98.3086   132.9435    0.9295
   10945.0000  9948.0908   39.5217   10.6159    1.1916   39.5554   12.5049   95.4355  200.0000 1495.7123  200.0000   105.0807   111.2287   148.2123    0.9269
   10945.5000  9948.5234   39.4683   11.2819    1.1947   38.5545   14.2529   86.4918  200.0000 1307.4025  200.0000   106.3186   107.5223   139.4226    0.9257
   10946.0000  9948.9541   39.4364   10.6156    1.1977   40.1751   14.1516   84.5701  200.0000 1139.8107  200.0000   106.5669   102.3371   130.4977    0.9235
   10946.5000  9949.3926   39.4027   12.5639    1.1976   35.8656   13.3639   95.4286  200.0000 1522.1449  200.0000   106.0697    90.5499   118.3685    0.9208
   10947.0000  9949.8086   39.4466    9.7731    1.1978   33.8615   13.5102   82.9942  200.0000 1255.9603  200.0000   105.5474    76.7566   101.1692    0.9182
   10947.5000  9950.2588   39.4974   10.0976    1.2002   39.9831   12.9525   80.4429  200.0000  722.4748  200.0000   105.4995    67.5891    86.5229    0.9157
   10948.0000  9950.6787   39.4689   11.4399    1.2015   37.7214   14.1956   74.7721  200.0000  449.8409  200.0000   105.7311    60.1424    77.1538    0.9131
   10948.5000  9951.1240   39.4879   12.3171    1.2267   33.0231   14.7630   74.0931  200.0000  820.8516  200.0000   106.5091    55.7254    75.3506    0.9101
   10949.0000  9951.5674   39.9634   10.9968    1.4731   32.8788   14.4353   75.7329  200.0000  692.9855  200.0000   106.8253    55.8818    80.2849    0.9067
   10949.5000  9951.9854   41.0610   10.9723    1.9084   31.9002   14.4592   87.4866  200.0000 1282.2081  200.0000   106.7717    57.5795    88.6716    0.9032
   10950.0000  9952.4199   41.8003    9.2551    1.9092   40.4053   11.3443   91.9310  200.0000  923.6688  200.0000   106.8447    60.8053    97.7894    0.9000
   10950.5000  9952.8730   41.8047   10.0483    1.9100   35.4195   12.7241   89.1604  200.0000 1440.9154  200.0000   107.1955    64.6849   100.0627    0.8964
   10951.0000  9953.2930   41.8989   11.1244    1.9126   36.0764   14.4983   90.2297  200.0000 1418.7086  200.0000   107.8929    68.1806   101.4455    0.8928
   10951.5000  9953.7207   41.7005   11.3588    1.9217   36.0405   13.5797   89.7009  200.0000 1284.0745  200.0000   109.1197    71.3046   107.0245    0.8889
   10952.0000  9954.1826   40.6085   11.5661    1.9315   36.6438   12.7291   97.1709  200.0000 1768.3488  200.0000   110.4738    75.0629   112.0193    0.8865
   10952.5000  9954.5898   39.3758   11.3111    1.9362   40.5392   11.5921   95.4471  200.0000 1593.4670  200.0000   111.3844    80.6141   116.9426    0.8863
   10953.0000  9955.0322   38.8932   10.9951    1.9365   37.0241   12.9509   92.4848  200.0000 1922.0808  200.0000   112.2638    88.9879   123.7155    0.8861
