~Version Information
 VERS.                  2.0:   CWLS log ASCII Standard -VERSION 2.0
 WRAP.                   NO:   One line per depth step
~Well Information Block
#MNEM.UNIT     VALUE/NAME     DESCRIPTION
#---------     -----------    ---------------------------
 STRT.F             14200.0000: START DEPTH
 STOP.F             16770.0000: STOP DEPTH
 STEP.F                 0.5000: STEP DEPTH
 NULL.               -999.2500: NULL VALUE
 UNIT.                12318515:  LOGGING EQUIPMENT ID
 CNTY.             HAIR DALMAH:  COUNTY NAME
 JOBN.        AD-XX-0905995035:  JOB TICKET NUMB
 FLD .             HAIR DALMAH:  FIELD NAME
 PDAT.          Mean Sea Level:  PERMANENT DATUM
 RIG .                     PN8:  RIG NAME
 MWDS.                    ICAD:  MWD SHOP
 CTRY.     United Arab Emirates:  COUNTRY NAME
 REGN.     Middle East/North Africa:  REGION
 BASE.               Abu Dhabi:  LOGGING EQUIPMENT BASE LOCATION
 WTYP.                Vertical:  WELL TYPE
 XYGR.     UTM Zones, Northern Hemisphere, Meters:  XYGROUP
 LLGR.      Latitude/Longitude:  LLGROUP
 MDS .              Win MagUTM:  MAG DATA SOURCE
 MMDD.       05 December, 2019:  MAG DATA DATE
 MMDL.            bggm2019.dat:  MAGNETIC MODEL
 CREF.     Ellipsoid Clarke - 1880:  CART REFERENCE
 GREF.     Ellipsoid World Geodetic System :  GEO REFERENCE
 CGSY.               SS CLRK51:  CART GRID SYS
 GGSY.                      LL:  GEO GRID SYS
 CCDE.     UTM Clarke 1880 (CM 51), Meters:  CART COORD DESC
 GCDE.     Generic Lat/Long's, Degrees, -180 ==> +180:  GEO COORD DESC
 SON .        AD-XX-0905995035:  JOB NUMBER
 COMP.          ADNOC Offshore:  COMPANY
 WELL.               HD011-02D:  WELL NAME
 FTOP.          Formation Tops:  FORM TOPS DESC
 ILTD.               Lithology:  INTERP LTH DESC
 SVYD.                  Survey:  SURVEY DESC
 DMOD.             Drill Model:  DRILL MOD DESC
 HPTY.       Minimum Curvature:  HOLE POS TYPE
 NREF.                    Grid:  NORTH REFERENCE
 SPUD.               17-Feb-20:  SPUD DATE
 DATE.      21.00.00 29-Aug-20:  END TIME
 STIM.      12.00.00 26-Jul-20:  START TIME
 DMF .             Drill Floor:  DRILL MEAS FROM
 DFST.                        :  DIST FSL TEXT
 DFWT.                        :  DIST FWL TEXT
 PROV.               Abu Dhabi:  PROVINCE
 STAT.               Abu Dhabi:  STATE NAME
 API .                        :  API NUMBER
 SRVC.             Halliburton:  SERVICE COMPANY
 UWI .                        :  UNIQUE WELL IDENTIFIER
 LOC .                        :  LOCATION
 LMF .             Drill Floor:  LOG MEASURED FROM
 DEP .ft              0.000000:  DEPTH
 AGAP.ft            118.000000:  AIR GAP
 CMER.deg            51.000000:  CENTRL MERIDIAN
 MMDE.ft              0.000000:  MAGUTM CALC DEP
 APD .ft            118.000000:  DEPTH ABOVE PD
 WDMS.ft             65.000000:  WD ELEV
 EGL .ft              0.000000:  GROUND ELEVATION
 EPD .ft              0.000000:  ELEVATION
 AZTC.deg             1.750428:  AZM TOTAL CORR
 GRDC.deg             0.592532:  GRID CORRECTION
 MDEC.deg             2.342959:  MAGNETIC DECL
 MDIP.deg            38.394272:  MAGNETIC DIP
 MFLD.nT          43612.476563:  MAGNETIC FIELD
 GVFD.g               1.000000:  GRAVITY FIELD
 VSDR.deg            91.860001:  VERT SEC DIRECT
 TDD .ft          16770.000000:  TOTAL DEPTH (DRILLER)
 SDEP.ft          14436.000000:  START DEPTH
 DFSL.ft              0.000000:  DISTANCE FSL
 DFWL.ft              0.000000:  DISTANCE FWL
 UTMY.m         2710911.810000:  UTM Y
 UTMX.m          644702.250000:  UTM X
 WHEW.ft              0.000000:  WELL HEAD E/W
 WHNS.ft              0.000000:  WELL HEAD N/S
 LONG.deg            52.428197:  LONGITUDE
 LATI.deg            24.507246:  LATITUDE
 TVDS.ft            118.000000:  TVDSS CORRECTN
 EKB .ft            118.000000:  KB ELEVATION
 EDF .ft            118.000000:  DF ELEVATION
 MAGU.                 1512580:  MAGUTM CHECKSUM
 VSC .                       0:  VS TO CLOSURE
~Parameter Information Block
#MNEM.UNIT       Value        Description
#---------     -----------    ---------------------------
 AV  .fpm           484.999969:  Ann Velocity 
 AVMX.fpm           969.999939:  Max Ann Veloc 
 AZIF.deg           166.490005:  Azm, Final 
 BHAT.               Mud Motor:  BHA Type 
 BROT.°/100'          0.030000:  Build Rotating 
 BS  .in              8.375000:  Bit Size 
 BSZ .in              8.375000:  Bit Size 
 BTPL.psig          415.000000:  Bit Press Loss 
 CABU.                      No:  Customer Abuse 
 CGEO.             Carey Mills:  Customer Geo 
 COMM.                     ÜhT:  Run Comments 1 
 TCS .hr             21.141129:  Time Ciculation Ended 
 CV  .fpm           564.000000:  Crit Velocity 
 CVMX.fpm           702.000000:  Max Crit Veloc 
 DD1 .     Mohamed Gayed Barakat:  Direct Drillr 1 
 DDSV.               Mud Motor:  DD Service 
 DEFF.%              98.000000:  % Det Eff 
 DLRX.°/100'          0.100000:  Dogleg Rot Max 
 DLSO.°/100'          0.070000:  Dogleg Oriented 
 DLSX.°/100'          0.100000:  Dogleg Str Max 
 DRET.      23.59.00 10-Aug-20:  Drill End Time 
 DRST.      15.30.00 10-Aug-20:  Drill Start Tim 
 DTIM.hr              4.412436:  Time Drilling 
 EDEP.ft          15118.000000:  End Depth 
 ENG1.             Ahmed Aleem:  Engineer 1 
 ETIM.      16.00.00 11-Aug-20:  End Time 
 FLOI.gpm           550.000000:  Flow In 
 FLON.gpm           499.999969:  Flow In Min 
 FLOS.mptm            3.000000:  Fluid Loss 
 FLOX.gpm           550.000000:  Flow In Max 
 DFT .                 Polymer:  Mud Type 
 HFLO.                      No:  High Flow 
 HPRE.                      No:  High Pressure 
 HTEM.                      No:  High Temp 
 HYDO.ft              0.000000:  Hydro Offset 
 IFIN.deg             1.530000:  Inc, Final 
 IMAX.deg             1.590000:  Inc Max 
 IMIN.deg             1.560000:  Inc Min 
 IMND.ft          14992.000000:  Inc Min Depth 
 IMXD.ft          14895.000000:  Inc Max Depth 
 JARR.                      No:  Jarring 
 LETM.      23.59.00 10-Aug-20:  Log End Time 
 LOST.hr                    42:  Lost Rig Time 
 LSTM.      11.00.00 10-Aug-20:  Log Start Time 
 MDCL.ppm        140000.000000:  Mud Chlorides 
 MDES.             Fresh Water:  Mud Desc 
 DFD .ppg            12.000000:  Mud Density 
 MDMN.ppg            12.000000:  Dens Mud Min 
 MDMX.ppg            12.000000:  Dens Mud Max 
 PH  .pH             10.000000:  Mud pH 
 MOWR.                    0 83:  Run Mud OWR 
 MSND.                       0:  Run Mud Sand % 
 MSOL.                      17:  Run Mud Solids% 
 MTV .                GeoForce:  Motor Variant 
 DFV .spqt           50.000000:  Mud Viscosity 
 MWOD.in              6.900000:  MWD Tool OD 
 MWSI.                     Yes:  Serv Intrp, MWD 
 OTIM.hr             49.000000:  Time Operating 
 PMAX.psig        10491.233398:  Press Op, Max 
 PV  .cP             22.000000:  Mud PV 
 RMS .ohmm            0.022000:  Mud Resistivity 
 RMCS.ohmm            0.033000:  Mud Cake Resistivity 
 MCST.degF          212.000000:  Mud Cake Sample Temperature 
 RMFS.ohmm            0.020000:  Mud Filtrate Resistivity 
 RMFT.degF          212.000000:  Mud Filtrate Sample Temperature 
 RMMT.ohmm            0.018000:  Rm @ Max Temp 
 MST .degF          212.000000:  Mud Sample Temperature 
 RUN .                    4200:  Run Number 
 ROPA.fph            20.629999:  ROP Avg 
 ROPN.fph            20.000000:  ROP Min 
 ROPX.fph            31.250002:  ROP Max 
 RPMA.rpm            90.000000:  RPM Surface Avg 
 RPMN.rpm            90.000000:  RPM Surface Min 
 RPMX.rpm            90.000000:  RPM Surface Max 
 RRUN.                    4200:  Rig Run Number 
 RTIM.hr              8.500000:  Time Reaming 
 SAZI.deg           168.300003:  Azm, Start 
 SDEP.ft          14972.500000:  Start Depth 
 SIDD.                      No:  Serv Intrp, DD 
 SINC.deg             1.570000:  Inc, Start 
 SPPA.psig         3000.000000:  SPP Avg 
 SPPN.psig         3000.000000:  SPP Min 
 SPPX.psig         3000.000000:  SPP Max 
 STIM.      21.30.00 09-Aug-20:  Start Time 
 SVCS.                 DD, MWD:  Services 
 SVER.                9.200000:  Sperry Version 
 TDAT.ft            348.000000:  Tot Depth Attmp 
 TDDF.                      No:  Trip for DD 
 TDLG.ft            145.500000:  Tot Depth Loggd 
 TFF .                     Yes:  Trip for Fail 
 TQAA.f-p            22.000000:  Torque Abs Avg 
 TQAN.f-p            22.000000:  Torque Abs Min 
 TQAX.f-p            22.000000:  Torque Abs Max 
 TRRT.°/100'          1.010000:  Turn Rotating 
 MRT .                     AFR:  Maximum Recorded Temperature 
 TTMX.degF          260.000000:  Max Tool Temp 
 VS01.     AD90608221 H7V5WCOF1 (6):  Virtual Str1 SN 
 VS02.     90608207 R11GV2CO (6):  Virtual Str2 SN 
 WBMN.klb            15.000000:  WOB Min 
 WITN.         Ricardo Vasquez:  Customer Rep 
 WOBA.klb            17.500000:  WOB Avg 
 WOBX.klb            20.000000:  WOB Max 
 YP  .lhf2           35.000000:  Yield Point 
~Curve Information Block
#MNEM.UNIT                 API CODE     Curve Description
#---------               -----------    ---------------------------
 DEPT.F                 00 000 000 000:  Depth
 RPTVD.ft               00 000 000 000:  ROP True Vertical Depth
 ROPA.fph               00 000 000 000:  Avg Rate of Penetration
 DGRCC.api              00 000 000 000:  DGR Comb Gamma Ray BCorr
 ALHSI.in               00 000 000 000:  ALD Hole Size Indicator
 ABR .ohmm              00 000 000 000:  At-Bit Resistivity
 AFXT.hr                00 000 000 000:  AFR Form Exp Time
 RM  .ohmm              00 000 000 000:  AFR Medium Avg Res
 RS  .ohmm              00 000 000 000:  AFR Shallow Avg Res
 RD  .ohmm              00 000 000 000:  AFR Deep Avg Res
 TNPL.pu                00 000 000 000:  CTN Porosity Limestone
 ALCDLC.g/cc            00 000 000 000:  ALD LCRB Comp Density
 ALDCLC.g/cc            00 000 000 000:  ALD LCRB Den Correction
 ALPELC.                00 000 000 000:  ALD LCRB Pe Factor
#Other Information
#
#WARRANTY: Halliburton will use its best efforts to furnish customers with 
#accurate information and interpretations that are part of, and incident to, the services 
#provided.  However, Halliburton cannot and does not warrant the accuracy 
#or correctness of such information and interpretations.  Under no circumstances should any 
#such information or interpretation be relied upon as the sole basis for any drilling, 
#completion, production, or financial decision or any procedure involving any risk to the 
#safety of any drilling venture, drilling rig or its crew or any other third party.  The 
#Customer has full responsibility for all drilling, completion and production operation.  
#Halliburton makes no representations or warranties, either expressed or 
#implied, including, but not limited to, the implied warranties of merchantability or fitness 
#for a particular purpose, with respect to the services rendered.  In no event will 
#Halliburton be liable for failure to obtain any particular results or for 
#any damages, including, but not limited to, indirect, special or consequential damages, 
#resulting from the use of any information or interpretation provided by Halliburton.
#
~A    DEPT      RPTVD      ROPA      DGRCC     ALHSI      ABR      AFXT        RM        RS         RD       TNPL     ALCDLC    ALDCLC    ALPELC   
# ...
   15602.5000 14468.2480   14.6440   20.4622    8.3750  474.0763    3.3291   291.3501   76.6606   605.1979    3.1510    2.8591   -0.0076    4.2094
   15603.0000 14468.7480   14.2478   22.9890    8.3750  470.8882    3.3239   258.4884   70.9556   522.9795    3.2240    2.8546   -0.0083    4.4442
   15603.5000 14469.2246   11.9355   23.0913    8.3750  473.2916    3.3079   243.8724   67.2245   465.8215    3.4195    2.8510   -0.0105    4.4421
   15604.0000 14469.7129   11.0298   25.7863    8.3750  479.7453    3.5697   218.3131   66.5713   436.3416    3.6090    2.8486   -0.0097    4.4295
   15604.5000 14470.2275   12.3925   24.6583    8.3753  479.6702    4.1008   212.4526   73.4972   476.9090    3.7288    2.8514   -0.0055    4.5738
   15605.0000 14470.7500   14.4222   21.9604    8.3771  478.6729    4.1288   220.5287   79.4992   516.0491    3.9858    2.8488   -0.0051    4.5164
   15605.5000 14471.2510   13.6166   27.3060    8.3757  480.8188    4.1073   180.9781   73.1892   409.9000    3.9061    2.8424   -0.0068    4.5087
   15606.0000 14471.6875   11.8049   39.2823    8.3769  485.4637    4.0886   211.0583   74.8855   338.2165    3.9760    2.8405   -0.0119    4.3599
   15606.5000 14472.2383   12.8842   37.7907    8.3907  489.0099    4.0841   351.3186   99.2370   532.6956    4.1561    2.8489   -0.0005    4.5624
   15607.0000 14472.7441   15.1153   24.3878    8.3771  493.0637    4.0955   348.6053  116.7630   948.4487    3.7848    2.8468   -0.0076    4.4927
   15607.5000 14473.2285   14.3272   22.7617    8.3772  496.3721    4.0857   302.6873  106.0500   766.9078    3.2674    2.8532   -0.0030    4.5753
   15608.0000 14473.7295   13.7594   25.8185    8.3751  496.7277    4.0734   285.8763  107.1378   645.7958    3.2687    2.8454   -0.0077    4.6081
   15608.5000 14474.2119   14.1788   25.6433    8.3760  495.9065    4.0636   280.5714  110.0453   693.3435    3.3645    2.8434   -0.0090    4.5584
   15609.0000 14474.7432   15.6861   32.3760    8.3787  494.0186    4.0513   341.1606  116.5807   956.9344    3.3859    2.8569   -0.0074    4.5473
   15609.5000 14475.2686   15.5552   44.3055    8.3794  492.0856    4.0317   417.6136  121.3669  1054.2803    3.2246    2.8556   -0.0057    4.4825
   15610.0000 14475.7236   12.1565   59.3794    8.3824  490.7003    4.0108   399.6742  117.5625   931.1099    3.2746    2.8498   -0.0025    4.6224
   15610.5000 14476.2100   10.3827   45.7248    8.4100  487.8642    3.9918   381.2083  118.7612  1034.4510    3.2543    2.8663    0.0067    4.7182
   15611.0000 14476.7861   12.9903   31.2182    8.3872  484.4329    3.9736   400.4121  125.7501  1339.9426    3.1591    2.8590   -0.0017    4.5565
   15611.5000 14477.1924   13.1377   27.0919    8.3758  482.0089    3.9577   337.3499  117.7618  1258.0172    3.3327    2.8465   -0.0059    4.4947
   15612.0000 14477.6826   13.3450   25.3565    8.3750  479.4178    3.9432   272.6586   92.4718   858.4017    3.5598    2.8377   -0.0083    4.5186
   15612.5000 14478.2920   19.4104   25.5820    8.3750  478.2277    3.9474   266.9886   74.0664   590.3369    3.6814    2.8242   -0.0099    4.5597
   15613.0000 14478.7295   17.2673   28.0087    8.3750  480.6482    3.9596   297.7288   68.2186   512.1077    3.7578    2.8304   -0.0093    4.8216
   15613.5000 14479.2148   16.3146   29.4082    8.3750  487.3266    3.9623   268.9258   63.0227   452.7014    3.7644    2.8273   -0.0184    4.4896
   15614.0000 14479.7051   17.0216   32.8589    8.3782  494.0899    3.9635   187.7877   56.3704   319.3295    3.9741    2.8301   -0.0135    4.3625
   15614.5000 14480.3066   17.1760   28.7858    8.3889  499.3830    3.9635   128.9797   50.9952   217.9507    4.1165    2.8214    0.0004    4.7331
   15615.0000 14480.7002   15.0127   27.2227    8.3819  503.4690    3.9634   136.0145   49.3401   222.5083    4.1936    2.7997   -0.0040    4.4807
   15615.5000 14481.1787   13.6273   27.5809    8.3952  506.0170    3.9670   261.9801   61.2616   433.6035    3.9052    2.8070   -0.0001    4.7219
   15616.0000 14481.8438   17.5235   37.9840    8.3786  505.6089    3.9678   605.5854  105.9940  1609.1095    3.8190    2.8299   -0.0083    4.6911
   15616.5000 14482.1621   14.4325   40.0253    8.3750  504.3647    3.9546   657.0988  134.1521  2843.6082    3.3348    2.8468   -0.0117    4.5889
   15617.0000 14482.7217   13.6340   35.7685    8.3759  503.7049    3.9395   399.2509  110.8243  1643.7079    3.0252    2.8571   -0.0068    4.5830
   15617.5000 14483.2412   17.0176   28.3990    8.3778  503.2418    3.9316   259.5125   96.1905   996.7700    3.1528    2.8579   -0.0051    4.5890
   15618.0000 14483.7051   16.1255   27.0259    8.3752  501.3516    3.9236   221.5071   89.0461   820.9744    3.3257    2.8497   -0.0126    4.3969
   15618.5000 14484.2783   13.0887   31.8775    8.3750  495.2897    3.9089   266.7962   90.1438   858.8155    3.3503    2.8505   -0.0064    4.5239
   15619.0000 14484.7070   11.4068   32.1560    8.3750  489.9485    3.8940   357.4295  104.3401  1093.1143    3.5911    2.8450   -0.0048    4.4346
   15619.5000 14485.2178   11.1647   25.6359    8.3752  486.4035    3.8835   345.3010  101.8724   999.7552    3.8640    2.8278   -0.0070    4.4505
   15620.0000 14485.6533   15.3774   25.3283    8.3753  484.7473    3.8760   249.6416   82.4923   636.2772    3.8038    2.8143   -0.0107    4.4449
   15620.5000 14486.3135   24.6429   24.4382    8.3750  483.4796    3.8750   208.9294   73.9492   492.8162    3.8171    2.8050   -0.0153    4.4479
   15621.0000 14486.7627   19.6692   31.5637    8.3763  484.1805    3.8699   193.4410   68.9679   459.4352    3.7743    2.8230   -0.0073    4.5595
   15621.5000 14487.2275   11.9902   33.6331    8.3757  492.4442    3.8436   217.4402   71.0127   561.9885    3.7491    2.8303   -0.0064    4.5319
   15622.0000 14487.7051    9.2567   29.9095    8.3750  499.0028    3.7823   284.1535   81.2760   798.0996    3.7767    2.8248   -0.0122    4.2913
   15622.5000 14488.1396    9.5261   28.0333    8.3750  497.6520    3.6046   263.4366   76.1926   718.9581    3.7620    2.8346   -0.0077    4.4806
   15623.0000 14488.6201    5.6731   32.7183    8.3750  490.8831    3.4379   206.7535   68.2813   584.1217    3.5923    2.8299   -0.0145    4.5980
   15623.5000 14489.2852    2.6177   34.7019    8.3750  483.5068    3.4137   200.6481   67.4455   628.9619    3.5371    2.8469   -0.0084    4.5343
   15624.0000 14489.7344   26.6598   28.3678    8.3751  483.1639    3.4277   220.0683   67.2454   841.0778    3.3158    2.8365   -0.0099    4.5714
   15624.5000 14490.2461   27.5891   25.3059    8.3811  482.9790    3.4377   222.6485   63.6314  1181.7322    3.9754    2.8449   -0.0023    5.0811
   15625.0000 14490.7461   22.8036   33.2506    8.3797  481.9092    3.4489   175.9019   50.5245   930.3439    4.4118    2.8352   -0.0041    4.8768
   15625.5000 14491.2070   21.4258   32.1120    8.4031  479.0596    3.4555    93.2501   25.3920   330.1883    5.1433    2.8037    0.0044    4.5971
   15626.0000 14491.7549   20.3446   27.6824    8.3900  471.8051    3.4585    69.1458   15.5456   173.2174    6.3231    2.7026   -0.0070    4.4163
   15626.5000 14492.1816   18.4449   26.0356    8.3752  461.7539    3.4583    81.0517   13.4724   144.1485    7.7667    2.6173   -0.0237    4.5524
   15627.0000 14492.6904   18.6250   23.2345    8.3750  452.5995    3.4594    87.3970   12.9208   129.0019    7.2376    2.6268   -0.0277    4.7416
   15627.5000 14493.2373   23.9299   22.8636    8.3750  448.3744    3.4644    78.4247   13.0305   112.1922    7.1547    2.6603   -0.0200    4.5316
   15628.0000 14493.6895   20.9377   20.9750    8.3750  446.7495    3.4711    61.6416   13.9534   109.5735    5.8664    2.6686   -0.0199    4.3791
   15628.5000 14494.2207   21.4944   23.1979    8.3750  444.8841    3.4805    59.5339   17.1727   151.4814    4.9111    2.6775   -0.0237    4.5102
   15629.0000 14494.7178   22.7030   23.0988    8.3750  443.9484    3.4886   115.7424   32.4243   890.4568    3.8621    2.7342   -0.0320    4.5312
   15629.5000 14495.2852   22.1719   31.3611    8.3750  446.6876    3.4900   348.2361   88.2316  7847.3765    3.3550    2.8212   -0.0187    4.5480
