~Version Information
 VERS.                  2.0:   CWLS log ASCII Standard -VERSION 2.0
 WRAP.                   NO:   One line per depth step
~Well Information Block
#MNEM.UNIT     VALUE/NAME     DESCRIPTION
#---------     -----------    ---------------------------
 STRT.F             10112.0000: START DEPTH
 STOP.F             11135.0000: STOP DEPTH
 STEP.F                 0.5000: STEP DEPTH
 NULL.               -999.2500: NULL VALUE
 UNIT.                12318515:  LOGGING EQUIPMENT ID
 CNTY.             HAIR DALMAH:  COUNTY NAME
 JOBN.        AD-XX-0905995035:  JOB TICKET NUMB
 FLD .             HAIR DALMAH:  FIELD NAME
 PDAT.          Mean Sea Level:  PERMANENT DATUM
 RIG .                     PN8:  RIG NAME
 MWDS.                    ICAD:  MWD SHOP
 CTRY.     United Arab Emirates:  COUNTRY NAME
 REGN.     Middle East/North Africa:  REGION
 BASE.               Abu Dhabi:  LOGGING EQUIPMENT BASE LOCATION
 WTYP.                Deviated:  WELL TYPE
 XYGR.     UTM Zones, Northern Hemisphere, Meters:  XYGROUP
 LLGR.      Latitude/Longitude:  LLGROUP
 MDS .              Win MagUTM:  MAG DATA SOURCE
 MMDD.       05 December, 2019:  MAG DATA DATE
 MMDL.            bggm2019.dat:  MAGNETIC MODEL
 CREF.     Ellipsoid Clarke - 1880:  CART REFERENCE
 GREF.     Ellipsoid World Geodetic System :  GEO REFERENCE
 CGSY.               SS CLRK51:  CART GRID SYS
 GGSY.                      LL:  GEO GRID SYS
 CCDE.     UTM Clarke 1880 (CM 51), Meters:  CART COORD DESC
 GCDE.     Generic Lat/Long's, Degrees, -180 ==> +180:  GEO COORD DESC
 SON .        AD-XX-0905995035:  JOB NUMBER
 COMP.          ADNOC Offshore:  COMPANY
 WELL.               HD011-02D:  WELL NAME
 FTOP.          Formation Tops:  FORM TOPS DESC
 ILTD.               Lithology:  INTERP LTH DESC
 SVYD.                  Survey:  SURVEY DESC
 DMOD.             Drill Model:  DRILL MOD DESC
 HPTY.       Minimum Curvature:  HOLE POS TYPE
 NREF.                    Grid:  NORTH REFERENCE
 SPUD.               17-Feb-20:  SPUD DATE
 DATE.      06.00.00 09-Apr-20:  END TIME
 STIM.      11.40.00 06-Apr-20:  START TIME
 DMF .             Drill Floor:  DRILL MEAS FROM
 DFST.                        :  DIST FSL TEXT
 DFWT.                        :  DIST FWL TEXT
 PROV.               Abu Dhabi:  PROVINCE
 STAT.               Abu Dhabi:  STATE NAME
 API .                        :  API NUMBER
 SRVC.             Halliburton:  SERVICE COMPANY
 UWI .                        :  UNIQUE WELL IDENTIFIER
 LOC .                        :  LOCATION
 LMF .             Drill Floor:  LOG MEASURED FROM
 DEP .ft              0.000000:  DEPTH
 AGAP.ft            118.000000:  AIR GAP
 CMER.deg            51.000000:  CENTRL MERIDIAN
 MMDE.ft              0.000000:  MAGUTM CALC DEP
 APD .ft            118.000000:  DEPTH ABOVE PD
 WDMS.ft             65.000000:  WD ELEV
 EGL .ft              0.000000:  GROUND ELEVATION
 EPD .ft              0.000000:  ELEVATION
 AZTC.deg             1.750428:  AZM TOTAL CORR
 GRDC.deg             0.592532:  GRID CORRECTION
 MDEC.deg             2.342959:  MAGNETIC DECL
 MDIP.deg            38.394272:  MAGNETIC DIP
 MFLD.nT          43612.476563:  MAGNETIC FIELD
 GVFD.g               1.000000:  GRAVITY FIELD
 VSDR.deg            91.860001:  VERT SEC DIRECT
 TDD .ft          11135.000000:  TOTAL DEPTH (DRILLER)
 SDEP.ft          10171.000000:  START DEPTH
 DFSL.ft              0.000000:  DISTANCE FSL
 DFWL.ft              0.000000:  DISTANCE FWL
 UTMY.m         2710911.810000:  UTM Y
 UTMX.m          644702.250000:  UTM X
 WHEW.ft              0.000000:  WELL HEAD E/W
 WHNS.ft              0.000000:  WELL HEAD N/S
 LONG.deg            52.428197:  LONGITUDE
 LATI.deg            24.507246:  LATITUDE
 TVDS.ft            118.000000:  TVDSS CORRECTN
 EKB .ft            118.000000:  KB ELEVATION
 EDF .ft            118.000000:  DF ELEVATION
 MAGU.                 1512580:  MAGUTM CHECKSUM
 VSC .                       0:  VS TO CLOSURE
~Parameter Information Block
#MNEM.UNIT       Value        Description
#---------     -----------    ---------------------------
 AV  .fpm             1.000000:  Ann Velocity 
 AVMX.fpm             1.000000:  Max Ann Veloc 
 AZIF.deg            83.830002:  Azm, Final 
 BHAT.               Mud Motor:  BHA Type 
 BS  .in             14.500000:  Bit Size 
 BSZ .in             14.500000:  Bit Size 
 BTPL.psig            1.000000:  Bit Press Loss 
 CABU.                      No:  Customer Abuse 
 CGEO.             Carey Mills:  Customer Geo 
 COMM.                     t i:  Run Comments 1 
 TCS .hr             83.600342:  Time Ciculation Ended 
 CV  .fpm             1.000000:  Crit Velocity 
 CVMX.fpm             1.000000:  Max Crit Veloc 
 DD1 .          Devinder Kumar:  Direct Drillr 1 
 DD2 .     Mohamed Gayed Barakat:  Direct Drillr 2 
 DDSV.               Mud Motor:  DD Service 
 DEFF.%              90.000000:  % Det Eff 
 DRET.      06.15.00 04-Apr-20:  Drill End Time 
 DRST.      13.57.20 31-Mar-20:  Drill Start Tim 
 DTIM.hr             56.449772:  Time Drilling 
 EDEP.ft          10171.000000:  End Depth 
 ENG1.           Denis Sobolev:  Engineer 1 
 ENG2.            Imad Youssef:  Engineer 2 
 ETIM.      23.30.00 06-Apr-20:  End Time 
 FLOI.gpm           999.999939:  Flow In 
 FLON.gpm           964.999939:  Flow In Min 
 FLOS.mptm            2.600000:  Fluid Loss 
 FLOX.gpm          1100.000000:  Flow In Max 
 DFT .                 Polymer:  Mud Type 
 HFLO.                      No:  High Flow 
 HPRE.                      No:  High Pressure 
 HTEM.                      No:  High Temp 
 HYDO.ft              0.000000:  Hydro Offset 
 IFIN.deg            26.030001:  Inc, Final 
 IMAX.deg            26.559999:  Inc Max 
 IMIN.deg            24.139999:  Inc Min 
 IMND.ft           9477.000000:  Inc Min Depth 
 IMXD.ft           9942.000000:  Inc Max Depth 
 JARR.                      No:  Jarring 
 LETM.      23.30.00 06-Apr-20:  Log End Time 
 LOST.hr                     0:  Lost Rig Time 
 LSTM.      13.57.20 31-Mar-20:  Log Start Time 
 MDCL.ppm        150000.000000:  Mud Chlorides 
 MDES.             Fresh Water:  Mud Desc 
 DFD .ppg            12.000000:  Mud Density 
 MDMN.ppg            12.000000:  Dens Mud Min 
 MDMX.ppg            12.000000:  Dens Mud Max 
 PH  .pH             10.300000:  Mud pH 
 MOIL.                      19:  Run Mud Oil % 
 MOWR.                   19 81:  Run Mud OWR 
 MSND.                       0:  Run Mud Sand % 
 MSOL.                      19:  Run Mud Solids% 
 MTV .                GeoForce:  Motor Variant 
 DFV .spqt           51.000000:  Mud Viscosity 
 MWOD.in              8.150000:  MWD Tool OD 
 MWSI.                      No:  Serv Intrp, MWD 
 OTIM.hr            106.542305:  Time Operating 
 PMAX.psig         6850.255859:  Press Op, Max 
 PV  .cP             21.000000:  Mud PV 
 RMS .ohmm            0.039000:  Mud Resistivity 
 RMCS.ohmm            0.059000:  Mud Cake Resistivity 
 MCST.degF           80.000000:  Mud Cake Sample Temperature 
 RMFS.ohmm            0.030000:  Mud Filtrate Resistivity 
 RMFT.degF           80.000000:  Mud Filtrate Sample Temperature 
 RMMT.ohmm            0.018000:  Rm @ Max Temp 
 MST .degF           80.000000:  Mud Sample Temperature 
 RUN .                    2300:  Run Number 
 RRUN.                    2300:  Rig Run Number 
 SAZI.deg           101.400002:  Azm, Start 
 SDEP.ft           9467.000000:  Start Depth 
 SIDD.                      No:  Serv Intrp, DD 
 SINC.deg            24.139999:  Inc, Start 
 STIM.      13.57.20 31-Mar-20:  Start Time 
 SVER.                9.200000:  Sperry Version 
 TDAT.ft            704.000000:  Tot Depth Attmp 
 TDDF.                      No:  Trip for DD 
 TDLG.ft            704.000000:  Tot Depth Loggd 
 TFF .                      No:  Trip for Fail 
 MRT .                     PWD:  Maximum Recorded Temperature 
 TTMX.degF          181.000000:  Max Tool Temp 
 VS01.           F1(8)90603244:  Virtual Str1 SN 
 VS02.     H2V5WGV2R(8)90604159:  Virtual Str2 SN 
 WITN.     Mohamed Sharaf el Din:  Customer Rep 
 YP  .lhf2           29.000000:  Yield Point 
~Curve Information Block
#MNEM.UNIT                 API CODE     Curve Description
#---------               -----------    ---------------------------
 DEPT.F                 00 000 000 000:  Depth
 RPTVD.ft               00 000 000 000:  ROP True Vertical Depth
 ROPA.fph               00 000 000 000:  Avg Rate of Penetration
 DGRCC.api              00 000 000 000:  DGR Comb Gamma Ray BCorr
 EWXT.hr                00 000 000 000:  EWR Formation Exp Time
 R15P.ohmm              00 000 000 000:  EWR Shallow Phase Res
 R15A.ohmm              00 000 000 000:  EWR Shallow Atten Res
 R27P.ohmm              00 000 000 000:  EWR Medium Phase Res
 R27A.ohmm              00 000 000 000:  EWR Medium Atten Res
 R39P.ohmm              00 000 000 000:  EWR Deep Phase Res
 R39A.ohmm              00 000 000 000:  EWR Deep Atten Res
 ABR .ohmm              00 000 000 000:  At-Bit Resistivity
 AFRSA.ohmm             00 000 000 000:  AFR Shallow Avg Res
 AFRDA.ohmm             00 000 000 000:  AFR Deep Avg Res
 AFXT.hr                00 000 000 000:  AFR Form Exp Time
#Other Information
#
#WARRANTY: Halliburton will use its best efforts to furnish customers with 
#accurate information and interpretations that are part of, and incident to, the services 
#provided.  However, Halliburton cannot and does not warrant the accuracy 
#or correctness of such information and interpretations.  Under no circumstances should any 
#such information or interpretation be relied upon as the sole basis for any drilling, 
#completion, production, or financial decision or any procedure involving any risk to the 
#safety of any drilling venture, drilling rig or its crew or any other third party.  The 
#Customer has full responsibility for all drilling, completion and production operation.  
#Halliburton makes no representations or warranties, either expressed or 
#implied, including, but not limited to, the implied warranties of merchantability or fitness 
#for a particular purpose, with respect to the services rendered.  In no event will 
#Halliburton be liable for failure to obtain any particular results or for 
#any damages, including, but not limited to, indirect, special or consequential damages, 
#resulting from the use of any information or interpretation provided by Halliburton.
#
~A    DEPT      RPTVD      ROPA      DGRCC     EWXT      R15P      R15A      R27P      R27A      R39P      R39A       ABR       AFRSA      AFRDA      AFXT    
# ...
   10571.0000  9623.0879   24.6169   11.6016    2.1651  112.3711   12.5300 1836.9904  200.0000 2000.0000  200.0000  2656.3901 20000.0000 16560.1133    1.7532
   10571.5000  9623.5215   24.6074   13.4171    2.1617  111.2983   13.1903 1497.1089  200.0000 2000.0000  200.0000  2650.3123 20000.0000 17133.4277    1.7533
   10572.0000  9623.9600   24.6105   12.5376    2.1584   92.7897    9.9509 1733.0740  200.0000 2000.0000  200.0000  2639.5476 20000.0000 17706.7422    1.7534
   10572.5000  9624.3867   24.7754   12.3502    2.1552   73.0141   11.0707 1573.0814  200.0000 2000.0000  200.0000  2631.4961 20000.0000 18280.0566    1.7526
   10573.0000  9624.8262   25.1721   13.7500    2.1523   84.3399   12.2760 1434.0029  200.0000 2000.0000  200.0000  2629.0413 19676.0879 18853.3711    1.7522
   10573.5000  9625.2568   25.7048   13.1394    2.1501   84.9602   13.5212 1169.6240  200.0000 2000.0000  200.0000  2624.6487 15241.7676 19426.6855    1.7523
   10574.0000  9625.6992   26.3231   13.2542    2.1482   76.1754   11.3478 1161.6411  200.0000 2000.0000  200.0000  2616.8684  8023.6533 20000.0000    1.7526
   10574.5000  9626.1299   26.5494   15.7815    2.1480   60.9144   12.2093  800.3440  200.0000 2000.0000  200.0000  2611.8701  2692.0911 17982.8457    1.7530
   10575.0000  9626.5723   26.5452   15.4481    2.1554   61.3990   13.6243 1144.0969  200.0000 2000.0000  200.0000  2581.8662  1252.5980  9194.0635    1.7526
   10575.5000  9626.9971   26.6009   15.1117    2.1580  149.7253   10.4618 1806.4036  200.0000 2000.0000  200.0000  2547.8555   981.1658  5271.9126    1.7516
   10576.0000  9627.4268   27.0561   13.1296    2.1576  215.8447    8.9004 1952.3490  200.0000 2000.0000  200.0000  2517.6572  1027.0131  4707.5400    1.7499
   10576.5000  9627.8691   27.9367   13.1315    2.1646  112.0755   12.4355 1690.4958  200.0000 2000.0000  200.0000  2495.2627  1129.3495  5420.1216    1.7461
   10577.0000  9628.2969   28.3726   13.7526    2.1744   66.2756   20.5606 1140.9031  200.0000 2000.0000  200.0000  2481.3284  1339.1322  8471.3525    1.7412
   10577.5000  9628.7480   28.4006   11.8226    2.1847   54.1880   20.1849  931.5367  200.0000 2000.0000  200.0000  2476.5962  2176.2290 15814.3857    1.7357
   10578.0000  9629.1699   28.4070   10.7149    2.1985   83.6251   13.2955  985.1198  200.0000 2000.0000  200.0000  2469.8994  5672.9043 19874.5625    1.7304
   10578.5000  9629.6084   28.4281    9.3152    2.2706   77.6990   10.5649  651.8120  200.0000 2000.0000  200.0000  2464.4089 14550.6592 20000.0000    1.7279
   10579.0000  9630.0400   28.7109    9.5492    2.6912   68.7661   22.7500  365.6410  200.0000 2000.0000  200.0000  2464.4963 19618.0742 19711.2891    1.7270
   10579.5000  9630.4902   29.6023   11.2729    2.9087   51.3014   66.9635  175.8521  200.0000 2000.0000  200.0000  2459.0791 19967.0566 19422.5762    1.7269
   10580.0000  9630.9004   29.4621   11.0322    2.9086   47.2205   60.2106  268.5998  200.0000 2000.0000  200.0000  2454.0325 19999.9629 19133.8652    1.7274
   10580.5000  9631.3418   28.8457   10.0568    2.9086   70.4038   15.6174  867.4097  200.0000 2000.0000  200.0000  2453.5554 16631.0586 18845.1543    1.7271
   10581.0000  9631.7842   29.5829    9.6287    2.9084   86.9951    8.9428  968.5670  200.0000 2000.0000  200.0000  2445.2747  3950.7847 12569.7539    1.7268
   10581.5000  9632.2324   30.0592   11.9998    2.9162   98.5113   13.0166 1225.5819  200.0000 2000.0000  200.0000  2437.1335   691.7239  2322.6682    1.7263
   10582.0000  9632.6719   27.2664   15.8080    2.9339   65.5687   12.1549  536.9677  200.0000 2000.0000  200.0000  2302.2717   263.1096   574.7066    1.7252
   10582.5000  9633.0693   23.2905   18.8850    2.9345   50.9117   13.3111  385.2386  200.0000 2000.0000  200.0000  1838.5964   179.1232   326.1969    1.7207
   10583.0000  9633.5146   23.2563   16.3350    2.9289   37.9835   15.0062  128.3307  200.0000 2000.0000  200.0000  1603.3737   172.5601   286.4853    1.7151
   10583.5000  9633.9512   25.2645   18.8528    2.9256   36.2014   10.9533  160.5415  200.0000 2000.0000  200.0000  1539.0265   174.4978   305.5480    1.7117
   10584.0000  9634.3779   25.6426   14.9901    2.9231   57.8586    9.8743  669.3705  200.0000 2000.0000  200.0000  1511.5699   194.4699   374.1832    1.7091
   10584.5000  9634.8252   26.8555   15.3446    2.9294   70.4496   10.0309  613.5513  200.0000 2000.0000  200.0000  1494.5485   290.2466   616.7592    1.7086
   10585.0000  9635.2520   27.9886   15.7913    2.9937   98.3585   11.5710 1598.4827  200.0000 2000.0000  200.0000  1487.6569   479.2725  1432.4662    1.7078
   10585.5000  9635.6875   28.2086   15.4331    3.0052   78.4234   12.0910  935.5193  200.0000 2000.0000  200.0000  1481.6058   702.2097  3377.0305    1.7067
   10586.0000  9636.1230   28.2404   13.4075    3.0038   53.4389   11.2864  524.2441  200.0000 2000.0000  200.0000  1475.9860  1141.3345  6289.7334    1.7056
   10586.5000  9636.5635   28.2317   11.4131    2.9999   55.5102   11.1760  516.3500  200.0000 2000.0000  200.0000  1472.8075  2151.0938 12436.6475    1.7046
   10587.0000  9636.9893   28.2295   10.4176    2.9955   70.2379   11.1823  766.1960  200.0000 2000.0000  200.0000  1472.1465  4757.2979 19228.0000    1.7098
   10587.5000  9637.4189   28.1978   10.5093    2.9912   74.7567   14.1677  623.5028  200.0000 2000.0000  200.0000  1471.0228 13349.1592 20000.0000    1.7200
   10588.0000  9637.8799   27.6178   10.5928    2.9854   47.1806   12.1540  177.5263  200.0000 1870.2544  200.0000  1467.2118 17296.6406 10056.4512    1.7173
   10588.5000  9638.2979   24.8173    9.7978    2.9742   32.3640    9.6292  142.1017  200.0000 1526.8933  200.0000  1457.7068  3294.6389  4431.0679    1.7195
   10589.0000  9638.7402   22.4561   11.4274    2.9634   42.0811    9.9612  417.8573  200.0000 1980.9998  200.0000  1314.1365   187.6141   603.9376    1.7253
   10589.5000  9639.1563   21.7254   13.8916    2.9703   44.6441   11.2874  448.1689  200.0000 2000.0000  200.0000  1003.6918    79.7846   207.6199    1.7312
   10590.0000  9639.5918   22.6685   14.7150    3.0658   43.9183   12.9508  426.0746  200.0000 2000.0000  200.0000   908.4033    63.1082   143.1914    1.7352
   10590.5000  9640.0176   26.0261   16.2891    3.2358   45.8892   15.5320  669.6988  200.0000 2000.0000  200.0000   888.6017    59.8567   136.3081    1.8539
   10591.0000  9640.4658   30.2893   15.5956    3.2297   52.1083   17.5752  401.3257  200.0000 2000.0000  200.0000   880.9158    72.6946   189.4960    2.3863
   10591.5000  9640.8916   33.8742   15.0343    3.2318   54.8339   13.5070  548.0900  200.0000 2000.0000  200.0000   877.2067   136.4829   367.0786    2.4560
   10592.0000  9641.3359   34.9787   15.3730    3.2352   61.1098   10.8364  301.6733  200.0000 2000.0000  200.0000   874.5121   262.1949   577.0803    2.4585
   10592.5000  9641.7676   35.1019   14.9222    3.2384   65.1131   11.7423  526.8215  200.0000 2000.0000  200.0000   871.3583   385.7303   813.1144    2.4610
   10593.0000  9642.2090   34.9799   16.9500    3.2411   70.9922   13.8988  816.5737  200.0000 2000.0000  200.0000   868.6921   462.5274  1311.7715    2.4631
   10593.5000  9642.6445   33.5413   17.3084    3.2447   56.9339   14.2320  276.2738  200.0000 2000.0000  200.0000   865.1086   249.1856  1321.6454    2.4682
   10594.0000  9643.0723   30.9017   16.2267    3.2478   51.1852   10.8298  231.1635  200.0000 2000.0000  200.0000   862.1910   205.6801  1147.6040    2.4932
   10594.5000  9643.5078   29.4090   19.2128    3.2522   73.4492   10.9962  680.6053  200.0000 2000.0000  200.0000   862.7367   336.6808  1055.1776    2.4970
   10595.0000  9643.9434   29.3047   20.0911    3.2547  152.7260   12.3384 1619.8595  200.0000 2000.0000  200.0000   871.0642   482.8956  1047.2166    2.4965
   10595.5000  9644.3701   29.2670   19.4841    3.2581  112.2573   13.0813 1482.4612  200.0000 2000.0000  200.0000   892.5280   645.7407  1408.8562    2.4960
   10596.0000  9644.8047   29.2840   21.6254    3.2605   69.8767   10.3489  828.5114  200.0000 2000.0000  200.0000   919.6041   929.2065  2264.0781    2.4959
