~Version Information
 VERS.                  2.0:   CWLS log ASCII Standard -VERSION 2.0
 WRAP.                   NO:   One line per depth step
~Well Information Block
#MNEM.UNIT     VALUE/NAME     DESCRIPTION
#---------     -----------    ---------------------------
 STRT.F             10112.0000: START DEPTH
 STOP.F             11135.0000: STOP DEPTH
 STEP.F                 0.5000: STEP DEPTH
 NULL.               -999.2500: NULL VALUE
 UNIT.                12318515:  LOGGING EQUIPMENT ID
 CNTY.             HAIR DALMAH:  COUNTY NAME
 JOBN.        AD-XX-0905995035:  JOB TICKET NUMB
 FLD .             HAIR DALMAH:  FIELD NAME
 PDAT.          Mean Sea Level:  PERMANENT DATUM
 RIG .                     PN8:  RIG NAME
 MWDS.                    ICAD:  MWD SHOP
 CTRY.     United Arab Emirates:  COUNTRY NAME
 REGN.     Middle East/North Africa:  REGION
 BASE.               Abu Dhabi:  LOGGING EQUIPMENT BASE LOCATION
 WTYP.                Deviated:  WELL TYPE
 XYGR.     UTM Zones, Northern Hemisphere, Meters:  XYGROUP
 LLGR.      Latitude/Longitude:  LLGROUP
 MDS .              Win MagUTM:  MAG DATA SOURCE
 MMDD.       05 December, 2019:  MAG DATA DATE
 MMDL.            bggm2019.dat:  MAGNETIC MODEL
 CREF.     Ellipsoid Clarke - 1880:  CART REFERENCE
 GREF.     Ellipsoid World Geodetic System :  GEO REFERENCE
 CGSY.               SS CLRK51:  CART GRID SYS
 GGSY.                      LL:  GEO GRID SYS
 CCDE.     UTM Clarke 1880 (CM 51), Meters:  CART COORD DESC
 GCDE.     Generic Lat/Long's, Degrees, -180 ==> +180:  GEO COORD DESC
 SON .        AD-XX-0905995035:  JOB NUMBER
 COMP.          ADNOC Offshore:  COMPANY
 WELL.               HD011-02D:  WELL NAME
 FTOP.          Formation Tops:  FORM TOPS DESC
 ILTD.               Lithology:  INTERP LTH DESC
 SVYD.                  Survey:  SURVEY DESC
 DMOD.             Drill Model:  DRILL MOD DESC
 HPTY.       Minimum Curvature:  HOLE POS TYPE
 NREF.                    Grid:  NORTH REFERENCE
 SPUD.               17-Feb-20:  SPUD DATE
 DATE.      06.00.00 09-Apr-20:  END TIME
 STIM.      11.40.00 06-Apr-20:  START TIME
 DMF .             Drill Floor:  DRILL MEAS FROM
 DFST.                        :  DIST FSL TEXT
 DFWT.                        :  DIST FWL TEXT
 PROV.               Abu Dhabi:  PROVINCE
 STAT.               Abu Dhabi:  STATE NAME
 API .                        :  API NUMBER
 SRVC.             Halliburton:  SERVICE COMPANY
 UWI .                        :  UNIQUE WELL IDENTIFIER
 LOC .                        :  LOCATION
 LMF .             Drill Floor:  LOG MEASURED FROM
 DEP .ft              0.000000:  DEPTH
 AGAP.ft            118.000000:  AIR GAP
 CMER.deg            51.000000:  CENTRL MERIDIAN
 MMDE.ft              0.000000:  MAGUTM CALC DEP
 APD .ft            118.000000:  DEPTH ABOVE PD
 WDMS.ft             65.000000:  WD ELEV
 EGL .ft              0.000000:  GROUND ELEVATION
 EPD .ft              0.000000:  ELEVATION
 AZTC.deg             1.750428:  AZM TOTAL CORR
 GRDC.deg             0.592532:  GRID CORRECTION
 MDEC.deg             2.342959:  MAGNETIC DECL
 MDIP.deg            38.394272:  MAGNETIC DIP
 MFLD.nT          43612.476563:  MAGNETIC FIELD
 GVFD.g               1.000000:  GRAVITY FIELD
 VSDR.deg            91.860001:  VERT SEC DIRECT
 TDD .ft          11135.000000:  TOTAL DEPTH (DRILLER)
 SDEP.ft          10171.000000:  START DEPTH
 DFSL.ft              0.000000:  DISTANCE FSL
 DFWL.ft              0.000000:  DISTANCE FWL
 UTMY.m         2710911.810000:  UTM Y
 UTMX.m          644702.250000:  UTM X
 WHEW.ft              0.000000:  WELL HEAD E/W
 WHNS.ft              0.000000:  WELL HEAD N/S
 LONG.deg            52.428197:  LONGITUDE
 LATI.deg            24.507246:  LATITUDE
 TVDS.ft            118.000000:  TVDSS CORRECTN
 EKB .ft            118.000000:  KB ELEVATION
 EDF .ft            118.000000:  DF ELEVATION
 MAGU.                 1512580:  MAGUTM CHECKSUM
 VSC .                       0:  VS TO CLOSURE
~Parameter Information Block
#MNEM.UNIT       Value        Description
#---------     -----------    ---------------------------
 AV  .fpm             1.000000:  Ann Velocity 
 AVMX.fpm             1.000000:  Max Ann Veloc 
 AZIF.deg            83.830002:  Azm, Final 
 BHAT.               Mud Motor:  BHA Type 
 BS  .in             14.500000:  Bit Size 
 BSZ .in             14.500000:  Bit Size 
 BTPL.psig            1.000000:  Bit Press Loss 
 CABU.                      No:  Customer Abuse 
 CGEO.             Carey Mills:  Customer Geo 
 COMM.                     t i:  Run Comments 1 
 TCS .hr             83.600342:  Time Ciculation Ended 
 CV  .fpm             1.000000:  Crit Velocity 
 CVMX.fpm             1.000000:  Max Crit Veloc 
 DD1 .          Devinder Kumar:  Direct Drillr 1 
 DD2 .     Mohamed Gayed Barakat:  Direct Drillr 2 
 DDSV.               Mud Motor:  DD Service 
 DEFF.%              90.000000:  % Det Eff 
 DRET.      06.15.00 04-Apr-20:  Drill End Time 
 DRST.      13.57.20 31-Mar-20:  Drill Start Tim 
 DTIM.hr             56.449772:  Time Drilling 
 EDEP.ft          10171.000000:  End Depth 
 ENG1.           Denis Sobolev:  Engineer 1 
 ENG2.            Imad Youssef:  Engineer 2 
 ETIM.      23.30.00 06-Apr-20:  End Time 
 FLOI.gpm           999.999939:  Flow In 
 FLON.gpm           964.999939:  Flow In Min 
 FLOS.mptm            2.600000:  Fluid Loss 
 FLOX.gpm          1100.000000:  Flow In Max 
 DFT .                 Polymer:  Mud Type 
 HFLO.                      No:  High Flow 
 HPRE.                      No:  High Pressure 
 HTEM.                      No:  High Temp 
 HYDO.ft              0.000000:  Hydro Offset 
 IFIN.deg            26.030001:  Inc, Final 
 IMAX.deg            26.559999:  Inc Max 
 IMIN.deg            24.139999:  Inc Min 
 IMND.ft           9477.000000:  Inc Min Depth 
 IMXD.ft           9942.000000:  Inc Max Depth 
 JARR.                      No:  Jarring 
 LETM.      23.30.00 06-Apr-20:  Log End Time 
 LOST.hr                     0:  Lost Rig Time 
 LSTM.      13.57.20 31-Mar-20:  Log Start Time 
 MDCL.ppm        150000.000000:  Mud Chlorides 
 MDES.             Fresh Water:  Mud Desc 
 DFD .ppg            12.000000:  Mud Density 
 MDMN.ppg            12.000000:  Dens Mud Min 
 MDMX.ppg            12.000000:  Dens Mud Max 
 PH  .pH             10.300000:  Mud pH 
 MOIL.                      19:  Run Mud Oil % 
 MOWR.                   19 81:  Run Mud OWR 
 MSND.                       0:  Run Mud Sand % 
 MSOL.                      19:  Run Mud Solids% 
 MTV .                GeoForce:  Motor Variant 
 DFV .spqt           51.000000:  Mud Viscosity 
 MWOD.in              8.150000:  MWD Tool OD 
 MWSI.                      No:  Serv Intrp, MWD 
 OTIM.hr            106.542305:  Time Operating 
 PMAX.psig         6850.255859:  Press Op, Max 
 PV  .cP             21.000000:  Mud PV 
 RMS .ohmm            0.039000:  Mud Resistivity 
 RMCS.ohmm            0.059000:  Mud Cake Resistivity 
 MCST.degF           80.000000:  Mud Cake Sample Temperature 
 RMFS.ohmm            0.030000:  Mud Filtrate Resistivity 
 RMFT.degF           80.000000:  Mud Filtrate Sample Temperature 
 RMMT.ohmm            0.018000:  Rm @ Max Temp 
 MST .degF           80.000000:  Mud Sample Temperature 
 RUN .                    2300:  Run Number 
 RRUN.                    2300:  Rig Run Number 
 SAZI.deg           101.400002:  Azm, Start 
 SDEP.ft           9467.000000:  Start Depth 
 SIDD.                      No:  Serv Intrp, DD 
 SINC.deg            24.139999:  Inc, Start 
 STIM.      13.57.20 31-Mar-20:  Start Time 
 SVER.                9.200000:  Sperry Version 
 TDAT.ft            704.000000:  Tot Depth Attmp 
 TDDF.                      No:  Trip for DD 
 TDLG.ft            704.000000:  Tot Depth Loggd 
 TFF .                      No:  Trip for Fail 
 MRT .                     PWD:  Maximum Recorded Temperature 
 TTMX.degF          181.000000:  Max Tool Temp 
 VS01.           F1(8)90603244:  Virtual Str1 SN 
 VS02.     H2V5WGV2R(8)90604159:  Virtual Str2 SN 
 WITN.     Mohamed Sharaf el Din:  Customer Rep 
 YP  .lhf2           29.000000:  Yield Point 
~Curve Information Block
#MNEM.UNIT                 API CODE     Curve Description
#---------               -----------    ---------------------------
 DEPT.F                 00 000 000 000:  Depth
 RPTVD.ft               00 000 000 000:  ROP True Vertical Depth
 ROPA.fph               00 000 000 000:  Avg Rate of Penetration
 DGRCC.api              00 000 000 000:  DGR Comb Gamma Ray BCorr
 EWXT.hr                00 000 000 000:  EWR Formation Exp Time
 R15P.ohmm              00 000 000 000:  EWR Shallow Phase Res
 R15A.ohmm              00 000 000 000:  EWR Shallow Atten Res
 R27P.ohmm              00 000 000 000:  EWR Medium Phase Res
 R27A.ohmm              00 000 000 000:  EWR Medium Atten Res
 R39P.ohmm              00 000 000 000:  EWR Deep Phase Res
 R39A.ohmm              00 000 000 000:  EWR Deep Atten Res
 ABR .ohmm              00 000 000 000:  At-Bit Resistivity
 AFRSA.ohmm             00 000 000 000:  AFR Shallow Avg Res
 AFRDA.ohmm             00 000 000 000:  AFR Deep Avg Res
 AFXT.hr                00 000 000 000:  AFR Form Exp Time
#Other Information
#
#WARRANTY: Halliburton will use its best efforts to furnish customers with 
#accurate information and interpretations that are part of, and incident to, the services 
#provided.  However, Halliburton cannot and does not warrant the accuracy 
#or correctness of such information and interpretations.  Under no circumstances should any 
#such information or interpretation be relied upon as the sole basis for any drilling, 
#completion, production, or financial decision or any procedure involving any risk to the 
#safety of any drilling venture, drilling rig or its crew or any other third party.  The 
#Customer has full responsibility for all drilling, completion and production operation.  
#Halliburton makes no representations or warranties, either expressed or 
#implied, including, but not limited to, the implied warranties of merchantability or fitness 
#for a particular purpose, with respect to the services rendered.  In no event will 
#Halliburton be liable for failure to obtain any particular results or for 
#any damages, including, but not limited to, indirect, special or consequential damages, 
#resulting from the use of any information or interpretation provided by Halliburton.
#
~A    DEPT      RPTVD      ROPA      DGRCC     EWXT      R15P      R15A      R27P      R27A      R39P      R39A       ABR       AFRSA      AFRDA      AFXT    
# ...
   10494.5000  9556.4824   24.2089   15.7074    2.4496   39.5730   12.1385  434.0751  200.0000 2000.0000  200.0000   186.9449   303.7438   479.8266    1.3624
   10495.0000  9556.9014   25.2962   16.0342    2.4487   66.8093   12.1434 1802.3676  200.0000 2000.0000  200.0000   190.6130   221.2576   346.1147    1.3668
   10495.5000  9557.3428   27.6751   14.4289    2.4503   80.9121   13.6348 1956.4542  200.0000 2000.0000  200.0000   202.6982   233.2007   385.8884    1.3712
   10496.0000  9557.8018   31.7832   13.5540    2.4522   70.6339   13.4599 1454.5654  200.0000 2000.0000  200.0000   222.5748   425.3051   823.3804    1.3795
   10496.5000  9558.2334   32.0184   12.0735    2.4530   58.5017   12.3699  879.3290  200.0000 2000.0000  200.0000   261.7074   977.4660  2686.4045    1.3874
   10497.0000  9558.6660   28.9414   11.0173    2.4535   55.6783   12.0256  935.5109  200.0000 2000.0000  200.0000   337.4535  2598.5564  8956.6846    1.3971
   10497.5000  9559.0947   27.3978    9.1288    2.4533   60.6427   12.5401  856.3959  200.0000 2000.0000  200.0000   459.6707 11737.1123 17157.0742    1.4483
   10498.0000  9559.5322   27.3229    9.1972    2.4527   99.1390   12.7702 1149.6337  200.0000 2000.0000  200.0000   607.3805 19647.0781 17563.2070    1.8834
   10498.5000  9559.9854   27.1705    7.6019    2.4513   76.4249   13.3261 1340.4221  200.0000 2000.0000  200.0000   746.2049 20000.0000 17969.3398    1.9849
   10499.0000  9560.4219   25.6289    9.2303    2.4489   78.2181   11.7399 1717.1862  200.0000 2000.0000  200.0000   869.3098 20000.0000 18375.4707    1.9829
   10499.5000  9560.8320   23.3390    9.4896    2.4440   70.8487    9.7110 1637.1315  200.0000 2000.0000  200.0000   948.2842 20000.0000 18781.6035    1.9780
   10500.0000  9561.2842   23.3155    8.7633    2.4399   66.1276   10.7038 1869.2748  200.0000 2000.0000  200.0000   972.9138 20000.0000 19187.7363    1.9755
   10500.5000  9561.7158   24.0345    7.8436    2.4390   75.5919   13.1636 1589.8593  200.0000 2000.0000  200.0000   977.5135 20000.0000 19593.8672    1.9724
   10501.0000  9562.1318   22.8736   10.4442    2.4361   87.1090   12.2547 1893.7340  200.0000 2000.0000  200.0000   992.6564 20000.0000 20000.0000    1.9798
   10501.5000  9562.5840   23.5900    9.0571    2.4358   84.7798   11.5726 2000.0000  200.0000 2000.0000  200.0000  1077.4922 20000.0000 20000.0000    1.9892
   10502.0000  9563.0254   26.1039    8.4581    2.4386   72.3487   10.0796 2000.0000  200.0000 2000.0000  200.0000  1277.5494 20000.0000 20000.0000    1.9889
   10502.5000  9563.4629   26.7387    9.5494    2.4405   83.7520   11.2823 1970.5040  200.0000 2000.0000  200.0000  1703.0093 20000.0000 20000.0000    1.9875
   10503.0000  9563.8906   25.3646   10.6872    2.4404   85.8874   12.5367 1908.3899  200.0000 2000.0000  200.0000  2454.3296 20000.0000 20000.0000    1.9864
   10503.5000  9564.3281   24.3670    9.8688    2.4394   79.1994    9.9788 2000.0000  200.0000 2000.0000  200.0000  3567.2983 20000.0000 20000.0000    1.9882
   10504.0000  9564.7715   24.8283   10.7940    2.4374   73.9361    9.1114 2000.0000  200.0000 2000.0000  200.0000  4317.6172 20000.0000 20000.0000    1.9885
   10504.5000  9565.1943   24.9124   11.4377    2.4354  101.3658   11.0790 2000.0000  200.0000 2000.0000  200.0000  4435.7588 20000.0000 20000.0000    1.9866
   10505.0000  9565.6445   24.9197   12.0067    2.4328   88.4797   12.0361 2000.0000  200.0000 2000.0000  200.0000  4499.9448 20000.0000 20000.0000    1.9839
   10505.5000  9566.1045   24.6199    9.8451    2.4272   93.9893   11.8079 2000.0000  200.0000 2000.0000  200.0000  4718.2231 20000.0000 20000.0000    1.9784
   10506.0000  9566.4756   21.7050   10.1674    2.4218   90.5017    9.8411 2000.0000  200.0000 2000.0000  200.0000  4995.3760 20000.0000 20000.0000    1.9726
   10506.5000  9566.9453   21.2143    9.6811    2.4195   81.5898   10.4257 1890.4203  200.0000 2000.0000  200.0000  5282.2427 20000.0000 20000.0000    1.9702
   10507.0000  9567.3828   24.7011    9.7169    2.4182   72.0425   11.6390 1656.7109  200.0000 2000.0000  200.0000  5606.7412 20000.0000 20000.0000    1.9685
   10507.5000  9567.8203   25.3357   10.9428    2.4165   70.2738   10.3798 1074.1896  200.0000 2000.0000  200.0000  5852.2212 17592.4043 11804.7979    1.9666
   10508.0000  9568.2500   25.3801   12.5568    2.4145   64.1460    9.7145  523.8560  200.0000 2000.0000  200.0000  5598.3525  3789.4919  4410.5244    1.9647
   10508.5000  9568.6895   25.3751   10.5661    2.4097   52.6076   10.4680  309.4378  200.0000 2000.0000  200.0000  4491.2417   573.5104   855.8823    1.9630
   10509.0000  9569.1211   25.1631   12.0891    2.4037   54.3179   11.8410  416.4084  200.0000 2000.0000  200.0000  4098.9165   386.7870   463.1576    1.9617
   10509.5000  9569.5518   25.9488   12.2766    2.4045   54.9658   13.8784  479.5742  200.0000 2000.0000  200.0000  3980.6082   374.5932   544.0718    1.9613
   10510.0000  9569.9922   28.0166   11.0404    2.4093   56.0116   16.8453  658.7412  200.0000 2000.0000  200.0000  3937.5701   443.9035  1467.2329    1.9616
   10510.5000  9570.4219   29.9115   12.9146    2.4179   65.6753   12.2368 1028.6160  200.0000 2000.0000  200.0000  3904.4709   860.5616  6841.3032    1.9625
   10511.0000  9570.8594   32.0132   10.5024    2.4243   90.5779   16.2840  409.4773  200.0000 2000.0000  200.0000  3861.3638  1873.1003  9815.8926    1.9645
   10511.5000  9571.3008   33.7951   10.0403    2.4268   78.0046   19.5134  872.8788  200.0000 2000.0000  200.0000  3808.0605  2411.9858  6365.1694    1.9666
   10512.0000  9571.7695   33.4453   10.1131    2.4285   66.0660   12.6540  524.0066  200.0000 2000.0000  200.0000  3774.3325  3707.8899  7730.3369    1.9686
   10512.5000  9572.1650   29.2596   12.1444    2.4270   60.4260   10.0378  325.2903  200.0000 2000.0000  200.0000  3757.9121 11583.6719 16839.1406    1.9714
   10513.0000  9572.6162   26.2068   11.8958    2.4228   75.1633   11.9142  476.8822  200.0000 2000.0000  200.0000  3743.2144 19319.3516 19975.8223    1.9719
   10513.5000  9573.0459   27.2544   10.9173    2.4175   69.4241   13.1675 1095.0763  200.0000 2000.0000  200.0000  3725.3618 15274.4209 19332.5625    1.9721
   10514.0000  9573.4756   27.5264   11.6963    2.4120   70.2803   10.9147  765.1007  200.0000 2000.0000  200.0000  3713.5181 12426.7705 15754.2227    1.9742
   10514.5000  9573.9160   28.1282   11.4680    2.4061   60.7330   14.0537  420.3852  200.0000 2000.0000  200.0000  3701.7148 17653.7344 18477.9063    1.9793
   10515.0000  9574.3574   29.0031    9.7267    2.3990   47.5665   17.9223  608.6158  200.0000 2000.0000  200.0000  3740.3435 19903.9551 19952.8262    1.9818
   10515.5000  9574.7920   29.2281    9.9765    2.3906   55.1109   12.1833 1197.6693  200.0000 2000.0000  200.0000  3850.6848 20000.0000 20000.0000    1.9842
   10516.0000  9575.2188   29.5436    8.8508    2.3825   52.8191    8.8696  805.6278  200.0000 2000.0000  200.0000  4006.7729 20000.0000 20000.0000    1.9858
   10516.5000  9575.6611   30.4636    8.6776    2.3750   64.4363    9.4018 1178.0088  200.0000 2000.0000  200.0000  4204.5303 19909.5586 19966.8438    1.9876
   10517.0000  9576.1025   30.9421    7.5592    2.3668   74.0369   10.4708 1013.2997  200.0000 2000.0000  200.0000  4383.5688 19819.1191 19933.6895    1.9894
   10517.5000  9576.5342   29.7484    8.1967    2.3581   68.5396   12.0322 1283.7445  200.0000 2000.0000  200.0000  4456.1260 19728.6777 19900.5332    1.9904
   10518.0000  9576.9795   28.0754    8.3577    2.3488   58.4302   12.9757 1891.7399  200.0000 2000.0000  200.0000  4468.4790 19638.2363 19867.3770    1.9909
   10518.5000  9577.3906   26.8815    7.0312    2.3393   85.8218   16.3792 1319.0637  200.0000 2000.0000  200.0000  4516.2993 19547.7949 19834.2207    1.9905
   10519.0000  9577.8477   27.2837    8.2440    2.3398   78.0905   14.6774 1230.8157  200.0000 2000.0000  200.0000  4654.1069 19457.3555 19801.0664    1.9902
   10519.5000  9578.2676   27.2437    9.8013    2.3411   96.6553   10.0380 1557.7621  200.0000 2000.0000  200.0000  4844.0259 19366.9141 19767.9102    1.9894
