~Version Information
 VERS.                  2.0:   CWLS log ASCII Standard -VERSION 2.0
 WRAP.                   NO:   One line per depth step
~Well Information Block
#MNEM.UNIT     VALUE/NAME     DESCRIPTION
#---------     -----------    ---------------------------
 STRT.F             14200.0000: START DEPTH
 STOP.F             16770.0000: STOP DEPTH
 STEP.F                 0.5000: STEP DEPTH
 NULL.               -999.2500: NULL VALUE
 UNIT.                12318515:  LOGGING EQUIPMENT ID
 CNTY.             HAIR DALMAH:  COUNTY NAME
 JOBN.        AD-XX-0905995035:  JOB TICKET NUMB
 FLD .             HAIR DALMAH:  FIELD NAME
 PDAT.          Mean Sea Level:  PERMANENT DATUM
 RIG .                     PN8:  RIG NAME
 MWDS.                    ICAD:  MWD SHOP
 CTRY.     United Arab Emirates:  COUNTRY NAME
 REGN.     Middle East/North Africa:  REGION
 BASE.               Abu Dhabi:  LOGGING EQUIPMENT BASE LOCATION
 WTYP.                Vertical:  WELL TYPE
 XYGR.     UTM Zones, Northern Hemisphere, Meters:  XYGROUP
 LLGR.      Latitude/Longitude:  LLGROUP
 MDS .              Win MagUTM:  MAG DATA SOURCE
 MMDD.       05 December, 2019:  MAG DATA DATE
 MMDL.            bggm2019.dat:  MAGNETIC MODEL
 CREF.     Ellipsoid Clarke - 1880:  CART REFERENCE
 GREF.     Ellipsoid World Geodetic System :  GEO REFERENCE
 CGSY.               SS CLRK51:  CART GRID SYS
 GGSY.                      LL:  GEO GRID SYS
 CCDE.     UTM Clarke 1880 (CM 51), Meters:  CART COORD DESC
 GCDE.     Generic Lat/Long's, Degrees, -180 ==> +180:  GEO COORD DESC
 SON .        AD-XX-0905995035:  JOB NUMBER
 COMP.          ADNOC Offshore:  COMPANY
 WELL.               HD011-02D:  WELL NAME
 FTOP.          Formation Tops:  FORM TOPS DESC
 ILTD.               Lithology:  INTERP LTH DESC
 SVYD.                  Survey:  SURVEY DESC
 DMOD.             Drill Model:  DRILL MOD DESC
 HPTY.       Minimum Curvature:  HOLE POS TYPE
 NREF.                    Grid:  NORTH REFERENCE
 SPUD.               17-Feb-20:  SPUD DATE
 DATE.      21.00.00 29-Aug-20:  END TIME
 STIM.      12.00.00 26-Jul-20:  START TIME
 DMF .             Drill Floor:  DRILL MEAS FROM
 DFST.                        :  DIST FSL TEXT
 DFWT.                        :  DIST FWL TEXT
 PROV.               Abu Dhabi:  PROVINCE
 STAT.               Abu Dhabi:  STATE NAME
 API .                        :  API NUMBER
 SRVC.             Halliburton:  SERVICE COMPANY
 UWI .                        :  UNIQUE WELL IDENTIFIER
 LOC .                        :  LOCATION
 LMF .             Drill Floor:  LOG MEASURED FROM
 DEP .ft              0.000000:  DEPTH
 AGAP.ft            118.000000:  AIR GAP
 CMER.deg            51.000000:  CENTRL MERIDIAN
 MMDE.ft              0.000000:  MAGUTM CALC DEP
 APD .ft            118.000000:  DEPTH ABOVE PD
 WDMS.ft             65.000000:  WD ELEV
 EGL .ft              0.000000:  GROUND ELEVATION
 EPD .ft              0.000000:  ELEVATION
 AZTC.deg             1.750428:  AZM TOTAL CORR
 GRDC.deg             0.592532:  GRID CORRECTION
 MDEC.deg             2.342959:  MAGNETIC DECL
 MDIP.deg            38.394272:  MAGNETIC DIP
 MFLD.nT          43612.476563:  MAGNETIC FIELD
 GVFD.g               1.000000:  GRAVITY FIELD
 VSDR.deg            91.860001:  VERT SEC DIRECT
 TDD .ft          16770.000000:  TOTAL DEPTH (DRILLER)
 SDEP.ft          14436.000000:  START DEPTH
 DFSL.ft              0.000000:  DISTANCE FSL
 DFWL.ft              0.000000:  DISTANCE FWL
 UTMY.m         2710911.810000:  UTM Y
 UTMX.m          644702.250000:  UTM X
 WHEW.ft              0.000000:  WELL HEAD E/W
 WHNS.ft              0.000000:  WELL HEAD N/S
 LONG.deg            52.428197:  LONGITUDE
 LATI.deg            24.507246:  LATITUDE
 TVDS.ft            118.000000:  TVDSS CORRECTN
 EKB .ft            118.000000:  KB ELEVATION
 EDF .ft            118.000000:  DF ELEVATION
 MAGU.                 1512580:  MAGUTM CHECKSUM
 VSC .                       0:  VS TO CLOSURE
~Parameter Information Block
#MNEM.UNIT       Value        Description
#---------     -----------    ---------------------------
 AV  .fpm           484.999969:  Ann Velocity 
 AVMX.fpm           969.999939:  Max Ann Veloc 
 AZIF.deg           166.490005:  Azm, Final 
 BHAT.               Mud Motor:  BHA Type 
 BROT.°/100'          0.030000:  Build Rotating 
 BS  .in              8.375000:  Bit Size 
 BSZ .in              8.375000:  Bit Size 
 BTPL.psig          415.000000:  Bit Press Loss 
 CABU.                      No:  Customer Abuse 
 CGEO.             Carey Mills:  Customer Geo 
 COMM.                     ÜhT:  Run Comments 1 
 TCS .hr             21.141129:  Time Ciculation Ended 
 CV  .fpm           564.000000:  Crit Velocity 
 CVMX.fpm           702.000000:  Max Crit Veloc 
 DD1 .     Mohamed Gayed Barakat:  Direct Drillr 1 
 DDSV.               Mud Motor:  DD Service 
 DEFF.%              98.000000:  % Det Eff 
 DLRX.°/100'          0.100000:  Dogleg Rot Max 
 DLSO.°/100'          0.070000:  Dogleg Oriented 
 DLSX.°/100'          0.100000:  Dogleg Str Max 
 DRET.      23.59.00 10-Aug-20:  Drill End Time 
 DRST.      15.30.00 10-Aug-20:  Drill Start Tim 
 DTIM.hr              4.412436:  Time Drilling 
 EDEP.ft          15118.000000:  End Depth 
 ENG1.             Ahmed Aleem:  Engineer 1 
 ETIM.      16.00.00 11-Aug-20:  End Time 
 FLOI.gpm           550.000000:  Flow In 
 FLON.gpm           499.999969:  Flow In Min 
 FLOS.mptm            3.000000:  Fluid Loss 
 FLOX.gpm           550.000000:  Flow In Max 
 DFT .                 Polymer:  Mud Type 
 HFLO.                      No:  High Flow 
 HPRE.                      No:  High Pressure 
 HTEM.                      No:  High Temp 
 HYDO.ft              0.000000:  Hydro Offset 
 IFIN.deg             1.530000:  Inc, Final 
 IMAX.deg             1.590000:  Inc Max 
 IMIN.deg             1.560000:  Inc Min 
 IMND.ft          14992.000000:  Inc Min Depth 
 IMXD.ft          14895.000000:  Inc Max Depth 
 JARR.                      No:  Jarring 
 LETM.      23.59.00 10-Aug-20:  Log End Time 
 LOST.hr                    42:  Lost Rig Time 
 LSTM.      11.00.00 10-Aug-20:  Log Start Time 
 MDCL.ppm        140000.000000:  Mud Chlorides 
 MDES.             Fresh Water:  Mud Desc 
 DFD .ppg            12.000000:  Mud Density 
 MDMN.ppg            12.000000:  Dens Mud Min 
 MDMX.ppg            12.000000:  Dens Mud Max 
 PH  .pH             10.000000:  Mud pH 
 MOWR.                    0 83:  Run Mud OWR 
 MSND.                       0:  Run Mud Sand % 
 MSOL.                      17:  Run Mud Solids% 
 MTV .                GeoForce:  Motor Variant 
 DFV .spqt           50.000000:  Mud Viscosity 
 MWOD.in              6.900000:  MWD Tool OD 
 MWSI.                     Yes:  Serv Intrp, MWD 
 OTIM.hr             49.000000:  Time Operating 
 PMAX.psig        10491.233398:  Press Op, Max 
 PV  .cP             22.000000:  Mud PV 
 RMS .ohmm            0.022000:  Mud Resistivity 
 RMCS.ohmm            0.033000:  Mud Cake Resistivity 
 MCST.degF          212.000000:  Mud Cake Sample Temperature 
 RMFS.ohmm            0.020000:  Mud Filtrate Resistivity 
 RMFT.degF          212.000000:  Mud Filtrate Sample Temperature 
 RMMT.ohmm            0.018000:  Rm @ Max Temp 
 MST .degF          212.000000:  Mud Sample Temperature 
 RUN .                    4200:  Run Number 
 ROPA.fph            20.629999:  ROP Avg 
 ROPN.fph            20.000000:  ROP Min 
 ROPX.fph            31.250002:  ROP Max 
 RPMA.rpm            90.000000:  RPM Surface Avg 
 RPMN.rpm            90.000000:  RPM Surface Min 
 RPMX.rpm            90.000000:  RPM Surface Max 
 RRUN.                    4200:  Rig Run Number 
 RTIM.hr              8.500000:  Time Reaming 
 SAZI.deg           168.300003:  Azm, Start 
 SDEP.ft          14972.500000:  Start Depth 
 SIDD.                      No:  Serv Intrp, DD 
 SINC.deg             1.570000:  Inc, Start 
 SPPA.psig         3000.000000:  SPP Avg 
 SPPN.psig         3000.000000:  SPP Min 
 SPPX.psig         3000.000000:  SPP Max 
 STIM.      21.30.00 09-Aug-20:  Start Time 
 SVCS.                 DD, MWD:  Services 
 SVER.                9.200000:  Sperry Version 
 TDAT.ft            348.000000:  Tot Depth Attmp 
 TDDF.                      No:  Trip for DD 
 TDLG.ft            145.500000:  Tot Depth Loggd 
 TFF .                     Yes:  Trip for Fail 
 TQAA.f-p            22.000000:  Torque Abs Avg 
 TQAN.f-p            22.000000:  Torque Abs Min 
 TQAX.f-p            22.000000:  Torque Abs Max 
 TRRT.°/100'          1.010000:  Turn Rotating 
 MRT .                     AFR:  Maximum Recorded Temperature 
 TTMX.degF          260.000000:  Max Tool Temp 
 VS01.     AD90608221 H7V5WCOF1 (6):  Virtual Str1 SN 
 VS02.     90608207 R11GV2CO (6):  Virtual Str2 SN 
 WBMN.klb            15.000000:  WOB Min 
 WITN.         Ricardo Vasquez:  Customer Rep 
 WOBA.klb            17.500000:  WOB Avg 
 WOBX.klb            20.000000:  WOB Max 
 YP  .lhf2           35.000000:  Yield Point 
~Curve Information Block
#MNEM.UNIT                 API CODE     Curve Description
#---------               -----------    ---------------------------
 DEPT.F                 00 000 000 000:  Depth
 RPTVD.ft               00 000 000 000:  ROP True Vertical Depth
 ROPA.fph               00 000 000 000:  Avg Rate of Penetration
 DGRCC.api              00 000 000 000:  DGR Comb Gamma Ray BCorr
 ALHSI.in               00 000 000 000:  ALD Hole Size Indicator
 ABR .ohmm              00 000 000 000:  At-Bit Resistivity
 AFXT.hr                00 000 000 000:  AFR Form Exp Time
 RM  .ohmm              00 000 000 000:  AFR Medium Avg Res
 RS  .ohmm              00 000 000 000:  AFR Shallow Avg Res
 RD  .ohmm              00 000 000 000:  AFR Deep Avg Res
 TNPL.pu                00 000 000 000:  CTN Porosity Limestone
 ALCDLC.g/cc            00 000 000 000:  ALD LCRB Comp Density
 ALDCLC.g/cc            00 000 000 000:  ALD LCRB Den Correction
 ALPELC.                00 000 000 000:  ALD LCRB Pe Factor
#Other Information
#
#WARRANTY: Halliburton will use its best efforts to furnish customers with 
#accurate information and interpretations that are part of, and incident to, the services 
#provided.  However, Halliburton cannot and does not warrant the accuracy 
#or correctness of such information and interpretations.  Under no circumstances should any 
#such information or interpretation be relied upon as the sole basis for any drilling, 
#completion, production, or financial decision or any procedure involving any risk to the 
#safety of any drilling venture, drilling rig or its crew or any other third party.  The 
#Customer has full responsibility for all drilling, completion and production operation.  
#Halliburton makes no representations or warranties, either expressed or 
#implied, including, but not limited to, the implied warranties of merchantability or fitness 
#for a particular purpose, with respect to the services rendered.  In no event will 
#Halliburton be liable for failure to obtain any particular results or for 
#any damages, including, but not limited to, indirect, special or consequential damages, 
#resulting from the use of any information or interpretation provided by Halliburton.
#
~A    DEPT      RPTVD      ROPA      DGRCC     ALHSI      ABR      AFXT        RM        RS         RD       TNPL     ALCDLC    ALDCLC    ALPELC   
# ...
   14915.0000  -999.2500 -999.2500   15.6237    8.3750   92.6206  302.6757    29.4639   17.1027    37.4564    7.0519    2.7266   -0.0073    4.7306
   14915.5000  -999.2500 -999.2500   17.3143    8.3750   92.7719  302.6756    20.5537   14.4997    26.5154    7.6378    2.6486   -0.0056    4.4271
   14916.0000  -999.2500 -999.2500   12.5710    8.3750   93.0069  302.6754    30.9993   18.9262    43.6229    9.5207    2.5791   -0.0128    4.7742
   14916.5000  -999.2500 -999.2500   13.0080    8.3750   93.2108  302.6752    76.9741   31.8586   126.3757    9.9952    2.5777   -0.0152    4.9694
   14917.0000  -999.2500 -999.2500   14.4783    8.3750   93.1392  302.6750   180.2648   63.5126   373.4849    8.5445    2.6078   -0.0330    4.9349
   14917.5000  -999.2500 -999.2500   15.1864    8.3750   92.8671  302.6749   227.6295   98.8411   634.3891    5.9427    2.7201   -0.0262    5.1081
   14918.0000  -999.2500 -999.2500   18.9675    8.3750   92.6426  302.6747   198.3084  105.5227   658.0960    4.0974    2.8255   -0.0121    4.8321
   14918.5000  -999.2500 -999.2500   19.1569    8.3750   92.4864  302.6745   207.4972   99.0729   695.2841    3.6026    2.8703   -0.0043    4.6693
   14919.0000  -999.2500 -999.2500   22.6754    8.3750   92.3971  302.6742   197.7578   59.5081   499.9421    4.0685    2.8672   -0.0079    4.3953
   14919.5000  -999.2500 -999.2500   20.3812    8.4146   92.2739  302.6738    83.8313   22.0157   137.5240    5.0564    2.8511    0.0050    4.8435
   14920.0000  -999.2500 -999.2500   20.3287    8.4020   92.1154  302.6736    37.8730   15.1350    52.9620    6.2710    2.7569    0.0050    4.6079
   14920.5000  -999.2500 -999.2500   18.9412    8.3775   91.8378  302.6731    27.4922   14.3024    36.2005    8.8217    2.6460   -0.0046    4.7598
   14921.0000  -999.2500 -999.2500   17.0685    8.3750   91.5321  302.6727    39.4618   16.7880    50.8931   10.8954    2.5992   -0.0169    4.6891
   14921.5000  -999.2500 -999.2500   16.5358    8.3750   91.3763  302.6725   142.8443   39.0641   208.4846   10.3757    2.6198   -0.0173    4.8974
   14922.0000  -999.2500 -999.2500   16.5066    8.3750   91.4381  302.6722   409.7354  104.3737   782.7781    7.9165    2.7160   -0.0086    5.1341
   14922.5000  -999.2500 -999.2500   15.5584    8.3750   91.4813  302.6718   304.4457  118.8591   663.2113    5.0353    2.8080   -0.0005    4.9674
   14923.0000  -999.2500 -999.2500   15.7878    8.3804   92.0541  302.6714   103.0424   78.0315   230.3757    3.9495    2.8188    0.0007    4.6447
   14923.5000  -999.2500 -999.2500   17.4585    8.3769   92.3541  302.6712    63.9456   61.3038   145.0809    3.7847    2.7674   -0.0119    4.5396
   14924.0000  -999.2500 -999.2500   16.7102    8.3750   92.3822  302.6708   104.9017   89.5103   239.4964    4.1534    2.7584   -0.0149    5.0082
   14924.5000  -999.2500 -999.2500   16.2067    8.3750   92.6155  302.6704   203.0060  127.2559   413.6105    4.1338    2.7986   -0.0191    4.8295
   14925.0000  -999.2500 -999.2500   13.2765    8.3750   92.9855  302.6702   203.7062  117.7769   349.3457    3.5134    2.8362   -0.0138    4.6829
   14925.5000  -999.2500 -999.2500   15.9417    8.3750   93.1079  302.6700   151.3664   97.5833   237.6677    3.2467    2.8366   -0.0104    4.7928
   14926.0000  -999.2500 -999.2500   15.2507    8.3750   93.0578  302.6694   130.6163   92.0379   212.4649    3.5072    2.8283   -0.0113    4.4965
   14926.5000  -999.2500 -999.2500   19.4445    8.3750   92.9433  302.6691   138.7907   95.7223   242.2725    3.7631    2.8274   -0.0131    4.6514
   14927.0000  -999.2500 -999.2500   19.9372    8.3750   92.7638  302.6689   151.4054   96.7545   266.0840    3.6904    2.8405   -0.0113    4.5488
   14927.5000  -999.2500 -999.2500   17.3518    8.3750   92.7168  302.6685   152.3626   96.8602   253.7995    3.9872    2.8650   -0.0104    4.4861
   14928.0000  -999.2500 -999.2500   27.3980    8.3750   92.1096  302.6681   145.5016   95.2832   232.7890    4.1981    2.8474   -0.0157    4.5369
   14928.5000  -999.2500 -999.2500   31.5681    8.3750   91.4778  302.6678   136.4563   87.9234   218.9386    3.9597    2.8470   -0.0132    4.6692
   14929.0000  -999.2500 -999.2500   23.6627    8.3750   91.2138  302.6676   133.9548   82.5392   220.6415    4.1689    2.8313   -0.0180    4.4661
   14929.5000  -999.2500 -999.2500   23.9622    8.3750   91.0077  302.6673   131.8124   79.0278   223.4777    4.8353    2.8350   -0.0203    4.3275
   14930.0000  -999.2500 -999.2500   33.5535    8.3750   90.4345  302.6678   127.2362   73.0763   215.2009    4.7700    2.8514   -0.0115    4.3985
   14930.5000  -999.2500 -999.2500   25.4400    8.3750   89.8615  302.6711   125.8380   68.2820   214.7061    4.0063    2.8451   -0.0067    4.5490
   14931.0000  -999.2500 -999.2500   20.3643    8.3750   91.3894  302.6712   120.0692   66.1814   230.7925    3.8924    2.8558   -0.0020    4.7641
   14931.5000  -999.2500 -999.2500   19.5432    8.3750   93.2414  302.6992   117.7096   67.1275   260.8051    3.9372    2.8398   -0.0133    4.6083
   14932.0000  -999.2500 -999.2500   16.6631    8.3750   93.7928  302.7131   110.8696   64.8801   253.9957    3.9425    2.8290   -0.0187    4.6244
   14932.5000  -999.2500 -999.2500   14.9416    8.3750   96.3486  302.7196   101.5120   59.2182   216.8494    3.9209    2.8467   -0.0164    4.2646
   14933.0000  -999.2500 -999.2500   17.1491    8.3750   97.4150  302.7213   102.7234   55.6688   198.7379    3.9216    2.8431   -0.0197    4.2121
   14933.5000  -999.2500 -999.2500   19.8244    8.3750   97.2883  302.7009   110.8808   53.7509   198.6840    4.3409    2.8359   -0.0192    4.4010
   14934.0000  -999.2500 -999.2500   22.4123    8.3750   96.8914  302.7301    97.4319   47.5634   158.4271    4.5355    2.8440   -0.0093    4.4462
   14934.5000  -999.2500 -999.2500   18.7694    8.3750   96.3343  302.7785    58.8968   36.7874    93.4549    4.7364    2.7965   -0.0068    4.6153
   14935.0000  -999.2500 -999.2500   16.2128    8.3750   95.7828  302.8505    43.9363   31.5627    66.2825    4.9437    2.7412   -0.0158    4.7275
   14935.5000  -999.2500 -999.2500   12.2734    8.3750   95.1413  302.8535    59.0596   36.0854    74.7097    5.3481    2.7326   -0.0206    4.7194
   14936.0000  -999.2500 -999.2500   11.1315    8.3750   92.9084  302.8531   101.5721   46.7613   119.6713    5.2406    2.7735   -0.0250    4.5899
   14936.5000  -999.2500 -999.2500   14.5191    8.3750   91.1292  302.8528   129.8257   56.0521   190.1429    4.5186    2.8315   -0.0123    4.7255
   14937.0000  -999.2500 -999.2500   20.3377    8.3750   92.9533  302.8531   132.8184   61.6532   220.1868    4.2647    2.8432   -0.0134    4.5541
   14937.5000  -999.2500 -999.2500   28.2259    8.3750   91.9592  302.8577   123.6040   66.6098   215.4207    4.4536    2.8303   -0.0167    4.4781
   14938.0000  -999.2500 -999.2500   26.9450    8.3750   91.2026  302.8607   107.5944   66.9387   197.7126    4.4526    2.8200   -0.0192    4.3338
   14938.5000  -999.2500 -999.2500   20.8247    8.3750   94.1073  302.8619    92.3952   64.0928   174.0033    4.0927    2.8220   -0.0146    4.4496
   14939.0000  -999.2500 -999.2500   15.1104    8.3750   95.7149  302.8616    95.2448   66.4913   174.2211    3.9170    2.8201   -0.0253    4.1615
   14939.5000  -999.2500 -999.2500   16.0258    8.3750   95.8270  302.8614   119.3117   76.8874   198.9208    3.9158    2.8380   -0.0172    4.2101
   14940.0000  -999.2500 -999.2500   16.5967    8.3752   95.7740  302.8613   135.6378   85.1833   207.8219    3.9651    2.8426   -0.0164    4.2965
   14940.5000  -999.2500 -999.2500   15.6280    8.3769   95.4251  302.8610   126.6795   85.4576   189.5197    3.9457    2.8673   -0.0042    4.8901
   14941.0000  -999.2500 -999.2500   14.6371    8.3753   94.9180  302.8604   110.8923   82.2838   168.9568    4.1317    2.8561   -0.0090    4.5633
   14941.5000  -999.2500 -999.2500   19.1040    8.3750   94.0552  302.8603   105.7748   82.8584   165.5437    4.6513    2.8359   -0.0196    4.3689
   14942.0000  -999.2500 -999.2500   25.0316    8.3750   91.7407  302.8602   115.9410   87.9628   184.3898    4.6376    2.8348   -0.0184    4.4703
