~Version Information
 VERS.                  2.0:   CWLS log ASCII Standard -VERSION 2.0
 WRAP.                   NO:   One line per depth step
~Well Information Block
#MNEM.UNIT     VALUE/NAME     DESCRIPTION
#---------     -----------    ---------------------------
 STRT.F             14200.0000: START DEPTH
 STOP.F             16770.0000: STOP DEPTH
 STEP.F                 0.5000: STEP DEPTH
 NULL.               -999.2500: NULL VALUE
 UNIT.                12318515:  LOGGING EQUIPMENT ID
 CNTY.             HAIR DALMAH:  COUNTY NAME
 JOBN.        AD-XX-0905995035:  JOB TICKET NUMB
 FLD .             HAIR DALMAH:  FIELD NAME
 PDAT.          Mean Sea Level:  PERMANENT DATUM
 RIG .                     PN8:  RIG NAME
 MWDS.                    ICAD:  MWD SHOP
 CTRY.     United Arab Emirates:  COUNTRY NAME
 REGN.     Middle East/North Africa:  REGION
 BASE.               Abu Dhabi:  LOGGING EQUIPMENT BASE LOCATION
 WTYP.                Vertical:  WELL TYPE
 XYGR.     UTM Zones, Northern Hemisphere, Meters:  XYGROUP
 LLGR.      Latitude/Longitude:  LLGROUP
 MDS .              Win MagUTM:  MAG DATA SOURCE
 MMDD.       05 December, 2019:  MAG DATA DATE
 MMDL.            bggm2019.dat:  MAGNETIC MODEL
 CREF.     Ellipsoid Clarke - 1880:  CART REFERENCE
 GREF.     Ellipsoid World Geodetic System :  GEO REFERENCE
 CGSY.               SS CLRK51:  CART GRID SYS
 GGSY.                      LL:  GEO GRID SYS
 CCDE.     UTM Clarke 1880 (CM 51), Meters:  CART COORD DESC
 GCDE.     Generic Lat/Long's, Degrees, -180 ==> +180:  GEO COORD DESC
 SON .        AD-XX-0905995035:  JOB NUMBER
 COMP.          ADNOC Offshore:  COMPANY
 WELL.               HD011-02D:  WELL NAME
 FTOP.          Formation Tops:  FORM TOPS DESC
 ILTD.               Lithology:  INTERP LTH DESC
 SVYD.                  Survey:  SURVEY DESC
 DMOD.             Drill Model:  DRILL MOD DESC
 HPTY.       Minimum Curvature:  HOLE POS TYPE
 NREF.                    Grid:  NORTH REFERENCE
 SPUD.               17-Feb-20:  SPUD DATE
 DATE.      21.00.00 29-Aug-20:  END TIME
 STIM.      12.00.00 26-Jul-20:  START TIME
 DMF .             Drill Floor:  DRILL MEAS FROM
 DFST.                        :  DIST FSL TEXT
 DFWT.                        :  DIST FWL TEXT
 PROV.               Abu Dhabi:  PROVINCE
 STAT.               Abu Dhabi:  STATE NAME
 API .                        :  API NUMBER
 SRVC.             Halliburton:  SERVICE COMPANY
 UWI .                        :  UNIQUE WELL IDENTIFIER
 LOC .                        :  LOCATION
 LMF .             Drill Floor:  LOG MEASURED FROM
 DEP .ft              0.000000:  DEPTH
 AGAP.ft            118.000000:  AIR GAP
 CMER.deg            51.000000:  CENTRL MERIDIAN
 MMDE.ft              0.000000:  MAGUTM CALC DEP
 APD .ft            118.000000:  DEPTH ABOVE PD
 WDMS.ft             65.000000:  WD ELEV
 EGL .ft              0.000000:  GROUND ELEVATION
 EPD .ft              0.000000:  ELEVATION
 AZTC.deg             1.750428:  AZM TOTAL CORR
 GRDC.deg             0.592532:  GRID CORRECTION
 MDEC.deg             2.342959:  MAGNETIC DECL
 MDIP.deg            38.394272:  MAGNETIC DIP
 MFLD.nT          43612.476563:  MAGNETIC FIELD
 GVFD.g               1.000000:  GRAVITY FIELD
 VSDR.deg            91.860001:  VERT SEC DIRECT
 TDD .ft          16770.000000:  TOTAL DEPTH (DRILLER)
 SDEP.ft          14436.000000:  START DEPTH
 DFSL.ft              0.000000:  DISTANCE FSL
 DFWL.ft              0.000000:  DISTANCE FWL
 UTMY.m         2710911.810000:  UTM Y
 UTMX.m          644702.250000:  UTM X
 WHEW.ft              0.000000:  WELL HEAD E/W
 WHNS.ft              0.000000:  WELL HEAD N/S
 LONG.deg            52.428197:  LONGITUDE
 LATI.deg            24.507246:  LATITUDE
 TVDS.ft            118.000000:  TVDSS CORRECTN
 EKB .ft            118.000000:  KB ELEVATION
 EDF .ft            118.000000:  DF ELEVATION
 MAGU.                 1512580:  MAGUTM CHECKSUM
 VSC .                       0:  VS TO CLOSURE
~Parameter Information Block
#MNEM.UNIT       Value        Description
#---------     -----------    ---------------------------
 AV  .fpm           484.999969:  Ann Velocity 
 AVMX.fpm           969.999939:  Max Ann Veloc 
 AZIF.deg           166.490005:  Azm, Final 
 BHAT.               Mud Motor:  BHA Type 
 BROT.°/100'          0.030000:  Build Rotating 
 BS  .in              8.375000:  Bit Size 
 BSZ .in              8.375000:  Bit Size 
 BTPL.psig          415.000000:  Bit Press Loss 
 CABU.                      No:  Customer Abuse 
 CGEO.             Carey Mills:  Customer Geo 
 COMM.                     ÜhT:  Run Comments 1 
 TCS .hr             21.141129:  Time Ciculation Ended 
 CV  .fpm           564.000000:  Crit Velocity 
 CVMX.fpm           702.000000:  Max Crit Veloc 
 DD1 .     Mohamed Gayed Barakat:  Direct Drillr 1 
 DDSV.               Mud Motor:  DD Service 
 DEFF.%              98.000000:  % Det Eff 
 DLRX.°/100'          0.100000:  Dogleg Rot Max 
 DLSO.°/100'          0.070000:  Dogleg Oriented 
 DLSX.°/100'          0.100000:  Dogleg Str Max 
 DRET.      23.59.00 10-Aug-20:  Drill End Time 
 DRST.      15.30.00 10-Aug-20:  Drill Start Tim 
 DTIM.hr              4.412436:  Time Drilling 
 EDEP.ft          15118.000000:  End Depth 
 ENG1.             Ahmed Aleem:  Engineer 1 
 ETIM.      16.00.00 11-Aug-20:  End Time 
 FLOI.gpm           550.000000:  Flow In 
 FLON.gpm           499.999969:  Flow In Min 
 FLOS.mptm            3.000000:  Fluid Loss 
 FLOX.gpm           550.000000:  Flow In Max 
 DFT .                 Polymer:  Mud Type 
 HFLO.                      No:  High Flow 
 HPRE.                      No:  High Pressure 
 HTEM.                      No:  High Temp 
 HYDO.ft              0.000000:  Hydro Offset 
 IFIN.deg             1.530000:  Inc, Final 
 IMAX.deg             1.590000:  Inc Max 
 IMIN.deg             1.560000:  Inc Min 
 IMND.ft          14992.000000:  Inc Min Depth 
 IMXD.ft          14895.000000:  Inc Max Depth 
 JARR.                      No:  Jarring 
 LETM.      23.59.00 10-Aug-20:  Log End Time 
 LOST.hr                    42:  Lost Rig Time 
 LSTM.      11.00.00 10-Aug-20:  Log Start Time 
 MDCL.ppm        140000.000000:  Mud Chlorides 
 MDES.             Fresh Water:  Mud Desc 
 DFD .ppg            12.000000:  Mud Density 
 MDMN.ppg            12.000000:  Dens Mud Min 
 MDMX.ppg            12.000000:  Dens Mud Max 
 PH  .pH             10.000000:  Mud pH 
 MOWR.                    0 83:  Run Mud OWR 
 MSND.                       0:  Run Mud Sand % 
 MSOL.                      17:  Run Mud Solids% 
 MTV .                GeoForce:  Motor Variant 
 DFV .spqt           50.000000:  Mud Viscosity 
 MWOD.in              6.900000:  MWD Tool OD 
 MWSI.                     Yes:  Serv Intrp, MWD 
 OTIM.hr             49.000000:  Time Operating 
 PMAX.psig        10491.233398:  Press Op, Max 
 PV  .cP             22.000000:  Mud PV 
 RMS .ohmm            0.022000:  Mud Resistivity 
 RMCS.ohmm            0.033000:  Mud Cake Resistivity 
 MCST.degF          212.000000:  Mud Cake Sample Temperature 
 RMFS.ohmm            0.020000:  Mud Filtrate Resistivity 
 RMFT.degF          212.000000:  Mud Filtrate Sample Temperature 
 RMMT.ohmm            0.018000:  Rm @ Max Temp 
 MST .degF          212.000000:  Mud Sample Temperature 
 RUN .                    4200:  Run Number 
 ROPA.fph            20.629999:  ROP Avg 
 ROPN.fph            20.000000:  ROP Min 
 ROPX.fph            31.250002:  ROP Max 
 RPMA.rpm            90.000000:  RPM Surface Avg 
 RPMN.rpm            90.000000:  RPM Surface Min 
 RPMX.rpm            90.000000:  RPM Surface Max 
 RRUN.                    4200:  Rig Run Number 
 RTIM.hr              8.500000:  Time Reaming 
 SAZI.deg           168.300003:  Azm, Start 
 SDEP.ft          14972.500000:  Start Depth 
 SIDD.                      No:  Serv Intrp, DD 
 SINC.deg             1.570000:  Inc, Start 
 SPPA.psig         3000.000000:  SPP Avg 
 SPPN.psig         3000.000000:  SPP Min 
 SPPX.psig         3000.000000:  SPP Max 
 STIM.      21.30.00 09-Aug-20:  Start Time 
 SVCS.                 DD, MWD:  Services 
 SVER.                9.200000:  Sperry Version 
 TDAT.ft            348.000000:  Tot Depth Attmp 
 TDDF.                      No:  Trip for DD 
 TDLG.ft            145.500000:  Tot Depth Loggd 
 TFF .                     Yes:  Trip for Fail 
 TQAA.f-p            22.000000:  Torque Abs Avg 
 TQAN.f-p            22.000000:  Torque Abs Min 
 TQAX.f-p            22.000000:  Torque Abs Max 
 TRRT.°/100'          1.010000:  Turn Rotating 
 MRT .                     AFR:  Maximum Recorded Temperature 
 TTMX.degF          260.000000:  Max Tool Temp 
 VS01.     AD90608221 H7V5WCOF1 (6):  Virtual Str1 SN 
 VS02.     90608207 R11GV2CO (6):  Virtual Str2 SN 
 WBMN.klb            15.000000:  WOB Min 
 WITN.         Ricardo Vasquez:  Customer Rep 
 WOBA.klb            17.500000:  WOB Avg 
 WOBX.klb            20.000000:  WOB Max 
 YP  .lhf2           35.000000:  Yield Point 
~Curve Information Block
#MNEM.UNIT                 API CODE     Curve Description
#---------               -----------    ---------------------------
 DEPT.F                 00 000 000 000:  Depth
 RPTVD.ft               00 000 000 000:  ROP True Vertical Depth
 ROPA.fph               00 000 000 000:  Avg Rate of Penetration
 DGRCC.api              00 000 000 000:  DGR Comb Gamma Ray BCorr
 ALHSI.in               00 000 000 000:  ALD Hole Size Indicator
 ABR .ohmm              00 000 000 000:  At-Bit Resistivity
 AFXT.hr                00 000 000 000:  AFR Form Exp Time
 RM  .ohmm              00 000 000 000:  AFR Medium Avg Res
 RS  .ohmm              00 000 000 000:  AFR Shallow Avg Res
 RD  .ohmm              00 000 000 000:  AFR Deep Avg Res
 TNPL.pu                00 000 000 000:  CTN Porosity Limestone
 ALCDLC.g/cc            00 000 000 000:  ALD LCRB Comp Density
 ALDCLC.g/cc            00 000 000 000:  ALD LCRB Den Correction
 ALPELC.                00 000 000 000:  ALD LCRB Pe Factor
#Other Information
#
#WARRANTY: Halliburton will use its best efforts to furnish customers with 
#accurate information and interpretations that are part of, and incident to, the services 
#provided.  However, Halliburton cannot and does not warrant the accuracy 
#or correctness of such information and interpretations.  Under no circumstances should any 
#such information or interpretation be relied upon as the sole basis for any drilling, 
#completion, production, or financial decision or any procedure involving any risk to the 
#safety of any drilling venture, drilling rig or its crew or any other third party.  The 
#Customer has full responsibility for all drilling, completion and production operation.  
#Halliburton makes no representations or warranties, either expressed or 
#implied, including, but not limited to, the implied warranties of merchantability or fitness 
#for a particular purpose, with respect to the services rendered.  In no event will 
#Halliburton be liable for failure to obtain any particular results or for 
#any damages, including, but not limited to, indirect, special or consequential damages, 
#resulting from the use of any information or interpretation provided by Halliburton.
#
~A    DEPT      RPTVD      ROPA      DGRCC     ALHSI      ABR      AFXT        RM        RS         RD       TNPL     ALCDLC    ALDCLC    ALPELC   
# ...
   15987.5000 14853.0488   15.7423   22.2033    8.3750  531.3468    3.4801  6036.3530  805.9974  9693.9512    0.8861    2.9017   -0.0113    4.8905
   15988.0000 14853.5449   15.7513   22.6067    8.3760  532.9327    3.4800  8574.4473 1095.0006  9696.0010    0.7504    2.9065   -0.0146    5.3565
   15988.5000 14854.0459   16.0149   21.4489    8.3821  532.0589    3.4810 10598.9941 1913.5059  9698.0508    0.4982    2.9393   -0.0047    5.1874
   15989.0000 14854.5537   16.3655   19.2049    8.3762  532.3732    3.4844 17509.2188 2598.9526  9700.0996    0.4357    2.9181   -0.0120    4.8694
   15989.5000 14855.0488   16.1480   18.8643    8.3750  535.9625    3.5138 19938.3613 2388.3469  9702.1494    0.6747    2.9137   -0.0169    5.1576
   15990.0000 14855.5479   15.7307   18.6006    8.3751  541.0172    3.5387 19906.1914 1972.5946  9704.1982    0.6833    2.9188   -0.0112    5.0444
   15990.5000 14856.0469   15.6217   16.0015    8.3756  544.1165    3.5391 15482.2012 1157.2858  9706.2480    0.9329    2.9093   -0.0063    4.8684
   15991.0000 14856.5459   15.5992   17.0602    8.3752  546.7825    3.5386  5021.3159  563.7626  9708.2979    1.4430    2.8902   -0.0107    4.6152
   15991.5000 14857.0469   15.6191   18.6092    8.3753  548.7573    3.5383  2241.3689  370.7272  9710.3467    1.7850    2.8805   -0.0148    4.6815
   15992.0000 14857.5469   15.6387   21.2707    8.3792  548.1781    3.5380  1987.4058  286.8562  9712.3965    1.8389    2.8972   -0.0062    4.9655
   15992.5000 14858.0459   15.6165   19.9641    8.3807  548.5928    3.5380  2270.5735  221.7631  9714.4453    1.7629    2.8983   -0.0038    4.8810
   15993.0000 14858.5449   15.6265   17.1228    8.3754  549.2286    3.5378  2405.3821  184.4740  9716.4951    1.9054    2.8764   -0.0139    4.7521
   15993.5000 14859.0449   15.6327   15.9257    8.3750  548.7606    3.5374  2346.2336  174.7470  9718.5449    1.9501    2.8709   -0.0180    4.7357
   15994.0000 14859.5449   15.5976   16.6832    8.3750  548.4800    3.5370  2214.6438  181.8037  9720.5938    1.8372    2.8813   -0.0106    4.8662
   15994.5000 14860.0439   15.5974   15.5793    8.3750  548.6328    3.5367  2008.4303  199.9490  9722.6436    1.8170    2.8817   -0.0123    4.7684
   15995.0000 14860.5439   15.6153   17.1987    8.3792  548.9252    3.5365  1508.5138  231.5606  9724.6924    1.8239    2.8858   -0.0117    4.7315
   15995.5000 14861.0439   15.5895   23.4910    8.3788  550.3243    3.5358  1002.1683  281.5714  6879.1621    1.9087    2.8764   -0.0066    4.5590
   15996.0000 14861.5439   15.5917   26.9576    8.3754  548.4763    3.5352  1059.1897  343.4443  5271.9707    2.1192    2.8615   -0.0122    4.4030
   15996.5000 14862.0430   15.6060   28.0488    8.3753  547.6937    3.5348  1707.0302  380.4214  5637.6450    2.0649    2.8728   -0.0104    4.7198
   15997.0000 14862.5430   15.5940   25.4340    8.3750  549.2041    3.5344  2628.3323  428.8609  5971.6533    1.7441    2.8686   -0.0136    4.7758
   15997.5000 14863.0420   15.5986   21.2722    8.3750  552.5671    3.5411  3750.8875  529.9095  6305.6616    1.3994    2.8745   -0.0123    4.8247
   15998.0000 14863.5439   15.6066   23.8206    8.3750  554.6886    3.7470  5422.1563  658.7233  6639.6699    1.0307    2.8919   -0.0108    5.1924
   15998.5000 14864.0420   15.5991   20.5734    8.3800  558.3527    3.9386 11825.6963  853.5132  6973.6782    0.6178    2.9214   -0.0015    5.4177
   15999.0000 14864.5420   15.6021   16.7896    8.3875  570.7573    3.9449 19182.9902 1142.9847  7307.6865    0.6063    2.9238    0.0015    5.4254
   15999.5000 14865.0430   15.6103   16.3999    8.3761  587.1320    3.9443 20000.0000 1199.4586  7641.6948    0.8176    2.9171   -0.0083    5.1325
   16000.0000 14865.5420   15.6124   17.2957    8.3754  601.4603    3.9423 20000.0000 1031.9580  7975.7031    0.9569    2.9090   -0.0129    5.0203
   16000.5000 14866.0410   15.6089   17.4818    8.3750  606.5884    3.9381 20000.0000  923.0549  8309.7109    0.9434    2.9084   -0.0139    4.9803
   16001.0000 14866.5420   15.6080   17.7088    8.3750  614.7654    3.9338 20000.0000  872.5096  8643.7197    1.0344    2.9046   -0.0160    5.0646
   16001.5000 14867.0410   15.6062   18.3580    8.3750  624.0195    3.9294 20000.0000  848.6109  8977.7275    0.7598    2.9228   -0.0091    5.2872
   16002.0000 14867.5400   15.5958   18.4999    8.3759  625.4238    3.9252 20000.0000  891.4349  9311.7363    0.6905    2.9205   -0.0107    5.4253
   16002.5000 14868.0391   15.5912   22.0506    8.3973  632.1965    3.9202 20000.0000  974.3313  9645.7441    0.7023    2.9356    0.0034    5.1897
   16003.0000 14868.5400   15.5865   23.8354    8.4207  647.8469    3.9142 20000.0000  981.7600  9979.7520    0.8224    2.9191    0.0101    5.2955
   16003.5000 14869.0410   15.5816   28.0289    8.4081  660.4014    3.9083 20000.0000  855.7679 10313.7607    1.1800    2.9060    0.0066    5.3041
   16004.0000 14869.5371   15.4198   31.3614    8.3793  652.0345    3.9041 20000.0000  763.7420 10647.7686    1.5499    2.8961   -0.0040    5.1403
   16004.5000 14870.0371   15.3423   36.9109    8.4493  635.8726    3.8997 20000.0000  794.9194 10981.7773    1.6489    2.9007    0.0147    5.2225
   16005.0000 14870.5381   15.5017   41.5457    8.5379  622.5259    3.8957 19945.4512  846.3466 11315.7852    1.5827    2.8966    0.0316    5.5994
   16005.5000 14871.0381   15.5880   41.0265    8.4211  616.8976    3.8918 18860.9063  962.4324 11649.7939    1.3634    2.8706    0.0048    5.6405
   16006.0000 14871.5371   15.5310   35.8483    8.3760  609.9603    3.8875 19351.8379 1222.4109 11983.8018    0.5964    2.8928   -0.0135    5.7569
   16006.5000 14872.0371   15.5540   29.3286    8.3755  607.7856    3.8839 19978.9727 1759.6274 12317.8105   -0.3356    2.9434   -0.0132    5.9132
   16007.0000 14872.5381   15.6012   16.8295    8.3792  625.5721    3.8797 20000.0000 2860.7678 12651.8184   -1.0190    2.9839   -0.0025    5.8724
   16007.5000 14873.0361   15.5821   10.2082    8.3843  657.2324    3.8761 19777.4082 3833.7388 12985.8271   -1.1745    2.9888   -0.0007    5.9345
   16008.0000 14873.5361   15.6006   10.3933    8.3785  682.9611    3.8720 19554.8164 4171.1982 13319.8350   -1.1730    2.9866   -0.0049    5.9442
   16008.5000 14874.0371   15.6026   11.6469    8.3772  717.7147    3.8683 19332.2246 4229.5186 13653.8428   -1.0897    2.9809   -0.0065    5.8107
   16009.0000 14874.5361   15.5829   12.0945    8.3796  806.7910    3.8641 19109.6348 3872.6731 13987.8516   -1.0765    2.9781   -0.0044    5.6298
   16009.5000 14875.0371   15.5934   13.0800    8.3926  946.9095    3.8600 18887.0430 3607.6992 14321.8594   -0.9417    2.9783    0.0033    5.7194
   16010.0000 14875.5361   15.6120   14.2303    8.4095 1038.0398    3.8565 18664.4512 3572.8103 14655.8682   -0.8568    2.9678    0.0073    5.6087
   16010.5000 14876.0342   15.5766   16.2043    8.4013 1108.0365    3.8523 18441.8594 3783.2585 14989.8760   -0.7739    2.9522    0.0059    5.8627
   16011.0000 14876.5361   15.5946   16.9986    8.4057 1164.8018    3.8487 18219.2676 4010.8635 15323.8848   -0.8503    2.9636    0.0072    5.9166
   16011.5000 14877.0361   15.6608   14.5196    8.3918 1180.3395    3.8448 17996.6758 4128.3804 15657.8926   -1.0779    2.9634    0.0006    5.9799
   16012.0000 14877.5342   15.6477   13.0440    8.3891 1160.1776    3.8412 17774.0859 3904.1885 15991.9014   -1.0130    2.9696    0.0007    6.0130
   16012.5000 14878.0332   15.6218   11.4249    8.3848 1095.2817    3.8373 17551.4941 3752.5442 16325.9092   -0.7496    2.9698   -0.0012    5.9762
   16013.0000 14878.5342   15.6640   13.1271    8.3899 1037.3202    3.8336 17328.9023 2871.1348 16659.9180   -0.2013    2.9573   -0.0030    5.1828
   16013.5000 14879.0332   15.6635   15.2809    8.3783 1005.7132    3.8304  9337.6680 1124.1196 16993.9258    0.7529    2.9159   -0.0085    5.0055
   16014.0000 14879.5322   15.6517   19.1954    8.3980  955.6879    3.8298  3216.4551  478.1841 17327.9336    1.4687    2.9011    0.0023    4.9517
   16014.5000 14880.0342   15.6803   24.6133    8.4137  897.5878    3.8317  2156.8201  290.5359 17661.9414    1.9602    2.8881    0.0081    4.6341
