~Version Information
 VERS.                  2.0:   CWLS log ASCII Standard -VERSION 2.0
 WRAP.                   NO:   One line per depth step
~Well Information Block
#MNEM.UNIT     VALUE/NAME     DESCRIPTION
#---------     -----------    ---------------------------
 STRT.F             10112.0000: START DEPTH
 STOP.F             11135.0000: STOP DEPTH
 STEP.F                 0.5000: STEP DEPTH
 NULL.               -999.2500: NULL VALUE
 UNIT.                12318515:  LOGGING EQUIPMENT ID
 CNTY.             HAIR DALMAH:  COUNTY NAME
 JOBN.        AD-XX-0905995035:  JOB TICKET NUMB
 FLD .             HAIR DALMAH:  FIELD NAME
 PDAT.          Mean Sea Level:  PERMANENT DATUM
 RIG .                     PN8:  RIG NAME
 MWDS.                    ICAD:  MWD SHOP
 CTRY.     United Arab Emirates:  COUNTRY NAME
 REGN.     Middle East/North Africa:  REGION
 BASE.               Abu Dhabi:  LOGGING EQUIPMENT BASE LOCATION
 WTYP.                Deviated:  WELL TYPE
 XYGR.     UTM Zones, Northern Hemisphere, Meters:  XYGROUP
 LLGR.      Latitude/Longitude:  LLGROUP
 MDS .              Win MagUTM:  MAG DATA SOURCE
 MMDD.       05 December, 2019:  MAG DATA DATE
 MMDL.            bggm2019.dat:  MAGNETIC MODEL
 CREF.     Ellipsoid Clarke - 1880:  CART REFERENCE
 GREF.     Ellipsoid World Geodetic System :  GEO REFERENCE
 CGSY.               SS CLRK51:  CART GRID SYS
 GGSY.                      LL:  GEO GRID SYS
 CCDE.     UTM Clarke 1880 (CM 51), Meters:  CART COORD DESC
 GCDE.     Generic Lat/Long's, Degrees, -180 ==> +180:  GEO COORD DESC
 SON .        AD-XX-0905995035:  JOB NUMBER
 COMP.          ADNOC Offshore:  COMPANY
 WELL.               HD011-02D:  WELL NAME
 FTOP.          Formation Tops:  FORM TOPS DESC
 ILTD.               Lithology:  INTERP LTH DESC
 SVYD.                  Survey:  SURVEY DESC
 DMOD.             Drill Model:  DRILL MOD DESC
 HPTY.       Minimum Curvature:  HOLE POS TYPE
 NREF.                    Grid:  NORTH REFERENCE
 SPUD.               17-Feb-20:  SPUD DATE
 DATE.      06.00.00 09-Apr-20:  END TIME
 STIM.      11.40.00 06-Apr-20:  START TIME
 DMF .             Drill Floor:  DRILL MEAS FROM
 DFST.                        :  DIST FSL TEXT
 DFWT.                        :  DIST FWL TEXT
 PROV.               Abu Dhabi:  PROVINCE
 STAT.               Abu Dhabi:  STATE NAME
 API .                        :  API NUMBER
 SRVC.             Halliburton:  SERVICE COMPANY
 UWI .                        :  UNIQUE WELL IDENTIFIER
 LOC .                        :  LOCATION
 LMF .             Drill Floor:  LOG MEASURED FROM
 DEP .ft              0.000000:  DEPTH
 AGAP.ft            118.000000:  AIR GAP
 CMER.deg            51.000000:  CENTRL MERIDIAN
 MMDE.ft              0.000000:  MAGUTM CALC DEP
 APD .ft            118.000000:  DEPTH ABOVE PD
 WDMS.ft             65.000000:  WD ELEV
 EGL .ft              0.000000:  GROUND ELEVATION
 EPD .ft              0.000000:  ELEVATION
 AZTC.deg             1.750428:  AZM TOTAL CORR
 GRDC.deg             0.592532:  GRID CORRECTION
 MDEC.deg             2.342959:  MAGNETIC DECL
 MDIP.deg            38.394272:  MAGNETIC DIP
 MFLD.nT          43612.476563:  MAGNETIC FIELD
 GVFD.g               1.000000:  GRAVITY FIELD
 VSDR.deg            91.860001:  VERT SEC DIRECT
 TDD .ft          11135.000000:  TOTAL DEPTH (DRILLER)
 SDEP.ft          10171.000000:  START DEPTH
 DFSL.ft              0.000000:  DISTANCE FSL
 DFWL.ft              0.000000:  DISTANCE FWL
 UTMY.m         2710911.810000:  UTM Y
 UTMX.m          644702.250000:  UTM X
 WHEW.ft              0.000000:  WELL HEAD E/W
 WHNS.ft              0.000000:  WELL HEAD N/S
 LONG.deg            52.428197:  LONGITUDE
 LATI.deg            24.507246:  LATITUDE
 TVDS.ft            118.000000:  TVDSS CORRECTN
 EKB .ft            118.000000:  KB ELEVATION
 EDF .ft            118.000000:  DF ELEVATION
 MAGU.                 1512580:  MAGUTM CHECKSUM
 VSC .                       0:  VS TO CLOSURE
~Parameter Information Block
#MNEM.UNIT       Value        Description
#---------     -----------    ---------------------------
 AV  .fpm             1.000000:  Ann Velocity 
 AVMX.fpm             1.000000:  Max Ann Veloc 
 AZIF.deg            83.830002:  Azm, Final 
 BHAT.               Mud Motor:  BHA Type 
 BS  .in             14.500000:  Bit Size 
 BSZ .in             14.500000:  Bit Size 
 BTPL.psig            1.000000:  Bit Press Loss 
 CABU.                      No:  Customer Abuse 
 CGEO.             Carey Mills:  Customer Geo 
 COMM.                     t i:  Run Comments 1 
 TCS .hr             83.600342:  Time Ciculation Ended 
 CV  .fpm             1.000000:  Crit Velocity 
 CVMX.fpm             1.000000:  Max Crit Veloc 
 DD1 .          Devinder Kumar:  Direct Drillr 1 
 DD2 .     Mohamed Gayed Barakat:  Direct Drillr 2 
 DDSV.               Mud Motor:  DD Service 
 DEFF.%              90.000000:  % Det Eff 
 DRET.      06.15.00 04-Apr-20:  Drill End Time 
 DRST.      13.57.20 31-Mar-20:  Drill Start Tim 
 DTIM.hr             56.449772:  Time Drilling 
 EDEP.ft          10171.000000:  End Depth 
 ENG1.           Denis Sobolev:  Engineer 1 
 ENG2.            Imad Youssef:  Engineer 2 
 ETIM.      23.30.00 06-Apr-20:  End Time 
 FLOI.gpm           999.999939:  Flow In 
 FLON.gpm           964.999939:  Flow In Min 
 FLOS.mptm            2.600000:  Fluid Loss 
 FLOX.gpm          1100.000000:  Flow In Max 
 DFT .                 Polymer:  Mud Type 
 HFLO.                      No:  High Flow 
 HPRE.                      No:  High Pressure 
 HTEM.                      No:  High Temp 
 HYDO.ft              0.000000:  Hydro Offset 
 IFIN.deg            26.030001:  Inc, Final 
 IMAX.deg            26.559999:  Inc Max 
 IMIN.deg            24.139999:  Inc Min 
 IMND.ft           9477.000000:  Inc Min Depth 
 IMXD.ft           9942.000000:  Inc Max Depth 
 JARR.                      No:  Jarring 
 LETM.      23.30.00 06-Apr-20:  Log End Time 
 LOST.hr                     0:  Lost Rig Time 
 LSTM.      13.57.20 31-Mar-20:  Log Start Time 
 MDCL.ppm        150000.000000:  Mud Chlorides 
 MDES.             Fresh Water:  Mud Desc 
 DFD .ppg            12.000000:  Mud Density 
 MDMN.ppg            12.000000:  Dens Mud Min 
 MDMX.ppg            12.000000:  Dens Mud Max 
 PH  .pH             10.300000:  Mud pH 
 MOIL.                      19:  Run Mud Oil % 
 MOWR.                   19 81:  Run Mud OWR 
 MSND.                       0:  Run Mud Sand % 
 MSOL.                      19:  Run Mud Solids% 
 MTV .                GeoForce:  Motor Variant 
 DFV .spqt           51.000000:  Mud Viscosity 
 MWOD.in              8.150000:  MWD Tool OD 
 MWSI.                      No:  Serv Intrp, MWD 
 OTIM.hr            106.542305:  Time Operating 
 PMAX.psig         6850.255859:  Press Op, Max 
 PV  .cP             21.000000:  Mud PV 
 RMS .ohmm            0.039000:  Mud Resistivity 
 RMCS.ohmm            0.059000:  Mud Cake Resistivity 
 MCST.degF           80.000000:  Mud Cake Sample Temperature 
 RMFS.ohmm            0.030000:  Mud Filtrate Resistivity 
 RMFT.degF           80.000000:  Mud Filtrate Sample Temperature 
 RMMT.ohmm            0.018000:  Rm @ Max Temp 
 MST .degF           80.000000:  Mud Sample Temperature 
 RUN .                    2300:  Run Number 
 RRUN.                    2300:  Rig Run Number 
 SAZI.deg           101.400002:  Azm, Start 
 SDEP.ft           9467.000000:  Start Depth 
 SIDD.                      No:  Serv Intrp, DD 
 SINC.deg            24.139999:  Inc, Start 
 STIM.      13.57.20 31-Mar-20:  Start Time 
 SVER.                9.200000:  Sperry Version 
 TDAT.ft            704.000000:  Tot Depth Attmp 
 TDDF.                      No:  Trip for DD 
 TDLG.ft            704.000000:  Tot Depth Loggd 
 TFF .                      No:  Trip for Fail 
 MRT .                     PWD:  Maximum Recorded Temperature 
 TTMX.degF          181.000000:  Max Tool Temp 
 VS01.           F1(8)90603244:  Virtual Str1 SN 
 VS02.     H2V5WGV2R(8)90604159:  Virtual Str2 SN 
 WITN.     Mohamed Sharaf el Din:  Customer Rep 
 YP  .lhf2           29.000000:  Yield Point 
~Curve Information Block
#MNEM.UNIT                 API CODE     Curve Description
#---------               -----------    ---------------------------
 DEPT.F                 00 000 000 000:  Depth
 RPTVD.ft               00 000 000 000:  ROP True Vertical Depth
 ROPA.fph               00 000 000 000:  Avg Rate of Penetration
 DGRCC.api              00 000 000 000:  DGR Comb Gamma Ray BCorr
 EWXT.hr                00 000 000 000:  EWR Formation Exp Time
 R15P.ohmm              00 000 000 000:  EWR Shallow Phase Res
 R15A.ohmm              00 000 000 000:  EWR Shallow Atten Res
 R27P.ohmm              00 000 000 000:  EWR Medium Phase Res
 R27A.ohmm              00 000 000 000:  EWR Medium Atten Res
 R39P.ohmm              00 000 000 000:  EWR Deep Phase Res
 R39A.ohmm              00 000 000 000:  EWR Deep Atten Res
 ABR .ohmm              00 000 000 000:  At-Bit Resistivity
 AFRSA.ohmm             00 000 000 000:  AFR Shallow Avg Res
 AFRDA.ohmm             00 000 000 000:  AFR Deep Avg Res
 AFXT.hr                00 000 000 000:  AFR Form Exp Time
#Other Information
#
#WARRANTY: Halliburton will use its best efforts to furnish customers with 
#accurate information and interpretations that are part of, and incident to, the services 
#provided.  However, Halliburton cannot and does not warrant the accuracy 
#or correctness of such information and interpretations.  Under no circumstances should any 
#such information or interpretation be relied upon as the sole basis for any drilling, 
#completion, production, or financial decision or any procedure involving any risk to the 
#safety of any drilling venture, drilling rig or its crew or any other third party.  The 
#Customer has full responsibility for all drilling, completion and production operation.  
#Halliburton makes no representations or warranties, either expressed or 
#implied, including, but not limited to, the implied warranties of merchantability or fitness 
#for a particular purpose, with respect to the services rendered.  In no event will 
#Halliburton be liable for failure to obtain any particular results or for 
#any damages, including, but not limited to, indirect, special or consequential damages, 
#resulting from the use of any information or interpretation provided by Halliburton.
#
~A    DEPT      RPTVD      ROPA      DGRCC     EWXT      R15P      R15A      R27P      R27A      R39P      R39A       ABR       AFRSA      AFRDA      AFXT    
# ...
   10749.5000  9778.2422   55.9224   13.5211    1.0110   39.0536   15.8781  220.6942  200.0000 2000.0000  200.0000   209.0036    57.9016   123.0229    0.7660
   10750.0000  9778.6719   57.3688   14.5027    1.0125   32.4618   13.6979  174.1517  200.0000 2000.0000  200.0000   208.9289    64.8905   141.8593    0.7676
   10750.5000  9779.1191   57.0798   14.5049    1.0138   35.3956    9.3207  237.7177  200.0000 2000.0000  200.0000   208.7608    77.8014   167.3200    0.7691
   10751.0000  9779.5439   57.0452   11.5557    1.0152   38.9727    9.5908  204.5218  200.0000 2000.0000  200.0000   210.5410    87.3811   187.4681    0.7706
   10751.5000  9779.9795   56.9951   11.8997    1.0166   42.1528   10.4010  540.2156  200.0000 2000.0000  200.0000   211.7763    82.4599   172.9850    0.7723
   10752.0000  9780.4111   57.0760   12.5003    1.0181   49.2264   10.5068 1136.9664  200.0000 2000.0000  200.0000   211.4531    77.4836   155.0560    0.7738
   10752.5000  9780.8457   57.1436   13.6581    1.0195   42.1476    9.8713  507.6040  200.0000 2000.0000  200.0000   209.4075    73.7445   141.6716    0.7753
   10753.0000  9781.2715   57.0110   14.2462    1.0207   52.6091   10.3957  451.6380  200.0000 2000.0000  200.0000   206.5290    69.6172   134.4677    0.7767
   10753.5000  9781.7207   56.9300   14.7399    1.0220   39.4277    9.5692  229.7817  200.0000 2000.0000  200.0000   204.0641    65.9468   127.1155    0.7780
   10754.0000  9782.1445   56.9377   13.4761    1.0233   40.6043   10.8077  202.2763  200.0000 2000.0000  200.0000   202.0547    64.1095   124.6458    0.7796
   10754.5000  9782.5771   56.9739   11.2690    1.0247   36.6358   11.5722  209.2582  200.0000 2000.0000  200.0000   199.7210    62.5413   126.0451    0.7810
   10755.0000  9783.0000   56.9933   13.8842    1.0261   44.2118   11.0858  254.6429  200.0000 2000.0000  200.0000   198.1155    58.3144   113.4519    0.7824
   10755.5000  9783.4541   57.0360   13.3722    1.0275   46.3181   10.6037  324.8446  200.0000 2000.0000  200.0000   197.2100    51.9949    88.6957    0.7839
   10756.0000  9783.8848   56.9239   12.2199    1.0288   48.9542    9.1626  686.3961  200.0000 2000.0000  200.0000   196.2848    52.2583    84.0505    0.7854
   10756.5000  9784.3164   57.0028   12.3212    1.0303   52.4989   11.1900  417.3184  200.0000 2000.0000  200.0000   195.5062    71.5729   119.8011    0.7870
   10757.0000  9784.7500   57.0018   14.7386    1.0316   42.6450   15.0493  216.2751  200.0000 2000.0000  200.0000   194.1750    92.9882   158.7303    0.7882
   10757.5000  9785.1738   56.9016   13.5569    1.0330   41.5149   13.9462  130.5946  200.0000 1913.8203  200.0000   192.4584    82.4458   138.5265    0.7891
   10758.0000  9785.6104   57.0030   13.1149    1.0344   45.8840   11.6720   98.4109  200.0000 1724.0350  200.0000   190.2033    72.6019   119.2734    0.7899
   10758.5000  9786.0518   56.8969   12.7853    1.0357   34.4178   18.0290  102.4231  200.0000 1992.9221  200.0000   187.8964    72.1232   116.5536    0.7906
   10759.0000  9786.4893   56.2668   12.1074    1.0368   43.7517   17.0643  131.6649  200.0000 2000.0000  200.0000   185.5942    64.8578   105.5572    0.7913
   10759.5000  9786.9180   54.0897   14.3831    1.0391   51.6701   13.2280  192.0609  200.0000 2000.0000  200.0000   183.1616    60.3705   101.2947    0.7916
   10760.0000  9787.3408   53.3798   12.2047    1.0549   51.8856    9.5210  161.8701  200.0000 1796.0498  200.0000   181.1884    62.9413   107.4573    0.7923
   10760.5000  9787.7852   54.4068   12.7997    1.0651   43.4844   12.1880  123.5374  200.0000 1618.0621  200.0000   180.6475    57.4636    94.1797    0.7934
   10761.0000  9788.2451   52.0026   14.0000    1.0711   31.6765   19.0525   90.6179  200.0000 1934.7860  200.0000   179.4399    48.3735    74.3958    0.7938
   10761.5000  9788.6348   44.5588   12.5157    1.0677   37.0892   15.8991  113.6592  200.0000 2000.0000  200.0000   177.1764    46.7680    69.9089    0.7920
   10762.0000  9789.0889   41.6933   12.7737    1.0722   40.8179   11.4963  133.7422  200.0000 1991.5492  200.0000   174.2503    50.5116    76.5606    0.7898
   10762.5000  9789.5244   44.1711   15.9870    1.0840   43.5582    9.9456  113.3534  200.0000 1834.7717  200.0000   172.1771    53.9880    84.1461    0.7884
   10763.0000  9789.9492   44.3367   13.9030    1.1105   38.8322   12.5766   98.8053  200.0000 1900.5083  200.0000   171.3433    57.9904    90.0306    0.7873
   10763.5000  9790.3984   44.4223   14.3041    1.1382   37.2049   15.9968   98.2513  200.0000 1938.7123  200.0000   171.5441    69.4538   106.2169    0.7863
   10764.0000  9790.8115   45.1577   15.0580    1.5406   40.3888   15.5087  108.6535  200.0000 1949.6715  200.0000   172.2069    93.3465   144.2614    0.7853
   10764.5000  9791.2637   46.5511   14.0057    2.6926   48.4845   12.7612  116.7092  200.0000 2000.0000  200.0000   173.2885   126.5920   200.5616    0.7849
   10765.0000  9791.6797   47.0408   15.9960    2.6925   38.1652   12.0677  110.5503  200.0000 1959.3062  200.0000   174.8115   131.0634   211.6979    0.7846
   10765.5000  9792.1162   47.0927   15.8384    2.7071   37.8488   11.4717   95.8232  200.0000  867.3329  200.0000   175.2834    93.7376   146.6784    0.7839
   10766.0000  9792.5557   47.1557   17.3614    2.7242   30.5990   12.0787   82.8852  200.0000  569.5332  200.0000   173.7524    63.6521    95.9546    0.7833
   10766.5000  9792.9941   46.8740   14.2568    2.7442   25.2777   12.0641   83.6192  200.0000  593.5485  200.0000   171.8321    50.4678    77.0249    0.7826
   10767.0000  9793.4180   45.7400   13.2133    2.7530   32.6239   10.2255  169.3738  200.0000 1680.1165  200.0000   171.7967    46.4086    71.2192    0.7819
   10767.5000  9793.8574   44.4453   14.7653    2.7554   35.2271   10.5883  271.2360  200.0000 2000.0000  200.0000   171.7888    49.5616    75.0043    0.7807
   10768.0000  9794.2881   44.0132   14.6542    2.7565   40.0465   13.6415  163.5506  200.0000 2000.0000  200.0000   171.1109    61.7213    97.4232    0.7794
   10768.5000  9794.7285   43.9929   17.0014    2.7569   32.4749   14.5498  110.6229  200.0000 2000.0000  200.0000   170.1448    85.7507   144.0809    0.7782
   10769.0000  9795.1563   43.8839   17.5886    2.7567   39.5631   11.3841  117.2644  200.0000 2000.0000  200.0000   168.8544   101.9142   169.8215    0.7769
   10769.5000  9795.5830   43.8003   15.7483    2.7565   39.1886   10.6840  128.8705  200.0000 1776.4724  200.0000   166.7614    85.4936   134.6733    0.7757
   10770.0000  9796.0234   43.8050   16.1900    2.7564   35.1237   11.0498  138.5640  200.0000 1803.8832  200.0000   163.7082    70.0292   107.9733    0.7745
   10770.5000  9796.4561   43.8529   15.8957    2.7562   35.6195   11.1128  124.9230  200.0000 1509.0789  200.0000   160.7221    65.9164   104.1036    0.7732
   10771.0000  9796.8857   43.9332   14.7457    2.7563   34.1194   11.7097  114.4681  200.0000 1348.7751  200.0000   158.8458    68.7205   114.2181    0.7719
   10771.5000  9797.3223   43.9773   12.4339    2.7584   39.1370   14.2080   98.8000  200.0000 1163.0093  200.0000   158.0841    69.6991   123.9278    0.7709
   10772.0000  9797.7480   43.9247   12.4230    2.7610   29.4136   13.7695   76.5778  200.0000  718.6478  200.0000   157.7792    59.8982   114.8587    0.7778
   10772.5000  9798.1914   43.9659   12.3551    2.7622   32.7723   13.4752   90.1784  200.0000  794.4399  200.0000   157.4881    46.0351    93.3619    0.8008
   10773.0000  9798.6250   43.9196   11.5995    2.7634   27.9547   12.2988   86.7786  200.0000  849.3621  200.0000   156.7550    34.1551    73.6478    0.7999
   10773.5000  9799.0576   43.9961   12.2663    2.7644   27.8783    9.9038  113.6573  200.0000 1343.5173  200.0000   155.1604    27.4864    63.2781    0.7948
   10774.0000  9799.4844   43.9992   12.7545    2.7647   29.8074    9.1215  117.5657  200.0000 1519.5425  200.0000   150.9376    25.7794    65.0387    0.7982
   10774.5000  9799.9326   43.9886   12.8633    2.7645   30.8613   11.7715  116.9089  200.0000 1575.4448  200.0000   150.2445    24.4101    70.4308    0.8083
