~Version Information
 VERS.                  2.0:   CWLS log ASCII Standard -VERSION 2.0
 WRAP.                   NO:   One line per depth step
~Well Information Block
#MNEM.UNIT     VALUE/NAME     DESCRIPTION
#---------     -----------    ---------------------------
 STRT.F             10112.0000: START DEPTH
 STOP.F             11135.0000: STOP DEPTH
 STEP.F                 0.5000: STEP DEPTH
 NULL.               -999.2500: NULL VALUE
 UNIT.                12318515:  LOGGING EQUIPMENT ID
 CNTY.             HAIR DALMAH:  COUNTY NAME
 JOBN.        AD-XX-0905995035:  JOB TICKET NUMB
 FLD .             HAIR DALMAH:  FIELD NAME
 PDAT.          Mean Sea Level:  PERMANENT DATUM
 RIG .                     PN8:  RIG NAME
 MWDS.                    ICAD:  MWD SHOP
 CTRY.     United Arab Emirates:  COUNTRY NAME
 REGN.     Middle East/North Africa:  REGION
 BASE.               Abu Dhabi:  LOGGING EQUIPMENT BASE LOCATION
 WTYP.                Deviated:  WELL TYPE
 XYGR.     UTM Zones, Northern Hemisphere, Meters:  XYGROUP
 LLGR.      Latitude/Longitude:  LLGROUP
 MDS .              Win MagUTM:  MAG DATA SOURCE
 MMDD.       05 December, 2019:  MAG DATA DATE
 MMDL.            bggm2019.dat:  MAGNETIC MODEL
 CREF.     Ellipsoid Clarke - 1880:  CART REFERENCE
 GREF.     Ellipsoid World Geodetic System :  GEO REFERENCE
 CGSY.               SS CLRK51:  CART GRID SYS
 GGSY.                      LL:  GEO GRID SYS
 CCDE.     UTM Clarke 1880 (CM 51), Meters:  CART COORD DESC
 GCDE.     Generic Lat/Long's, Degrees, -180 ==> +180:  GEO COORD DESC
 SON .        AD-XX-0905995035:  JOB NUMBER
 COMP.          ADNOC Offshore:  COMPANY
 WELL.               HD011-02D:  WELL NAME
 FTOP.          Formation Tops:  FORM TOPS DESC
 ILTD.               Lithology:  INTERP LTH DESC
 SVYD.                  Survey:  SURVEY DESC
 DMOD.             Drill Model:  DRILL MOD DESC
 HPTY.       Minimum Curvature:  HOLE POS TYPE
 NREF.                    Grid:  NORTH REFERENCE
 SPUD.               17-Feb-20:  SPUD DATE
 DATE.      06.00.00 09-Apr-20:  END TIME
 STIM.      11.40.00 06-Apr-20:  START TIME
 DMF .             Drill Floor:  DRILL MEAS FROM
 DFST.                        :  DIST FSL TEXT
 DFWT.                        :  DIST FWL TEXT
 PROV.               Abu Dhabi:  PROVINCE
 STAT.               Abu Dhabi:  STATE NAME
 API .                        :  API NUMBER
 SRVC.             Halliburton:  SERVICE COMPANY
 UWI .                        :  UNIQUE WELL IDENTIFIER
 LOC .                        :  LOCATION
 LMF .             Drill Floor:  LOG MEASURED FROM
 DEP .ft              0.000000:  DEPTH
 AGAP.ft            118.000000:  AIR GAP
 CMER.deg            51.000000:  CENTRL MERIDIAN
 MMDE.ft              0.000000:  MAGUTM CALC DEP
 APD .ft            118.000000:  DEPTH ABOVE PD
 WDMS.ft             65.000000:  WD ELEV
 EGL .ft              0.000000:  GROUND ELEVATION
 EPD .ft              0.000000:  ELEVATION
 AZTC.deg             1.750428:  AZM TOTAL CORR
 GRDC.deg             0.592532:  GRID CORRECTION
 MDEC.deg             2.342959:  MAGNETIC DECL
 MDIP.deg            38.394272:  MAGNETIC DIP
 MFLD.nT          43612.476563:  MAGNETIC FIELD
 GVFD.g               1.000000:  GRAVITY FIELD
 VSDR.deg            91.860001:  VERT SEC DIRECT
 TDD .ft          11135.000000:  TOTAL DEPTH (DRILLER)
 SDEP.ft          10171.000000:  START DEPTH
 DFSL.ft              0.000000:  DISTANCE FSL
 DFWL.ft              0.000000:  DISTANCE FWL
 UTMY.m         2710911.810000:  UTM Y
 UTMX.m          644702.250000:  UTM X
 WHEW.ft              0.000000:  WELL HEAD E/W
 WHNS.ft              0.000000:  WELL HEAD N/S
 LONG.deg            52.428197:  LONGITUDE
 LATI.deg            24.507246:  LATITUDE
 TVDS.ft            118.000000:  TVDSS CORRECTN
 EKB .ft            118.000000:  KB ELEVATION
 EDF .ft            118.000000:  DF ELEVATION
 MAGU.                 1512580:  MAGUTM CHECKSUM
 VSC .                       0:  VS TO CLOSURE
~Parameter Information Block
#MNEM.UNIT       Value        Description
#---------     -----------    ---------------------------
 AV  .fpm             1.000000:  Ann Velocity 
 AVMX.fpm             1.000000:  Max Ann Veloc 
 AZIF.deg            83.830002:  Azm, Final 
 BHAT.               Mud Motor:  BHA Type 
 BS  .in             14.500000:  Bit Size 
 BSZ .in             14.500000:  Bit Size 
 BTPL.psig            1.000000:  Bit Press Loss 
 CABU.                      No:  Customer Abuse 
 CGEO.             Carey Mills:  Customer Geo 
 COMM.                     t i:  Run Comments 1 
 TCS .hr             83.600342:  Time Ciculation Ended 
 CV  .fpm             1.000000:  Crit Velocity 
 CVMX.fpm             1.000000:  Max Crit Veloc 
 DD1 .          Devinder Kumar:  Direct Drillr 1 
 DD2 .     Mohamed Gayed Barakat:  Direct Drillr 2 
 DDSV.               Mud Motor:  DD Service 
 DEFF.%              90.000000:  % Det Eff 
 DRET.      06.15.00 04-Apr-20:  Drill End Time 
 DRST.      13.57.20 31-Mar-20:  Drill Start Tim 
 DTIM.hr             56.449772:  Time Drilling 
 EDEP.ft          10171.000000:  End Depth 
 ENG1.           Denis Sobolev:  Engineer 1 
 ENG2.            Imad Youssef:  Engineer 2 
 ETIM.      23.30.00 06-Apr-20:  End Time 
 FLOI.gpm           999.999939:  Flow In 
 FLON.gpm           964.999939:  Flow In Min 
 FLOS.mptm            2.600000:  Fluid Loss 
 FLOX.gpm          1100.000000:  Flow In Max 
 DFT .                 Polymer:  Mud Type 
 HFLO.                      No:  High Flow 
 HPRE.                      No:  High Pressure 
 HTEM.                      No:  High Temp 
 HYDO.ft              0.000000:  Hydro Offset 
 IFIN.deg            26.030001:  Inc, Final 
 IMAX.deg            26.559999:  Inc Max 
 IMIN.deg            24.139999:  Inc Min 
 IMND.ft           9477.000000:  Inc Min Depth 
 IMXD.ft           9942.000000:  Inc Max Depth 
 JARR.                      No:  Jarring 
 LETM.      23.30.00 06-Apr-20:  Log End Time 
 LOST.hr                     0:  Lost Rig Time 
 LSTM.      13.57.20 31-Mar-20:  Log Start Time 
 MDCL.ppm        150000.000000:  Mud Chlorides 
 MDES.             Fresh Water:  Mud Desc 
 DFD .ppg            12.000000:  Mud Density 
 MDMN.ppg            12.000000:  Dens Mud Min 
 MDMX.ppg            12.000000:  Dens Mud Max 
 PH  .pH             10.300000:  Mud pH 
 MOIL.                      19:  Run Mud Oil % 
 MOWR.                   19 81:  Run Mud OWR 
 MSND.                       0:  Run Mud Sand % 
 MSOL.                      19:  Run Mud Solids% 
 MTV .                GeoForce:  Motor Variant 
 DFV .spqt           51.000000:  Mud Viscosity 
 MWOD.in              8.150000:  MWD Tool OD 
 MWSI.                      No:  Serv Intrp, MWD 
 OTIM.hr            106.542305:  Time Operating 
 PMAX.psig         6850.255859:  Press Op, Max 
 PV  .cP             21.000000:  Mud PV 
 RMS .ohmm            0.039000:  Mud Resistivity 
 RMCS.ohmm            0.059000:  Mud Cake Resistivity 
 MCST.degF           80.000000:  Mud Cake Sample Temperature 
 RMFS.ohmm            0.030000:  Mud Filtrate Resistivity 
 RMFT.degF           80.000000:  Mud Filtrate Sample Temperature 
 RMMT.ohmm            0.018000:  Rm @ Max Temp 
 MST .degF           80.000000:  Mud Sample Temperature 
 RUN .                    2300:  Run Number 
 RRUN.                    2300:  Rig Run Number 
 SAZI.deg           101.400002:  Azm, Start 
 SDEP.ft           9467.000000:  Start Depth 
 SIDD.                      No:  Serv Intrp, DD 
 SINC.deg            24.139999:  Inc, Start 
 STIM.      13.57.20 31-Mar-20:  Start Time 
 SVER.                9.200000:  Sperry Version 
 TDAT.ft            704.000000:  Tot Depth Attmp 
 TDDF.                      No:  Trip for DD 
 TDLG.ft            704.000000:  Tot Depth Loggd 
 TFF .                      No:  Trip for Fail 
 MRT .                     PWD:  Maximum Recorded Temperature 
 TTMX.degF          181.000000:  Max Tool Temp 
 VS01.           F1(8)90603244:  Virtual Str1 SN 
 VS02.     H2V5WGV2R(8)90604159:  Virtual Str2 SN 
 WITN.     Mohamed Sharaf el Din:  Customer Rep 
 YP  .lhf2           29.000000:  Yield Point 
~Curve Information Block
#MNEM.UNIT                 API CODE     Curve Description
#---------               -----------    ---------------------------
 DEPT.F                 00 000 000 000:  Depth
 RPTVD.ft               00 000 000 000:  ROP True Vertical Depth
 ROPA.fph               00 000 000 000:  Avg Rate of Penetration
 DGRCC.api              00 000 000 000:  DGR Comb Gamma Ray BCorr
 EWXT.hr                00 000 000 000:  EWR Formation Exp Time
 R15P.ohmm              00 000 000 000:  EWR Shallow Phase Res
 R15A.ohmm              00 000 000 000:  EWR Shallow Atten Res
 R27P.ohmm              00 000 000 000:  EWR Medium Phase Res
 R27A.ohmm              00 000 000 000:  EWR Medium Atten Res
 R39P.ohmm              00 000 000 000:  EWR Deep Phase Res
 R39A.ohmm              00 000 000 000:  EWR Deep Atten Res
 ABR .ohmm              00 000 000 000:  At-Bit Resistivity
 AFRSA.ohmm             00 000 000 000:  AFR Shallow Avg Res
 AFRDA.ohmm             00 000 000 000:  AFR Deep Avg Res
 AFXT.hr                00 000 000 000:  AFR Form Exp Time
#Other Information
#
#WARRANTY: Halliburton will use its best efforts to furnish customers with 
#accurate information and interpretations that are part of, and incident to, the services 
#provided.  However, Halliburton cannot and does not warrant the accuracy 
#or correctness of such information and interpretations.  Under no circumstances should any 
#such information or interpretation be relied upon as the sole basis for any drilling, 
#completion, production, or financial decision or any procedure involving any risk to the 
#safety of any drilling venture, drilling rig or its crew or any other third party.  The 
#Customer has full responsibility for all drilling, completion and production operation.  
#Halliburton makes no representations or warranties, either expressed or 
#implied, including, but not limited to, the implied warranties of merchantability or fitness 
#for a particular purpose, with respect to the services rendered.  In no event will 
#Halliburton be liable for failure to obtain any particular results or for 
#any damages, including, but not limited to, indirect, special or consequential damages, 
#resulting from the use of any information or interpretation provided by Halliburton.
#
~A    DEPT      RPTVD      ROPA      DGRCC     EWXT      R15P      R15A      R27P      R27A      R39P      R39A       ABR       AFRSA      AFRDA      AFXT    
# ...
   10392.5000  9467.1582   33.1599    9.6159    1.6244   46.7769   10.5520  136.2161  200.0000 1622.4033  200.0000   181.1196 20000.0000  8167.2007    1.2099
   10393.0000  9467.5977   28.8085   10.1321    1.6411   69.8131   11.3863  593.9827  200.0000 1885.2062  200.0000   182.7790 20000.0000  9242.9102    1.2088
   10393.5000  9468.0137   25.0078    9.8946    1.8307   67.2185   11.3134  857.0541  200.0000 1830.4393  200.0000   183.5768 20000.0000 10318.6191    1.2075
   10394.0000  9468.4736   25.1717    9.1233    3.1920   55.7327   11.3815  877.9728  200.0000 2000.0000  200.0000   183.6178 20000.0000 11394.3281    1.2066
   10394.5000  9468.9033   25.7428    8.4607    3.1874   50.7574   10.1006 1355.7931  200.0000 2000.0000  200.0000   183.6112 20000.0000 12470.0371    1.2035
   10395.0000  9469.3594   24.8086    9.8098    3.1847   58.1534   10.3549 1244.0369  200.0000 2000.0000  200.0000   183.8786 20000.0000 13545.7461    1.2001
   10395.5000  9469.7734   23.3882    9.3753    3.1820   66.8101   12.0443 1178.5175  200.0000 2000.0000  200.0000   185.1965 20000.0000 14621.4551    1.1987
   10396.0000  9470.2217   22.3878   11.0684    3.1854   69.7095   10.8729 1444.8737  200.0000 2000.0000  200.0000   187.8919 20000.0000 15697.1641    1.1941
   10396.5000  9470.6602   23.1003    9.1013    3.1911   63.1394    9.6570 1295.1459  200.0000 2000.0000  200.0000   194.1757 20000.0000 16772.8730    1.1923
   10397.0000  9471.0928   22.5825   10.2038    3.1906   54.0107    9.7754 1368.9834  200.0000 2000.0000  200.0000   210.1781 20000.0000 17848.5820    1.1905
   10397.5000  9471.5244   22.2742   12.7779    3.1878   59.1176   11.2110  629.6873  200.0000 2000.0000  200.0000   252.6964 20000.0000 18924.2910    1.1888
   10398.0000  9471.9541   22.3686   12.1486    3.1877   62.4524   10.8462  690.3852  200.0000 1910.9971  191.0716   310.7970 20000.0000 20000.0000    1.1863
   10398.5000  9472.3936   24.1039   15.4022    3.1910   55.5727    8.7464  568.2915  200.0000  868.6870  111.1636   371.5977 19529.8691 18666.6934    1.1879
   10399.0000  9472.8809   28.2460   17.7298    3.1962   40.3838    8.0685  155.2964  200.0000  196.0395   50.1523   443.7652 10689.1924  5997.5068    1.1883
   10399.5000  9473.2725   29.1351   13.7072    3.1998   36.0397    8.8228   95.5696  194.1003  100.0245   40.0842   478.5768  1808.3806   116.1122    1.1887
   10400.0000  9473.7393   29.8334   14.4585    3.2036   23.0046    8.6384   45.8497  127.7426   50.1688   26.0310   491.6136   339.9347    35.1251    1.1885
   10400.5000  9474.1963   31.3680   14.9240    3.2071   14.2123    6.7307   23.0144   48.8413   25.4245   16.7672   407.0418    36.4984    18.4992    1.1887
   10401.0000  9474.5996   28.1672   17.3136    3.2097    7.8168    5.4998   11.1472   20.5427   13.0408   12.2666   198.9193     8.7991    11.9475    1.1870
   10401.5000  9475.0410   27.5464   17.8149    3.2114    4.8890    4.8177    6.8816   12.4915    8.2958    9.5300   130.0058     4.8087     9.6180    1.1893
   10402.0000  9475.4893   31.4490   15.2934    3.2131    3.7262    3.8334    5.5808    8.8799    6.6427    7.7764   111.4489     3.8759    10.3174    1.1927
   10402.5000  9475.9160   34.8544   17.0161    3.2150    2.9057    3.2838    4.3261    6.8543    5.3135    6.5332    99.9573     3.5473    13.8702    1.1967
   10403.0000  9476.3652   38.8637   17.6547    3.2145    2.4238    2.8667    3.2661    5.4496    4.3198    5.8102    93.3472     3.2050    17.2551    1.1929
   10403.5000  9476.8125   42.4093   19.3250    3.2149    2.2537    2.6735    2.7810    5.0708    3.7342    5.4451    88.3148     2.9334    17.7525    1.1898
   10404.0000  9477.2441   42.8902   14.7563    3.2164    2.1337    2.5246    2.5021    4.6975    3.3604    5.3652    85.6897     2.8082    18.7985    1.1876
   10404.5000  9477.6846   42.8210   13.5163    3.2217    2.0257    2.3727    2.3915    4.5716    3.1624    5.6107    84.3860     2.6794    18.8756    1.1921
   10405.0000  9478.1270   42.8595   15.1739    3.2254    2.2150    2.5088    2.9575    4.7696    3.9051    5.9017    83.7661     2.5621    16.5844    1.2248
   10405.5000  9478.5654   42.8365   15.5106    3.2261    3.0586    2.7188    4.9177    5.2248    6.1269    6.0410    83.4080     2.4917    13.6182    1.9778
   10406.0000  9478.9990   42.9652   15.9773    3.2246    4.1133    2.8923    7.3685    5.4989    8.6673    6.1259    83.1018     2.5704    10.8410    2.7562
   10406.5000  9479.4434   44.2271   18.6432    3.2227    5.0395    2.8180    9.6497    5.6948   10.6593    6.4085    82.8907     3.0095     9.9128    2.7866
   10407.0000  9479.8818   46.0261   18.4577    3.2214    6.5149    3.0543   12.4467    6.2408   12.6742    6.6421    82.8145     3.9548    10.6601    2.7935
   10407.5000  9480.3252   46.7498   17.1685    3.2246    9.1283    3.4366   16.7124    7.5299   15.7399    7.3299    82.7792     5.4587    12.2341    2.8023
   10408.0000  9480.7783   46.2436   18.7528    3.2301   13.7559    4.4569   23.9088   11.3692   21.3757    9.1384    82.7956     8.8534    16.8800    2.8159
   10408.5000  9481.2109   42.1031   15.2693    3.2343   18.9235    5.7140   34.1671   19.0435   29.8681   11.0020    82.8130    23.5075    41.0257    2.8337
   10409.0000  9481.6387   36.5395   14.4578    3.2352   27.7775    7.3677   60.8470   41.2734   47.2732   13.8692    82.8551    96.9959   174.7914    2.8399
   10409.5000  9482.0957   34.0419   14.5381    3.2360   32.4387    7.3926   75.7299   77.9539   66.2885   16.2881    82.7935   366.8403   680.9891    2.8443
   10410.0000  9482.5186   31.6639   15.1269    3.2368   47.4989    7.9163  109.2667  174.6205  116.1703   24.8906    82.7716  1400.3304  2884.8235    2.8502
   10410.5000  9482.9414   29.3840   16.0258    3.2357   39.5578    8.5677   93.3932  200.0000  124.8747   34.5520    82.7789  4270.6753 10647.4766    2.8537
   10411.0000  9483.3965   31.6452   13.9549    3.2325   41.3329   10.7413   93.3411  200.0000  192.4092   88.2900    82.8057  7782.0776 19190.4980    2.8598
   10411.5000  9483.8330   33.9859   12.2660    3.2310   40.8346   14.0028  109.2945  200.0000  318.1489  189.4889    82.7892 12179.7549 19732.0469    2.8644
   10412.0000  9484.3047   33.4274   11.7504    3.2297   44.5075   12.9873   88.7559  200.0000  219.8609  200.0000    82.8122  5266.6367 12628.9512    2.8703
   10412.5000  9484.7061   30.0618   15.1507    3.2259   71.9502   11.9992  100.0420  200.0000  227.2996  200.0000    82.8276   918.4531  2496.2842    2.8729
   10413.0000  9485.1611   26.8931   17.4227    3.2208   42.8539   11.2062   70.5272  200.0000  139.1718  200.0000    82.8979   391.8323   904.0262    2.8764
   10413.5000  9485.5674   27.2919   17.5717    3.2164   29.6146   14.4910   43.1576  200.0000   88.6782  200.0000    82.8727   267.5826   651.5569    2.8774
   10414.0000  9486.0293   30.5782   19.5980    3.2126   20.4821   16.2505   30.1850  200.0000   62.2086  200.0000    82.7948   115.5516   244.5467    2.8784
   10414.5000  9486.4697   33.9683   21.3743    3.2117   15.3619   17.7992   20.4060  200.0000   38.0328  200.0000    82.2437    34.1016    49.3092    2.8793
   10415.0000  9486.9072   34.0829   29.6795    3.2138   11.1256   13.3732   14.3167  200.0000   26.9239  200.0000    81.7748    18.9791    20.1193    2.8777
   10415.5000  9487.3398   34.3974   31.4420    3.2155    9.6504   12.0724   13.4594  200.0000   26.8290  200.0000    81.6482    17.9171    16.1156    2.8757
   10416.0000  9487.7813   36.2846   26.7743    3.2191   11.5247   11.2743   17.5023  200.0000   40.2321  200.0000    81.6315    18.9384    18.6109    2.8743
   10416.5000  9488.2266   38.4594   15.5619    3.2251   13.7727   13.2884   22.2060  200.0000   65.8323  200.0000    81.7152    25.7838    34.1191    2.8772
   10417.0000  9488.6807   37.2017   11.0918    3.2314   17.8036   13.1438   26.0613  200.0000   89.4400  200.0000    82.3469   195.8078  1057.4175    2.8792
   10417.5000  9489.1182   32.5630    8.5938    3.2365   24.0457   10.7772   28.8253  200.0000   85.7383  200.0000    83.4417  4335.3408 11925.0586    2.8767
