~Version Information
 VERS.                  2.0:   CWLS log ASCII Standard -VERSION 2.0
 WRAP.                   NO:   One line per depth step
~Well Information Block
#MNEM.UNIT     VALUE/NAME     DESCRIPTION
#---------     -----------    ---------------------------
 STRT.F             14200.0000: START DEPTH
 STOP.F             16770.0000: STOP DEPTH
 STEP.F                 0.5000: STEP DEPTH
 NULL.               -999.2500: NULL VALUE
 UNIT.                12318515:  LOGGING EQUIPMENT ID
 CNTY.             HAIR DALMAH:  COUNTY NAME
 JOBN.        AD-XX-0905995035:  JOB TICKET NUMB
 FLD .             HAIR DALMAH:  FIELD NAME
 PDAT.          Mean Sea Level:  PERMANENT DATUM
 RIG .                     PN8:  RIG NAME
 MWDS.                    ICAD:  MWD SHOP
 CTRY.     United Arab Emirates:  COUNTRY NAME
 REGN.     Middle East/North Africa:  REGION
 BASE.               Abu Dhabi:  LOGGING EQUIPMENT BASE LOCATION
 WTYP.                Vertical:  WELL TYPE
 XYGR.     UTM Zones, Northern Hemisphere, Meters:  XYGROUP
 LLGR.      Latitude/Longitude:  LLGROUP
 MDS .              Win MagUTM:  MAG DATA SOURCE
 MMDD.       05 December, 2019:  MAG DATA DATE
 MMDL.            bggm2019.dat:  MAGNETIC MODEL
 CREF.     Ellipsoid Clarke - 1880:  CART REFERENCE
 GREF.     Ellipsoid World Geodetic System :  GEO REFERENCE
 CGSY.               SS CLRK51:  CART GRID SYS
 GGSY.                      LL:  GEO GRID SYS
 CCDE.     UTM Clarke 1880 (CM 51), Meters:  CART COORD DESC
 GCDE.     Generic Lat/Long's, Degrees, -180 ==> +180:  GEO COORD DESC
 SON .        AD-XX-0905995035:  JOB NUMBER
 COMP.          ADNOC Offshore:  COMPANY
 WELL.               HD011-02D:  WELL NAME
 FTOP.          Formation Tops:  FORM TOPS DESC
 ILTD.               Lithology:  INTERP LTH DESC
 SVYD.                  Survey:  SURVEY DESC
 DMOD.             Drill Model:  DRILL MOD DESC
 HPTY.       Minimum Curvature:  HOLE POS TYPE
 NREF.                    Grid:  NORTH REFERENCE
 SPUD.               17-Feb-20:  SPUD DATE
 DATE.      21.00.00 29-Aug-20:  END TIME
 STIM.      12.00.00 26-Jul-20:  START TIME
 DMF .             Drill Floor:  DRILL MEAS FROM
 DFST.                        :  DIST FSL TEXT
 DFWT.                        :  DIST FWL TEXT
 PROV.               Abu Dhabi:  PROVINCE
 STAT.               Abu Dhabi:  STATE NAME
 API .                        :  API NUMBER
 SRVC.             Halliburton:  SERVICE COMPANY
 UWI .                        :  UNIQUE WELL IDENTIFIER
 LOC .                        :  LOCATION
 LMF .             Drill Floor:  LOG MEASURED FROM
 DEP .ft              0.000000:  DEPTH
 AGAP.ft            118.000000:  AIR GAP
 CMER.deg            51.000000:  CENTRL MERIDIAN
 MMDE.ft              0.000000:  MAGUTM CALC DEP
 APD .ft            118.000000:  DEPTH ABOVE PD
 WDMS.ft             65.000000:  WD ELEV
 EGL .ft              0.000000:  GROUND ELEVATION
 EPD .ft              0.000000:  ELEVATION
 AZTC.deg             1.750428:  AZM TOTAL CORR
 GRDC.deg             0.592532:  GRID CORRECTION
 MDEC.deg             2.342959:  MAGNETIC DECL
 MDIP.deg            38.394272:  MAGNETIC DIP
 MFLD.nT          43612.476563:  MAGNETIC FIELD
 GVFD.g               1.000000:  GRAVITY FIELD
 VSDR.deg            91.860001:  VERT SEC DIRECT
 TDD .ft          16770.000000:  TOTAL DEPTH (DRILLER)
 SDEP.ft          14436.000000:  START DEPTH
 DFSL.ft              0.000000:  DISTANCE FSL
 DFWL.ft              0.000000:  DISTANCE FWL
 UTMY.m         2710911.810000:  UTM Y
 UTMX.m          644702.250000:  UTM X
 WHEW.ft              0.000000:  WELL HEAD E/W
 WHNS.ft              0.000000:  WELL HEAD N/S
 LONG.deg            52.428197:  LONGITUDE
 LATI.deg            24.507246:  LATITUDE
 TVDS.ft            118.000000:  TVDSS CORRECTN
 EKB .ft            118.000000:  KB ELEVATION
 EDF .ft            118.000000:  DF ELEVATION
 MAGU.                 1512580:  MAGUTM CHECKSUM
 VSC .                       0:  VS TO CLOSURE
~Parameter Information Block
#MNEM.UNIT       Value        Description
#---------     -----------    ---------------------------
 AV  .fpm           484.999969:  Ann Velocity 
 AVMX.fpm           969.999939:  Max Ann Veloc 
 AZIF.deg           166.490005:  Azm, Final 
 BHAT.               Mud Motor:  BHA Type 
 BROT.°/100'          0.030000:  Build Rotating 
 BS  .in              8.375000:  Bit Size 
 BSZ .in              8.375000:  Bit Size 
 BTPL.psig          415.000000:  Bit Press Loss 
 CABU.                      No:  Customer Abuse 
 CGEO.             Carey Mills:  Customer Geo 
 COMM.                     ÜhT:  Run Comments 1 
 TCS .hr             21.141129:  Time Ciculation Ended 
 CV  .fpm           564.000000:  Crit Velocity 
 CVMX.fpm           702.000000:  Max Crit Veloc 
 DD1 .     Mohamed Gayed Barakat:  Direct Drillr 1 
 DDSV.               Mud Motor:  DD Service 
 DEFF.%              98.000000:  % Det Eff 
 DLRX.°/100'          0.100000:  Dogleg Rot Max 
 DLSO.°/100'          0.070000:  Dogleg Oriented 
 DLSX.°/100'          0.100000:  Dogleg Str Max 
 DRET.      23.59.00 10-Aug-20:  Drill End Time 
 DRST.      15.30.00 10-Aug-20:  Drill Start Tim 
 DTIM.hr              4.412436:  Time Drilling 
 EDEP.ft          15118.000000:  End Depth 
 ENG1.             Ahmed Aleem:  Engineer 1 
 ETIM.      16.00.00 11-Aug-20:  End Time 
 FLOI.gpm           550.000000:  Flow In 
 FLON.gpm           499.999969:  Flow In Min 
 FLOS.mptm            3.000000:  Fluid Loss 
 FLOX.gpm           550.000000:  Flow In Max 
 DFT .                 Polymer:  Mud Type 
 HFLO.                      No:  High Flow 
 HPRE.                      No:  High Pressure 
 HTEM.                      No:  High Temp 
 HYDO.ft              0.000000:  Hydro Offset 
 IFIN.deg             1.530000:  Inc, Final 
 IMAX.deg             1.590000:  Inc Max 
 IMIN.deg             1.560000:  Inc Min 
 IMND.ft          14992.000000:  Inc Min Depth 
 IMXD.ft          14895.000000:  Inc Max Depth 
 JARR.                      No:  Jarring 
 LETM.      23.59.00 10-Aug-20:  Log End Time 
 LOST.hr                    42:  Lost Rig Time 
 LSTM.      11.00.00 10-Aug-20:  Log Start Time 
 MDCL.ppm        140000.000000:  Mud Chlorides 
 MDES.             Fresh Water:  Mud Desc 
 DFD .ppg            12.000000:  Mud Density 
 MDMN.ppg            12.000000:  Dens Mud Min 
 MDMX.ppg            12.000000:  Dens Mud Max 
 PH  .pH             10.000000:  Mud pH 
 MOWR.                    0 83:  Run Mud OWR 
 MSND.                       0:  Run Mud Sand % 
 MSOL.                      17:  Run Mud Solids% 
 MTV .                GeoForce:  Motor Variant 
 DFV .spqt           50.000000:  Mud Viscosity 
 MWOD.in              6.900000:  MWD Tool OD 
 MWSI.                     Yes:  Serv Intrp, MWD 
 OTIM.hr             49.000000:  Time Operating 
 PMAX.psig        10491.233398:  Press Op, Max 
 PV  .cP             22.000000:  Mud PV 
 RMS .ohmm            0.022000:  Mud Resistivity 
 RMCS.ohmm            0.033000:  Mud Cake Resistivity 
 MCST.degF          212.000000:  Mud Cake Sample Temperature 
 RMFS.ohmm            0.020000:  Mud Filtrate Resistivity 
 RMFT.degF          212.000000:  Mud Filtrate Sample Temperature 
 RMMT.ohmm            0.018000:  Rm @ Max Temp 
 MST .degF          212.000000:  Mud Sample Temperature 
 RUN .                    4200:  Run Number 
 ROPA.fph            20.629999:  ROP Avg 
 ROPN.fph            20.000000:  ROP Min 
 ROPX.fph            31.250002:  ROP Max 
 RPMA.rpm            90.000000:  RPM Surface Avg 
 RPMN.rpm            90.000000:  RPM Surface Min 
 RPMX.rpm            90.000000:  RPM Surface Max 
 RRUN.                    4200:  Rig Run Number 
 RTIM.hr              8.500000:  Time Reaming 
 SAZI.deg           168.300003:  Azm, Start 
 SDEP.ft          14972.500000:  Start Depth 
 SIDD.                      No:  Serv Intrp, DD 
 SINC.deg             1.570000:  Inc, Start 
 SPPA.psig         3000.000000:  SPP Avg 
 SPPN.psig         3000.000000:  SPP Min 
 SPPX.psig         3000.000000:  SPP Max 
 STIM.      21.30.00 09-Aug-20:  Start Time 
 SVCS.                 DD, MWD:  Services 
 SVER.                9.200000:  Sperry Version 
 TDAT.ft            348.000000:  Tot Depth Attmp 
 TDDF.                      No:  Trip for DD 
 TDLG.ft            145.500000:  Tot Depth Loggd 
 TFF .                     Yes:  Trip for Fail 
 TQAA.f-p            22.000000:  Torque Abs Avg 
 TQAN.f-p            22.000000:  Torque Abs Min 
 TQAX.f-p            22.000000:  Torque Abs Max 
 TRRT.°/100'          1.010000:  Turn Rotating 
 MRT .                     AFR:  Maximum Recorded Temperature 
 TTMX.degF          260.000000:  Max Tool Temp 
 VS01.     AD90608221 H7V5WCOF1 (6):  Virtual Str1 SN 
 VS02.     90608207 R11GV2CO (6):  Virtual Str2 SN 
 WBMN.klb            15.000000:  WOB Min 
 WITN.         Ricardo Vasquez:  Customer Rep 
 WOBA.klb            17.500000:  WOB Avg 
 WOBX.klb            20.000000:  WOB Max 
 YP  .lhf2           35.000000:  Yield Point 
~Curve Information Block
#MNEM.UNIT                 API CODE     Curve Description
#---------               -----------    ---------------------------
 DEPT.F                 00 000 000 000:  Depth
 RPTVD.ft               00 000 000 000:  ROP True Vertical Depth
 ROPA.fph               00 000 000 000:  Avg Rate of Penetration
 DGRCC.api              00 000 000 000:  DGR Comb Gamma Ray BCorr
 ALHSI.in               00 000 000 000:  ALD Hole Size Indicator
 ABR .ohmm              00 000 000 000:  At-Bit Resistivity
 AFXT.hr                00 000 000 000:  AFR Form Exp Time
 RM  .ohmm              00 000 000 000:  AFR Medium Avg Res
 RS  .ohmm              00 000 000 000:  AFR Shallow Avg Res
 RD  .ohmm              00 000 000 000:  AFR Deep Avg Res
 TNPL.pu                00 000 000 000:  CTN Porosity Limestone
 ALCDLC.g/cc            00 000 000 000:  ALD LCRB Comp Density
 ALDCLC.g/cc            00 000 000 000:  ALD LCRB Den Correction
 ALPELC.                00 000 000 000:  ALD LCRB Pe Factor
#Other Information
#
#WARRANTY: Halliburton will use its best efforts to furnish customers with 
#accurate information and interpretations that are part of, and incident to, the services 
#provided.  However, Halliburton cannot and does not warrant the accuracy 
#or correctness of such information and interpretations.  Under no circumstances should any 
#such information or interpretation be relied upon as the sole basis for any drilling, 
#completion, production, or financial decision or any procedure involving any risk to the 
#safety of any drilling venture, drilling rig or its crew or any other third party.  The 
#Customer has full responsibility for all drilling, completion and production operation.  
#Halliburton makes no representations or warranties, either expressed or 
#implied, including, but not limited to, the implied warranties of merchantability or fitness 
#for a particular purpose, with respect to the services rendered.  In no event will 
#Halliburton be liable for failure to obtain any particular results or for 
#any damages, including, but not limited to, indirect, special or consequential damages, 
#resulting from the use of any information or interpretation provided by Halliburton.
#
~A    DEPT      RPTVD      ROPA      DGRCC     ALHSI      ABR      AFXT        RM        RS         RD       TNPL     ALCDLC    ALDCLC    ALPELC   
# ...
   15190.0000  -999.2500 -999.2500   35.3237    8.3750  125.4391  248.0458    45.6232   30.4604    55.9119    4.7441    2.7166   -0.0201    4.4333
   15190.5000  -999.2500 -999.2500   25.6844    8.3750  125.7575  248.0395    87.9984   44.7366   111.4702    5.2810    2.7319   -0.0270    4.3307
   15191.0000  -999.2500 -999.2500   27.5252    8.3750  126.6309  248.0333   243.0706   86.7453   348.1790    5.6533    2.7689   -0.0203    4.7289
   15191.5000  -999.2500 -999.2500   25.9944    8.3750  127.3950  248.0270   454.4994  160.4761   809.0228    5.5883    2.8150   -0.0158    4.4808
   15192.0000  -999.2500 -999.2500   40.3812    8.3750  128.2142  248.0207   399.9962  194.6740   826.2457    4.8416    2.8401   -0.0098    4.6011
   15192.5000  -999.2500 -999.2500   56.8744    8.3750  133.7704  248.0144   238.8682  165.3953   516.9328    4.3227    2.8330   -0.0139    4.4014
   15193.0000  -999.2500 -999.2500   52.3975    8.3750  144.6890  248.0082   167.1803  133.4966   349.4951    3.8957    2.8276   -0.0144    4.3468
   15193.5000  -999.2500 -999.2500   35.9162    8.3750  150.5714  248.0026   166.1515  129.5233   316.2415    3.6232    2.8240   -0.0131    4.3328
   15194.0000  -999.2500 -999.2500   25.7938    8.3750  150.8813  247.9969   206.0378  142.7179   341.4736    3.6002    2.8209   -0.0084    4.4966
   15194.5000  -999.2500 -999.2500   24.3729    8.3750  150.2199  247.9905   316.1076  183.4775   497.5266    3.6184    2.8216   -0.0134    4.6228
   15195.0000  -999.2500 -999.2500   26.1687    8.3750  149.8931  247.9841   412.2480  213.3963   682.4412    3.6695    2.8234   -0.0155    4.2712
   15195.5000  -999.2500 -999.2500   30.2770    8.4021  150.0310  247.9776   275.2827  164.5616   453.2524    3.5948    2.8356    0.0025    4.8208
   15196.0000  -999.2500 -999.2500   27.7849    8.4150  149.7602  247.9713   173.6538  121.7939   274.1680    3.5761    2.8508    0.0082    5.1305
   15196.5000  -999.2500 -999.2500   29.6559    8.3798  149.4956  247.9649   151.9867  111.6880   235.9559    3.7399    2.8346   -0.0063    4.6498
   15197.0000  -999.2500 -999.2500   27.8445    8.3750  148.5392  247.9581   160.8480  111.5310   246.0738    3.9819    2.8071   -0.0185    4.4247
   15197.5000  -999.2500 -999.2500   28.4038    8.3750  143.8399  247.9517   214.3749  127.7516   330.6829    3.9918    2.8054   -0.0163    4.5166
   15198.0000  -999.2500 -999.2500   31.4234    8.3750  136.3828  247.9454   288.2458  142.1308   461.2758    3.9506    2.8182   -0.0109    4.8382
   15198.5000  -999.2500 -999.2500   34.5506    8.3750  132.7683  247.9391   245.0169  120.9358   395.2325    3.9907    2.8365   -0.0100    4.9265
   15199.0000  -999.2500 -999.2500   25.9714    8.3750  135.9689  247.9325   188.8039  103.1420   314.8271    3.9489    2.8352   -0.0111    6.0559
   15199.5000  -999.2500 -999.2500   19.9702    8.3802  147.9708  247.9260   164.9413   98.7537   294.1229    3.9571    2.8548   -0.0086    5.2346
   15200.0000  -999.2500 -999.2500   24.0976    8.3783  156.9941  247.9196   142.0664   92.6570   259.0561    3.9154    2.8519   -0.0096    4.6245
   15200.5000  -999.2500 -999.2500   36.1365    8.3750  159.4037  247.9133   145.1329   94.5611   262.6622    3.6510    2.8342   -0.0175    4.4750
   15201.0000  -999.2500 -999.2500   39.8301    8.3750  162.2396  247.9070   189.1642  110.9819   348.2697    3.6385    2.8604   -0.0106    4.4164
   15201.5000  -999.2500 -999.2500   38.7404    8.3750  162.7393  247.9006   218.4528  118.5411   405.6406    3.6607    2.8586   -0.0071    4.6712
   15202.0000  -999.2500 -999.2500   46.0854    8.3750  164.8084  247.8940   190.1359  108.2453   355.9553    3.8567    2.8432   -0.0124    4.7284
   15202.5000  -999.2500 -999.2500   37.2101    8.3750  169.6070  247.8876   122.8457   81.5199   234.8906    3.8065    2.8587   -0.0085    4.6147
   15203.0000  -999.2500 -999.2500   33.3497    8.3750  170.6921  247.8811    76.8158   57.6880   152.9818    3.7557    2.8443   -0.0091    4.7224
   15203.5000  -999.2500 -999.2500   28.3547    8.3750  171.1062  247.8748    67.2294   50.2306   141.6410    3.8877    2.8346   -0.0078    4.5308
   15204.0000  -999.2500 -999.2500   27.5180    8.3750  170.1671  247.8685    82.7599   53.1456   181.6006    4.1144    2.7995   -0.0153    4.6361
   15204.5000  -999.2500 -999.2500   29.1151    8.3750  165.6019  247.8621   107.3959   52.4808   229.1591    4.4338    2.7833   -0.0131    4.7174
   15205.0000  -999.2500 -999.2500   28.3756    8.3750  161.6639  247.8555   115.5317   43.6981   220.8227    4.7446    2.8004   -0.0101    4.6483
   15205.5000  -999.2500 -999.2500   28.8046    8.3750  160.8532  247.8490   103.9408   36.8423   180.1378    4.6805    2.8117   -0.0142    4.4496
   15206.0000  -999.2500 -999.2500   29.7618    8.3751  160.1206  247.8423    79.7208   30.8002   135.7451    4.5146    2.8202   -0.0049    4.7043
   15206.5000  -999.2500 -999.2500   27.1618    8.3750  160.2275  247.8359    55.3950   25.7796    93.3051    4.7569    2.7779   -0.0134    4.6757
   15207.0000  -999.2500 -999.2500   26.4977    8.3750  159.6877  247.8295    42.2006   23.3961    68.1862    5.3704    2.7612   -0.0202    4.4849
   15207.5000  -999.2500 -999.2500   24.8128    8.3750  157.8057  247.8230    48.1089   26.1404    77.3680    5.6818    2.7700   -0.0167    4.6288
   15208.0000  -999.2500 -999.2500   24.0156    8.3750  157.7018  247.8165    92.0980   39.5748   167.2742    5.6496    2.7774   -0.0080    4.6528
   15208.5000  -999.2500 -999.2500   26.8960    8.3750  157.6661  247.8100   159.2978   61.0366   342.7184    5.8154    2.7668   -0.0102    4.8293
   15209.0000  -999.2500 -999.2500   27.5242    8.3750  160.4665  247.8035   161.3684   69.0607   378.7054    5.6763    2.7813   -0.0126    4.6936
   15209.5000  -999.2500 -999.2500   30.0021    8.3750  164.2352  247.7968   160.5665   74.9272   398.5748    4.9867    2.7968   -0.0070    4.6084
   15210.0000  -999.2500 -999.2500   27.8854    8.3750  166.2960  247.7903   198.0883   87.3694   512.2791    4.5373    2.8109   -0.0076    4.6394
   15210.5000  -999.2500 -999.2500   34.6359    8.3750  166.9328  247.7839   225.8225   92.7398   527.2045    4.7103    2.8117   -0.0091    4.5966
   15211.0000  -999.2500 -999.2500   33.8819    8.3750  166.6048  247.7772   167.3967   78.6270   295.2274    4.4557    2.8194   -0.0097    4.7351
   15211.5000  -999.2500 -999.2500   28.4783    8.3750  166.6493  247.7704   116.1181   67.0250   171.3439    4.2482    2.8239   -0.0138    4.5147
   15212.0000  -999.2500 -999.2500   24.6059    8.3750  167.0968  247.7636   114.2097   71.7417   161.0051    4.4017    2.7986   -0.0151    4.5696
   15212.5000  -999.2500 -999.2500   27.2458    8.3750  167.5031  247.7570   152.9133   86.7350   219.1546    4.3375    2.7810   -0.0124    4.3823
   15213.0000  -999.2500 -999.2500   27.2406    8.3750  167.8900  247.7504   256.3320  117.9373   417.4430    4.5289    2.7918   -0.0156    4.4386
   15213.5000  -999.2500 -999.2500   25.6891    8.3750  168.3395  247.7440   454.1194  174.8352   902.9055    4.3624    2.8046   -0.0143    4.6005
   15214.0000  -999.2500 -999.2500   28.4811    8.3750  167.2421  247.7375   442.2415  171.6089   876.2899    4.0005    2.8189   -0.0163    4.4717
   15214.5000  -999.2500 -999.2500   30.2697    8.3750  165.8990  247.7308   321.8045  146.9009   555.4077    3.6347    2.8482   -0.0137    4.5389
   15215.0000  -999.2500 -999.2500   30.9561    8.3758  165.4996  247.7243   250.5208  136.3359   405.6293    3.6879    2.8554   -0.0035    4.5212
   15215.5000  -999.2500 -999.2500   32.9641    8.3829  165.3519  247.7179   246.8379  142.5294   401.6956    3.8336    2.8300    0.0002    4.4846
   15216.0000  -999.2500 -999.2500   27.6577    8.3758  165.9022  247.7130   299.2498  158.2319   502.5217    4.1346    2.7950   -0.0114    4.5390
   15216.5000  -999.2500 -999.2500   25.3848    8.3750  166.8495  247.7335   439.7545  204.5921   867.8746    4.3492    2.7942   -0.0136    4.6513
   15217.0000  -999.2500 -999.2500   20.6472    8.3750  167.7573  247.7402   607.4332  262.3494  1686.0586    4.2238    2.8217   -0.0127    4.6478
