~Version Information
 VERS.                  2.0:   CWLS log ASCII Standard -VERSION 2.0
 WRAP.                   NO:   One line per depth step
~Well Information Block
#MNEM.UNIT     VALUE/NAME     DESCRIPTION
#---------     -----------    ---------------------------
 STRT.M              5223.0528: START DEPTH
 STOP.M              5536.2348: STOP DEPTH
 STEP.M                 0.1524: STEP DEPTH
 NULL.               -999.2500: NULL VALUE
 DFWT.                        :  DIST FWL TEXT
 DFST.                        :  DIST FSL TEXT
 DMF .             Drill Floor:  DRILL MEAS FROM
 STIM.      11.30.00 09-Jul-16:  START TIME
 DATE.      11.29.04 14-Aug-16:  END TIME
 SPUD.               17-Aug-15:  SPUD DATE
 NREF.                    Grid:  NORTH REFERENCE
 HPTY.       Minimum Curvature:  HOLE POS TYPE
 DMOD.             Drill Model:  DRILL MOD DESC
 SVYD.                  Survey:  SURVEY DESC
 ILTD.               Lithology:  INTERP LTH DESC
 FTOP.          Formation Tops:  FORM TOPS DESC
 WELL.              AF011-3D-1:  WELL NAME
 COMP.               TOTAL-ABK:  COMPANY
 SON .        AD-XX-0902156848:  JOB NUMBER
 GCDE.     Generic Lat/Long's, Degrees, -180 ==> +180:  GEO COORD DESC
 CCDE.     UTM Clarke 1880 (CM 51), Meters:  CART COORD DESC
 GGSY.                      LL:  GEO GRID SYS
 CGSY.               SS CLRK51:  CART GRID SYS
 GREF.     Ellipsoid World Geodetic System :  GEO REFERENCE
 CREF.     Ellipsoid Clarke - 1880:  CART REFERENCE
 MMDL.            bggm2016.dat:  MAGNETIC MODEL
 MMDD.            20 May, 2016:  MAG DATA DATE
 MDS .              Win MagUTM:  MAG DATA SOURCE
 LLGR.      Latitude/Longitude:  LLGROUP
 XYGR.     UTM Zones, Northern Hemisphere, Meters:  XYGROUP
 PDAT.          Mean Sea Level:  PERMANENT DATUM
 WTYP.                Deviated:  WELL TYPE
 BASE.               Abu Dhabi:  LOGGING EQUIPMENT BASE LOCATION
 REGN.     Middle East/North Africa:  REGION
 PROV.               Abu Dhabi:  PROVINCE
 STAT.               Abu Dhabi:  STATE NAME
 CTRY.     United Arab Emirates:  COUNTRY NAME
 FLD .         Abu Al Bukhoosh:  FIELD NAME
 SRVC.                  SAIPEM:  CONTRACTOR
 MWDS.                Musaffah:  MWD SHOP
 RIG .           Perro Negro 8:  RIG NAME
 CNTY.               Abu Dhabi:  COUNTY NAME
 DCON.             HALLIBURTON:  DIRECTNL CONTR
 UNIT.                    9804:  LOGGING EQUIPMENT ID
 DOE .        AD-XX-0902156848:  DOE NUMBER
 API .                        :  API NUMBER
 UWI .                        :  UNIQUE WELL IDENTIFIER
 LOC .                        :  LOCATION
 LMF .             Drill Floor:  LOG MEASURED FROM
 TVDS.m              43.899999:  TVDSS CORRECTN
 LATI.deg            25.504513:  LATITUDE
 LONG.deg            53.120396:  LONGITUDE
 WHNS.m               0.000000:  WELL HEAD N/S
 WHEW.m               0.000000:  WELL HEAD E/W
 UTMX.m          713123.300043:  UTM X
 UTMY.m         2822281.299893:  UTM Y
 DFWL.m               0.000000:  DISTANCE FWL
 DFSL.m               0.000000:  DISTANCE FSL
 SDEP.m            5253.990000:  START DEPTH
 TDD .m            5543.669658:  TOTAL DEPTH (DRILLER)
 VSDR.deg           249.940002:  VERT SEC DIRECT
 GVFD.g               1.000000:  GRAVITY FIELD
 MFLD.nT          43940.839844:  MAGNETIC FIELD
 MDIP.deg            39.918472:  MAGNETIC DIP
 MDEC.deg             2.250056:  MAGNETIC DECL
 GRDC.deg             0.913350:  GRID CORRECTION
 AZTC.deg             1.336706:  AZM TOTAL CORR
 EPD .m               0.000000:  ELEVATION
 EGL .m             -45.400001:  GROUND ELEVATION
 WDMS.m              45.400001:  WD ELEV
 APD .m              43.899999:  DEPTH ABOVE PD
 MMDE.m               0.000000:  MAGUTM CALC DEP
 CMER.deg            51.000000:  CENTRL MERIDIAN
 AGAP.m              23.099999:  AIR GAP
 EKB .m              43.899999:  KB ELEVATION
 EDF .m              43.899999:  DF ELEVATION
 VSC .                       0:  VS TO CLOSURE
 MAGU.                 1527179:  MAGUTM CHECKSUM
~Parameter Information Block
#MNEM.UNIT       Value        Description
#---------     -----------    ---------------------------
 AV  .mps             1.500000:  Ann Velocity 
 AVMX.mps             2.400000:  Max Ann Veloc 
 AZIF.deg           257.739990:  Azm, Final 
 BHAT.                 Turbine:  BHA Type 
 BROT.°/100'          0.000000:  Build Rotating 
 BS  .in              8.500000:  Bit Size 
 BSZ .in              8.500000:  Bit Size 
 BTPL.psig           43.511005:  Bit Press Loss 
 CABU.                      No:  Customer Abuse 
 TCS .hr            149.515671:  Time Ciculation Ended 
 CV  .mps             3.000000:  Crit Velocity 
 CVMX.mps             4.000000:  Max Crit Veloc 
 DD1 .            Ahmed Bayoud:  Direct Drillr 1 
 DD2 .        Hany Abdel Hafez:  Direct Drillr 2 
 DDSV.                 Turbine:  DD Service 
 DEFF.%              98.000000:  % Det Eff 
 DLRX.°/100'          0.000000:  Dogleg Rot Max 
 DLSO.°/100'          0.000000:  Dogleg Oriented 
 DLSX.°/100'          0.000000:  Dogleg Str Max 
 DRET.      12.28.32 23-Jun-16:  Drill End Time 
 DRST.      14.30.00 17-Jun-16:  Drill Start Tim 
 DTIM.hr            102.349998:  Time Drilling 
 EDEP.m            5254.000000:  End Depth 
 ENG1.         Ahmed Montasser:  Engineer 1 
 ENG2.              Do Dang Sa:  Engineer 2 
 ENG3.           Khaled Khalaf:  Engineer 3 
 ENG4.         Muhammad Mubeen:  Engineer 4 
 ETIM.      05.40.54 26-Jun-16:  End Time 
 FLOI.lpm          1800.000122:  Flow In 
 FLON.lpm          1500.000000:  Flow In Min 
 FLOS.lpm             0.000000:  Fluid Loss 
 FLOX.lpm          1800.000122:  Flow In Max 
 DFT .                   Other:  Mud Type 
 HFLO.                      No:  High Flow 
 HPRE.                      No:  High Pressure 
 HTEM.                      No:  High Temp 
 HYDO.m               1.400000:  Hydro Offset 
 IFIN.deg            10.460000:  Inc, Final 
 IMAX.deg            32.367214:  Inc Max 
 IMIN.deg            11.447388:  Inc Min 
 IMND.m            5236.799805:  Inc Min Depth 
 IMXD.m            4790.299805:  Inc Max Depth 
 JARR.                      No:  Jarring 
 LETM.      12.28.32 23-Jun-16:  Log End Time 
 LOST.hr                     0:  Lost Rig Time 
 LSTM.      14.30.00 17-Jun-16:  Log Start Time 
 MDCL.ppm         23000.000000:  Mud Chlorides 
 MDES.             Fresh Water:  Mud Desc 
 DFD .g/c3            1.170004:  Mud Density 
 MDMN.g/c3            1.160004:  Dens Mud Min 
 MDMX.g/c3            1.170004:  Dens Mud Max 
 PH  .pH              9.400000:  Mud pH 
 MOIL.                       0:  Run Mud Oil % 
 MOWR.                    1 91:  Run Mud OWR 
 MSND.                     0.1:  Run Mud Sand % 
 MSOL.                     6.2:  Run Mud Solids% 
 DFV .spl            73.000000:  Mud Viscosity 
 MWOD.in              6.750000:  MWD Tool OD 
 MWSI.                      No:  Serv Intrp, MWD 
 OTIM.hr            238.111023:  Time Operating 
 PMAX.psig         4000.000000:  Press Op, Max 
 PV  .mPsec          36.000000:  Mud PV 
 RMS .ohmm            0.299000:  Mud Resistivity 
 RMCS.ohmm            0.397000:  Mud Cake Resistivity 
 MCST.degC           35.000000:  Mud Cake Sample Temperature 
 RMFS.ohmm            0.200000:  Mud Filtrate Resistivity 
 RMFT.degC           35.000000:  Mud Filtrate Sample Temperature 
 RMMT.ohmm            0.118100:  Rm @ Max Temp 
 MST .degC           35.000000:  Mud Sample Temperature 
 RUN .                    3300:  Run Number 
 ROPA.m/hr            4.450000:  ROP Avg 
 ROPN.m/hr            2.000000:  ROP Min 
 ROPX.m/hr            7.000000:  ROP Max 
 RPMA.rpm            78.000000:  RPM Surface Avg 
 RPMN.rpm            35.000000:  RPM Surface Min 
 RPMX.rpm            80.000000:  RPM Surface Max 
 RRUN.                    3300:  Rig Run Number 
 RTIM.hr              7.150000:  Time Reaming 
 SAZI.deg           249.699997:  Azm, Start 
 SDEP.m            4799.000000:  Start Depth 
 SIDD.                      No:  Serv Intrp, DD 
 SINC.deg            30.049999:  Inc, Start 
 SPPA.psig         4543.999023:  SPP Avg 
 SPPN.psig         4264.078613:  SPP Min 
 SPPX.psig         4641.173828:  SPP Max 
 STIM.      09.00.00 16-Jun-16:  Start Time 
 SVCS.                 DD, MWD:  Services 
 SVER.                8.300000:  Sperry Version 
 TDAT.m             455.000000:  Tot Depth Attmp 
 TDDF.                      No:  Trip for DD 
 TDLG.m             455.000000:  Tot Depth Loggd 
 TFF .                      No:  Trip for Fail 
 TQAA.f-p         37070.000000:  Torque Abs Avg 
 TQAN.f-p         35000.000000:  Torque Abs Min 
 TQAX.f-p         39000.000000:  Torque Abs Max 
 TRRT.°/100'          0.000000:  Turn Rotating 
 MRT .                     PWD:  Maximum Recorded Temperature 
 TTMX.degC          121.568352:  Max Tool Temp 
 VS01.     AD90473258H2V5WGV2COXF1(6):  Virtual Str1 SN 
 WBMN.klb             4.409245:  WOB Min 
 WITN.           Roger Butters:  Customer Rep 
 WOBA.klb             9.788525:  WOB Avg 
 WOBX.klb            13.227736:  WOB Max 
 YP  .pa             43.000000:  Yield Point 
~Curve Information Block
#MNEM.UNIT                 API CODE     Curve Description
#---------               -----------    ---------------------------
 DEPT.M                 00 000 000 000:  Depth
 DGRCC.api              00 000 000 000:  DGR Comb Gamma Ray BCorr
 ALHSI.in               00 000 000 000:  ALD Hole Size Indicator
 ABR .ohmm              00 000 000 000:  At-Bit Resistivity
 AFRSA.ohmm             00 000 000 000:  AFR Shallow Avg Res
 AFRMA.ohmm             00 000 000 000:  AFR Medium Avg Res
 AFRDA.ohmm             00 000 000 000:  AFR Deep Avg Res
 AFXT.hr                00 000 000 000:  AFR Form Exp Time
 ALCDLC.g/c3            00 000 000 000:  ALD LCRB Comp Density
 ALPELC.NONE            00 000 000 000:  ALD LCRB Pe Factor
 ALDCLC.g/c3            00 000 000 000:  ALD LCRB Den Correction
 TNPL.pu                00 000 000 000:  CTN Porosity Limestone
 DTC .uspf              00 000 000 000:  BAT DTC
 DTRS.uspf              00 000 000 000:  BAT Refracted Shear
 VPVS.NONE              00 000 000 000:  BAT VP/VS
#Other Information
#
#WARRANTY: Halliburton will use its best efforts to furnish customers with 
#accurate information and interpretations that are part of, and incident to, the services 
#provided.  However, Halliburton cannot and does not warrant the accuracy 
#or correctness of such information and interpretations.  Under no circumstances should any 
#such information or interpretation be relied upon as the sole basis for any drilling, 
#completion, production, or financial decision or any procedure involving any risk to the 
#safety of any drilling venture, drilling rig or its crew or any other third party.  The 
#Customer has full responsibility for all drilling, completion and production operation.  
#Halliburton makes no representations or warranties, either expressed or 
#implied, including, but not limited to, the implied warranties of merchantability or fitness 
#for a particular purpose, with respect to the services rendered.  In no event will 
#Halliburton be liable for failure to obtain any particular results or for 
#any damages, including, but not limited to, indirect, special or consequential damages, 
#resulting from the use of any information or interpretation provided by Halliburton.
#
~A   DEPT      DGRCC     ALHSI      ABR      AFRSA     AFRMA     AFRDA     AFXT     ALCDLC    ALPELC    ALDCLC     TNPL       DTC      DTRS      VPVS    
# ...
   5239.2072   17.8705    5.7500 -999.2500 -999.2500 -999.2500 -999.2500 -999.2500    1.4473   13.8460   -1.0868   14.5599 -999.2500 -999.2500 -999.2500
   5239.3596   17.2572    5.7500 -999.2500 -999.2500 -999.2500 -999.2500 -999.2500    1.5203   14.2716   -1.1336   15.8394 -999.2500 -999.2500 -999.2500
   5239.5120   15.4945    5.7500 -999.2500 -999.2500 -999.2500 -999.2500 -999.2500    1.4430   14.1641   -1.2067   16.0294 -999.2500 -999.2500 -999.2500
   5239.6644   15.8061    5.7500 -999.2500 -999.2500 -999.2500 -999.2500 -999.2500    1.4447   13.9823   -1.2169   14.1834 -999.2500 -999.2500 -999.2500
   5239.8168   14.7831    5.7500 -999.2500 -999.2500 -999.2500 -999.2500 -999.2500    1.4725   13.9608   -1.2108   12.8886 -999.2500 -999.2500 -999.2500
   5239.9692   16.0229    5.7500 -999.2500 -999.2500 -999.2500 -999.2500 -999.2500    1.4248   14.1765   -1.2568   13.1882 -999.2500 -999.2500 -999.2500
   5240.1216   18.6638    5.7500 -999.2500 -999.2500 -999.2500 -999.2500 -999.2500    1.4644   14.4306   -1.2129   13.4187 -999.2500 -999.2500 -999.2500
   5240.2740   20.3830    5.7500 -999.2500    0.0067    3.0287 -999.2500   26.2369    1.4855   14.4685   -1.2036   13.1383 -999.2500 -999.2500 -999.2500
   5240.4264   18.3958    5.7500 -999.2500    0.0067    2.2208 -999.2500   26.2430    1.4747   14.6167   -1.2284   12.0567 -999.2500 -999.2500 -999.2500
   5240.5788   15.8924    5.7500 -999.2500    0.0067    1.8383 -999.2500   26.2462    1.3510   14.4127   -1.3522   13.4864 -999.2500 -999.2500 -999.2500
   5240.7312   14.1179    5.7500 -999.2500    0.0066    1.5968 -999.2500   26.2478    1.2663   14.6437   -1.4442   14.6895 -999.2500 -999.2500 -999.2500
   5240.8836   13.9149    5.7500 -999.2500    0.0065    1.3468 -999.2500   26.2489    1.5130   14.6574   -1.2391   13.8939 -999.2500 -999.2500 -999.2500
   5241.0360   14.0577    5.7500 -999.2500    0.0065    1.1161 -999.2500   26.2498    1.5378   14.5518   -1.2058   12.8277 -999.2500 -999.2500 -999.2500
   5241.1884   13.7800    5.7500 -999.2500    0.0065    1.0417 -999.2500   26.2507    1.4884   14.4262   -1.2321   11.7424 -999.2500 -999.2500 -999.2500
   5241.3408   14.4601    5.7500 -999.2500    0.0065    1.0468 -999.2500   26.2516    1.4517   14.1869   -1.2469   11.6350 -999.2500 -999.2500 -999.2500
   5241.4932   17.2049    5.7500 -999.2500    0.0064    1.0003 -999.2500   26.2525    1.4581   14.3107   -1.2421   11.6781 -999.2500 -999.2500 -999.2500
   5241.6456   18.8693    5.7500 -999.2500    0.0064    0.9030 -999.2500   26.2533    1.5246   14.2666   -1.2099   11.1646 -999.2500 -999.2500 -999.2500
   5241.7980   21.1556    5.7500 -999.2500    0.0064    0.8519 -999.2500   26.2540    1.5424   14.4279   -1.1975   10.3169 -999.2500 -999.2500 -999.2500
   5241.9504   22.2816    5.7500 -999.2500    0.0064    0.8743 -999.2500   26.2548    1.5418   14.5273   -1.1947   10.3909 -999.2500 -999.2500 -999.2500
   5242.1028   21.8254    5.7500 -999.2500    0.0064    0.9359 -999.2500   26.2557    1.5851   14.5334   -1.1820   10.2933 -999.2500 -999.2500 -999.2500
   5242.2552   19.2794    5.7500 -999.2500    0.0065    0.9894 -999.2500   26.2564    1.5678   14.5608   -1.3026   10.3829 -999.2500 -999.2500 -999.2500
   5242.4076   18.0618    5.7500 -999.2500    0.0065    1.0214 -999.2500   26.2571    1.2868   14.7326   -2.0394   10.9302 -999.2500 -999.2500 -999.2500
   5242.5600   18.9768    5.7500 -999.2500    0.0066    1.0730 -999.2500   26.2578    1.2008   15.2201   -3.2838   11.0147 -999.2500 -999.2500 -999.2500
   5242.7124   17.6985    5.7500 -999.2500    0.0066    1.2158 -999.2500   26.2583    1.8013   15.5577   -2.6695   10.9745 -999.2500 -999.2500 -999.2500
   5242.8648   16.0012    5.7500 -999.2500    0.0066    1.5566 -999.2500   26.2591    1.8539   15.0901   -1.4116   11.8845 -999.2500 -999.2500 -999.2500
   5243.0172   16.5596    5.7500 -999.2500    0.0066    2.0970 -999.2500   26.2596    1.6861   14.9503   -1.2525   11.9351 -999.2500 -999.2500 -999.2500
   5243.1696   16.5157    5.7500 -999.2500    0.0066    2.4361 -999.2500   26.2602    1.4379   14.8126   -1.4742   10.8030 -999.2500 -999.2500 -999.2500
   5243.3220   15.0873    5.7500 -999.2500    0.0066    1.9363 -999.2500   26.2607    1.5447   14.7957   -1.3842    9.8034 -999.2500 -999.2500 -999.2500
   5243.4744   11.5346    5.7500 -999.2500    0.0065    1.3762 -999.2500   26.2615    1.6348   14.6326   -1.3020    8.2746 -999.2500 -999.2500 -999.2500
   5243.6268   13.7400    5.7500 -999.2500    0.0065    1.1179 -999.2500   26.2624    1.6368   14.9017   -1.3029    7.5145 -999.2500 -999.2500 -999.2500
   5243.7792   15.5263    5.7500 -999.2500    0.0065    1.0005 -999.2500   26.2634    1.7273   14.9789   -1.2349    6.5169 -999.2500 -999.2500 -999.2500
   5243.9316   15.1515    5.7500 -999.2500    0.0065    0.9211 -999.2500   26.2642    1.6832   15.6065   -1.2622    6.7040 -999.2500 -999.2500 -999.2500
   5244.0840   14.3088    5.7500 -999.2500    0.0065    0.8884 -999.2500   26.2649    1.6301   15.0370   -1.2898    8.0431 -999.2500 -999.2500 -999.2500
   5244.2364   13.6029    5.7500 -999.2500    0.0065    0.8941 -999.2500   26.2657    1.5968   14.6911   -1.2933    8.0771 -999.2500 -999.2500 -999.2500
   5244.3888   12.6693    5.7500 -999.2500    0.0065    0.9228 -999.2500   26.2665    1.5676   14.1851   -1.2960    7.3637 -999.2500 -999.2500 -999.2500
   5244.5412   15.9682    5.7500 -999.2500    0.0065    0.9888 -999.2500   26.2672    1.5320   14.6548   -1.2922    7.3411 -999.2500 -999.2500 -999.2500
   5244.6936   17.7526    5.7500 -999.2500    0.0066    1.1332 -999.2500   26.2680    1.5487   14.7082   -1.2799    8.3989 -999.2500 -999.2500 -999.2500
   5244.8460   17.6231    5.7500 -999.2500    0.0066    1.3229 -999.2500   26.2687    1.6085   14.6291   -1.2322    8.7203 -999.2500 -999.2500 -999.2500
   5244.9984   16.5144    5.7500 -999.2500    0.0066    1.5335 -999.2500   26.2693    1.6197   14.3213   -1.2088    8.0860 -999.2500 -999.2500 -999.2500
   5245.1508   14.8068    5.7500 -999.2500    0.0066    2.0148 -999.2500   26.2702    1.5733   14.3253   -1.2302    8.6875 -999.2500 -999.2500 -999.2500
   5245.3032   14.2940    5.7500 -999.2500    0.0066    2.9382 -999.2500   26.2712    1.4464   14.3728   -1.3053   10.7689 -999.2500 -999.2500 -999.2500
   5245.4556   15.3892    5.7500 -999.2500    0.0066    3.1072 -999.2500   26.2725    1.3135   14.6474   -1.4056   13.1788 -999.2500 -999.2500 -999.2500
   5245.6080   15.0778    5.7500 -999.2500    0.0066    1.7982 -999.2500   26.2746    1.0959   14.8160   -1.6092   15.2838 -999.2500 -999.2500 -999.2500
   5245.7604   17.3677    5.7500 -999.2500    0.0067    0.9176 -999.2500   26.2803    1.1162   15.2171   -1.5664   15.9339 -999.2500 -999.2500 -999.2500
   5245.9128   17.1364    5.7500 -999.2500    0.0068    0.5871 -999.2500   26.2891    1.2517   14.7092   -1.4303   16.7963 -999.2500 -999.2500 -999.2500
   5246.0652   16.0731    5.7500 -999.2500    0.0066    0.4817 -999.2500   26.2988    1.2544   14.3967   -1.4264   17.7143 -999.2500 -999.2500 -999.2500
   5246.2176   14.5367    5.7500 -999.2500    0.0065    0.4534 -999.2500   26.3088    1.2515   14.4072   -1.4243   16.9460 -999.2500 -999.2500 -999.2500
   5246.3700   15.1511    5.7500 -999.2500    0.0065    0.4753 -999.2500   26.3190    1.2922   14.3371   -1.3869   16.1224   57.4886 -999.2500 -999.2500
   5246.5224   16.2542    5.7500 -999.2500    0.0066    0.4939 -999.2500   26.3293    1.2835   14.0773   -1.3963   15.6322   57.0534 -999.2500 -999.2500
   5246.6748   15.5666    5.7500 -999.2500    0.0066    0.5309 -999.2500   26.3395    1.2787   14.1709   -1.3988   16.1217   57.0124 -999.2500 -999.2500
   5246.8272   17.6980    5.7500 -999.2500    0.0067    0.6792 -999.2500   26.3498    1.2741   14.1897   -1.4047   16.5071   54.1563 -999.2500 -999.2500
   5246.9796   17.1868    5.7500 -999.2500    0.0068    0.9453 -999.2500   26.3601    1.2760   14.0053   -1.4067   16.1939   51.6230 -999.2500 -999.2500
   5247.1320   14.1979    5.7500 -999.2500    0.0067    1.2196 -999.2500   26.3704    1.3272   14.1224   -1.3672   16.4447   50.5716 -999.2500 -999.2500
