~Version Information
 VERS.                  2.0:   CWLS log ASCII Standard -VERSION 2.0
 WRAP.                   NO:   One line per depth step
~Well Information Block
#MNEM.UNIT     VALUE/NAME     DESCRIPTION
#---------     -----------    ---------------------------
 STRT.M              5223.0528: START DEPTH
 STOP.M              5536.2348: STOP DEPTH
 STEP.M                 0.1524: STEP DEPTH
 NULL.               -999.2500: NULL VALUE
 DFWT.                        :  DIST FWL TEXT
 DFST.                        :  DIST FSL TEXT
 DMF .             Drill Floor:  DRILL MEAS FROM
 STIM.      11.30.00 09-Jul-16:  START TIME
 DATE.      11.29.04 14-Aug-16:  END TIME
 SPUD.               17-Aug-15:  SPUD DATE
 NREF.                    Grid:  NORTH REFERENCE
 HPTY.       Minimum Curvature:  HOLE POS TYPE
 DMOD.             Drill Model:  DRILL MOD DESC
 SVYD.                  Survey:  SURVEY DESC
 ILTD.               Lithology:  INTERP LTH DESC
 FTOP.          Formation Tops:  FORM TOPS DESC
 WELL.              AF011-3D-1:  WELL NAME
 COMP.               TOTAL-ABK:  COMPANY
 SON .        AD-XX-0902156848:  JOB NUMBER
 GCDE.     Generic Lat/Long's, Degrees, -180 ==> +180:  GEO COORD DESC
 CCDE.     UTM Clarke 1880 (CM 51), Meters:  CART COORD DESC
 GGSY.                      LL:  GEO GRID SYS
 CGSY.               SS CLRK51:  CART GRID SYS
 GREF.     Ellipsoid World Geodetic System :  GEO REFERENCE
 CREF.     Ellipsoid Clarke - 1880:  CART REFERENCE
 MMDL.            bggm2016.dat:  MAGNETIC MODEL
 MMDD.            20 May, 2016:  MAG DATA DATE
 MDS .              Win MagUTM:  MAG DATA SOURCE
 LLGR.      Latitude/Longitude:  LLGROUP
 XYGR.     UTM Zones, Northern Hemisphere, Meters:  XYGROUP
 PDAT.          Mean Sea Level:  PERMANENT DATUM
 WTYP.                Deviated:  WELL TYPE
 BASE.               Abu Dhabi:  LOGGING EQUIPMENT BASE LOCATION
 REGN.     Middle East/North Africa:  REGION
 PROV.               Abu Dhabi:  PROVINCE
 STAT.               Abu Dhabi:  STATE NAME
 CTRY.     United Arab Emirates:  COUNTRY NAME
 FLD .         Abu Al Bukhoosh:  FIELD NAME
 SRVC.                  SAIPEM:  CONTRACTOR
 MWDS.                Musaffah:  MWD SHOP
 RIG .           Perro Negro 8:  RIG NAME
 CNTY.               Abu Dhabi:  COUNTY NAME
 DCON.             HALLIBURTON:  DIRECTNL CONTR
 UNIT.                    9804:  LOGGING EQUIPMENT ID
 DOE .        AD-XX-0902156848:  DOE NUMBER
 API .                        :  API NUMBER
 UWI .                        :  UNIQUE WELL IDENTIFIER
 LOC .                        :  LOCATION
 LMF .             Drill Floor:  LOG MEASURED FROM
 TVDS.m              43.899999:  TVDSS CORRECTN
 LATI.deg            25.504513:  LATITUDE
 LONG.deg            53.120396:  LONGITUDE
 WHNS.m               0.000000:  WELL HEAD N/S
 WHEW.m               0.000000:  WELL HEAD E/W
 UTMX.m          713123.300043:  UTM X
 UTMY.m         2822281.299893:  UTM Y
 DFWL.m               0.000000:  DISTANCE FWL
 DFSL.m               0.000000:  DISTANCE FSL
 SDEP.m            5253.990000:  START DEPTH
 TDD .m            5543.669658:  TOTAL DEPTH (DRILLER)
 VSDR.deg           249.940002:  VERT SEC DIRECT
 GVFD.g               1.000000:  GRAVITY FIELD
 MFLD.nT          43940.839844:  MAGNETIC FIELD
 MDIP.deg            39.918472:  MAGNETIC DIP
 MDEC.deg             2.250056:  MAGNETIC DECL
 GRDC.deg             0.913350:  GRID CORRECTION
 AZTC.deg             1.336706:  AZM TOTAL CORR
 EPD .m               0.000000:  ELEVATION
 EGL .m             -45.400001:  GROUND ELEVATION
 WDMS.m              45.400001:  WD ELEV
 APD .m              43.899999:  DEPTH ABOVE PD
 MMDE.m               0.000000:  MAGUTM CALC DEP
 CMER.deg            51.000000:  CENTRL MERIDIAN
 AGAP.m              23.099999:  AIR GAP
 EKB .m              43.899999:  KB ELEVATION
 EDF .m              43.899999:  DF ELEVATION
 VSC .                       0:  VS TO CLOSURE
 MAGU.                 1527179:  MAGUTM CHECKSUM
~Parameter Information Block
#MNEM.UNIT       Value        Description
#---------     -----------    ---------------------------
 AV  .mps             1.500000:  Ann Velocity 
 AVMX.mps             2.400000:  Max Ann Veloc 
 AZIF.deg           257.739990:  Azm, Final 
 BHAT.                 Turbine:  BHA Type 
 BROT.°/100'          0.000000:  Build Rotating 
 BS  .in              8.500000:  Bit Size 
 BSZ .in              8.500000:  Bit Size 
 BTPL.psig           43.511005:  Bit Press Loss 
 CABU.                      No:  Customer Abuse 
 TCS .hr            149.515671:  Time Ciculation Ended 
 CV  .mps             3.000000:  Crit Velocity 
 CVMX.mps             4.000000:  Max Crit Veloc 
 DD1 .            Ahmed Bayoud:  Direct Drillr 1 
 DD2 .        Hany Abdel Hafez:  Direct Drillr 2 
 DDSV.                 Turbine:  DD Service 
 DEFF.%              98.000000:  % Det Eff 
 DLRX.°/100'          0.000000:  Dogleg Rot Max 
 DLSO.°/100'          0.000000:  Dogleg Oriented 
 DLSX.°/100'          0.000000:  Dogleg Str Max 
 DRET.      12.28.32 23-Jun-16:  Drill End Time 
 DRST.      14.30.00 17-Jun-16:  Drill Start Tim 
 DTIM.hr            102.349998:  Time Drilling 
 EDEP.m            5254.000000:  End Depth 
 ENG1.         Ahmed Montasser:  Engineer 1 
 ENG2.              Do Dang Sa:  Engineer 2 
 ENG3.           Khaled Khalaf:  Engineer 3 
 ENG4.         Muhammad Mubeen:  Engineer 4 
 ETIM.      05.40.54 26-Jun-16:  End Time 
 FLOI.lpm          1800.000122:  Flow In 
 FLON.lpm          1500.000000:  Flow In Min 
 FLOS.lpm             0.000000:  Fluid Loss 
 FLOX.lpm          1800.000122:  Flow In Max 
 DFT .                   Other:  Mud Type 
 HFLO.                      No:  High Flow 
 HPRE.                      No:  High Pressure 
 HTEM.                      No:  High Temp 
 HYDO.m               1.400000:  Hydro Offset 
 IFIN.deg            10.460000:  Inc, Final 
 IMAX.deg            32.367214:  Inc Max 
 IMIN.deg            11.447388:  Inc Min 
 IMND.m            5236.799805:  Inc Min Depth 
 IMXD.m            4790.299805:  Inc Max Depth 
 JARR.                      No:  Jarring 
 LETM.      12.28.32 23-Jun-16:  Log End Time 
 LOST.hr                     0:  Lost Rig Time 
 LSTM.      14.30.00 17-Jun-16:  Log Start Time 
 MDCL.ppm         23000.000000:  Mud Chlorides 
 MDES.             Fresh Water:  Mud Desc 
 DFD .g/c3            1.170004:  Mud Density 
 MDMN.g/c3            1.160004:  Dens Mud Min 
 MDMX.g/c3            1.170004:  Dens Mud Max 
 PH  .pH              9.400000:  Mud pH 
 MOIL.                       0:  Run Mud Oil % 
 MOWR.                    1 91:  Run Mud OWR 
 MSND.                     0.1:  Run Mud Sand % 
 MSOL.                     6.2:  Run Mud Solids% 
 DFV .spl            73.000000:  Mud Viscosity 
 MWOD.in              6.750000:  MWD Tool OD 
 MWSI.                      No:  Serv Intrp, MWD 
 OTIM.hr            238.111023:  Time Operating 
 PMAX.psig         4000.000000:  Press Op, Max 
 PV  .mPsec          36.000000:  Mud PV 
 RMS .ohmm            0.299000:  Mud Resistivity 
 RMCS.ohmm            0.397000:  Mud Cake Resistivity 
 MCST.degC           35.000000:  Mud Cake Sample Temperature 
 RMFS.ohmm            0.200000:  Mud Filtrate Resistivity 
 RMFT.degC           35.000000:  Mud Filtrate Sample Temperature 
 RMMT.ohmm            0.118100:  Rm @ Max Temp 
 MST .degC           35.000000:  Mud Sample Temperature 
 RUN .                    3300:  Run Number 
 ROPA.m/hr            4.450000:  ROP Avg 
 ROPN.m/hr            2.000000:  ROP Min 
 ROPX.m/hr            7.000000:  ROP Max 
 RPMA.rpm            78.000000:  RPM Surface Avg 
 RPMN.rpm            35.000000:  RPM Surface Min 
 RPMX.rpm            80.000000:  RPM Surface Max 
 RRUN.                    3300:  Rig Run Number 
 RTIM.hr              7.150000:  Time Reaming 
 SAZI.deg           249.699997:  Azm, Start 
 SDEP.m            4799.000000:  Start Depth 
 SIDD.                      No:  Serv Intrp, DD 
 SINC.deg            30.049999:  Inc, Start 
 SPPA.psig         4543.999023:  SPP Avg 
 SPPN.psig         4264.078613:  SPP Min 
 SPPX.psig         4641.173828:  SPP Max 
 STIM.      09.00.00 16-Jun-16:  Start Time 
 SVCS.                 DD, MWD:  Services 
 SVER.                8.300000:  Sperry Version 
 TDAT.m             455.000000:  Tot Depth Attmp 
 TDDF.                      No:  Trip for DD 
 TDLG.m             455.000000:  Tot Depth Loggd 
 TFF .                      No:  Trip for Fail 
 TQAA.f-p         37070.000000:  Torque Abs Avg 
 TQAN.f-p         35000.000000:  Torque Abs Min 
 TQAX.f-p         39000.000000:  Torque Abs Max 
 TRRT.°/100'          0.000000:  Turn Rotating 
 MRT .                     PWD:  Maximum Recorded Temperature 
 TTMX.degC          121.568352:  Max Tool Temp 
 VS01.     AD90473258H2V5WGV2COXF1(6):  Virtual Str1 SN 
 WBMN.klb             4.409245:  WOB Min 
 WITN.           Roger Butters:  Customer Rep 
 WOBA.klb             9.788525:  WOB Avg 
 WOBX.klb            13.227736:  WOB Max 
 YP  .pa             43.000000:  Yield Point 
~Curve Information Block
#MNEM.UNIT                 API CODE     Curve Description
#---------               -----------    ---------------------------
 DEPT.M                 00 000 000 000:  Depth
 DGRCC.api              00 000 000 000:  DGR Comb Gamma Ray BCorr
 ALHSI.in               00 000 000 000:  ALD Hole Size Indicator
 ABR .ohmm              00 000 000 000:  At-Bit Resistivity
 AFRSA.ohmm             00 000 000 000:  AFR Shallow Avg Res
 AFRMA.ohmm             00 000 000 000:  AFR Medium Avg Res
 AFRDA.ohmm             00 000 000 000:  AFR Deep Avg Res
 AFXT.hr                00 000 000 000:  AFR Form Exp Time
 ALCDLC.g/c3            00 000 000 000:  ALD LCRB Comp Density
 ALPELC.NONE            00 000 000 000:  ALD LCRB Pe Factor
 ALDCLC.g/c3            00 000 000 000:  ALD LCRB Den Correction
 TNPL.pu                00 000 000 000:  CTN Porosity Limestone
 DTC .uspf              00 000 000 000:  BAT DTC
 DTRS.uspf              00 000 000 000:  BAT Refracted Shear
 VPVS.NONE              00 000 000 000:  BAT VP/VS
#Other Information
#
#WARRANTY: Halliburton will use its best efforts to furnish customers with 
#accurate information and interpretations that are part of, and incident to, the services 
#provided.  However, Halliburton cannot and does not warrant the accuracy 
#or correctness of such information and interpretations.  Under no circumstances should any 
#such information or interpretation be relied upon as the sole basis for any drilling, 
#completion, production, or financial decision or any procedure involving any risk to the 
#safety of any drilling venture, drilling rig or its crew or any other third party.  The 
#Customer has full responsibility for all drilling, completion and production operation.  
#Halliburton makes no representations or warranties, either expressed or 
#implied, including, but not limited to, the implied warranties of merchantability or fitness 
#for a particular purpose, with respect to the services rendered.  In no event will 
#Halliburton be liable for failure to obtain any particular results or for 
#any damages, including, but not limited to, indirect, special or consequential damages, 
#resulting from the use of any information or interpretation provided by Halliburton.
#
~A   DEPT      DGRCC     ALHSI      ABR      AFRSA     AFRMA     AFRDA     AFXT     ALCDLC    ALPELC    ALDCLC     TNPL       DTC      DTRS      VPVS    
# ...
   5513.8320 -999.2500 -999.2500   25.2437   64.0929   55.4216   53.2815   63.0842 -999.2500 -999.2500 -999.2500 -999.2500   57.9446   95.5721    1.6551
   5513.9844 -999.2500 -999.2500   25.4680   70.6423   63.4434   60.8445   63.0941 -999.2500 -999.2500 -999.2500 -999.2500   56.8803   98.1163    1.7261
   5514.1368 -999.2500 -999.2500   25.7546   72.8469   69.0944   65.9522   63.1044 -999.2500 -999.2500 -999.2500 -999.2500   57.5975  101.3909    1.7607
   5514.2892 -999.2500 -999.2500   25.9738   72.0578   70.1445   67.5964   63.1147 -999.2500 -999.2500 -999.2500 -999.2500   59.5803  103.5263    1.7381
   5514.4416 -999.2500 -999.2500   26.0239   66.7624   65.5636   63.6222   63.1252 -999.2500 -999.2500 -999.2500 -999.2500   61.0283  105.1101    1.7225
   5514.5940 -999.2500 -999.2500   26.0451   59.6075   60.1451   58.5429   63.1356 -999.2500 -999.2500 -999.2500 -999.2500   62.1473  106.5710    1.7149
   5514.7464 -999.2500 -999.2500   26.2485   57.5063   60.6752   59.6591   63.1459 -999.2500 -999.2500 -999.2500 -999.2500   62.8620  105.6042    1.6800
   5514.8988 -999.2500 -999.2500   27.1207   60.9131   66.3358   66.1017   63.1565 -999.2500 -999.2500 -999.2500 -999.2500   62.0010  102.6154    1.6551
   5515.0512 -999.2500 -999.2500   28.1969   64.9875   70.7273   71.2730   63.1668 -999.2500 -999.2500 -999.2500 -999.2500   61.4692  101.6731    1.6542
   5515.2036 -999.2500 -999.2500   28.5517   64.8795   68.5784   69.4730   63.1772 -999.2500 -999.2500 -999.2500 -999.2500   61.8861  101.0706    1.6334
   5515.3560 -999.2500 -999.2500   28.3696   63.9962   65.7383   66.4707   63.1877 -999.2500 -999.2500 -999.2500 -999.2500   62.3006  100.5644    1.6145
   5515.5084 -999.2500 -999.2500   28.0314   64.1033   65.1529   65.1506   63.1980 -999.2500 -999.2500 -999.2500 -999.2500   61.4822  100.7910    1.6396
   5515.6608 -999.2500 -999.2500   27.6017   61.0588   61.5460   60.5363   63.2087 -999.2500 -999.2500 -999.2500 -999.2500   61.3530  101.2167    1.6499
   5515.8132 -999.2500 -999.2500   27.1269   51.8166   50.2563   49.1317   63.2202 -999.2500 -999.2500 -999.2500 -999.2500   61.6543  100.5719    1.6313
   5515.9656 -999.2500 -999.2500   26.6751   43.4360   39.8977   39.3483   63.2344 -999.2500 -999.2500 -999.2500 -999.2500   61.7232   99.9681    1.6197
   5516.1180 -999.2500 -999.2500   26.2603   38.7803   34.3232   34.8424   63.2462 -999.2500 -999.2500 -999.2500 -999.2500   62.0155   99.7548    1.6086
   5516.2704 -999.2500 -999.2500   25.8629   39.8146   35.5701   37.7451   63.2571 -999.2500 -999.2500 -999.2500 -999.2500   61.8428   99.2106    1.6044
   5516.4228 -999.2500 -999.2500   25.2569   43.2322   40.1606   45.5974   63.2735 -999.2500 -999.2500 -999.2500 -999.2500   60.7566   97.6630    1.6075
   5516.5752 -999.2500 -999.2500   24.3018   43.5767   42.7826   51.7951   63.3078 -999.2500 -999.2500 -999.2500 -999.2500   60.8047   97.6166    1.6054
   5516.7276 -999.2500 -999.2500   23.2291   39.0302   42.1671   50.7681   63.3093 -999.2500 -999.2500 -999.2500 -999.2500   62.2422  100.5889    1.6159
   5516.8800 -999.2500 -999.2500   22.4303   30.7843   36.2032   41.2312   63.3348 -999.2500 -999.2500 -999.2500 -999.2500   62.8548  102.0244    1.6231
   5517.0324 -999.2500 -999.2500   21.8058   23.7280   28.8572   31.4310   63.3714 -999.2500 -999.2500 -999.2500 -999.2500   62.9272  102.5625    1.6299
   5517.1848 -999.2500 -999.2500   21.2556   16.4679   20.2432   20.4124   63.4293 -999.2500 -999.2500 -999.2500 -999.2500   63.0355  102.4808    1.6260
   5517.3372 -999.2500 -999.2500   20.7866   10.1912   12.4326   11.7131   63.4685 -999.2500 -999.2500 -999.2500 -999.2500   63.2351  100.7783    1.5939
   5517.4896 -999.2500 -999.2500   20.4837    7.2368    8.4070    8.0621   63.7149 -999.2500 -999.2500 -999.2500 -999.2500   61.6994   97.8436    1.5860
   5517.6420 -999.2500 -999.2500   20.3582    7.4271    7.6532    8.6507   63.8576 -999.2500 -999.2500 -999.2500 -999.2500   60.6509   95.5641    1.5757
   5517.7944 -999.2500 -999.2500   20.2685   10.5981    9.4872   12.8587   63.8949 -999.2500 -999.2500 -999.2500 -999.2500   60.3909   93.7205    1.5520
   5517.9468 -999.2500 -999.2500   20.1695   16.8450   15.4179   20.7923   63.9054 -999.2500 -999.2500 -999.2500 -999.2500   60.2176   92.7918    1.5419
   5518.0992 -999.2500 -999.2500   20.0876   24.1567   26.2057   31.2398   63.9187 -999.2500 -999.2500 -999.2500 -999.2500   58.1059   92.4565    1.5925
   5518.2516 -999.2500 -999.2500   20.3349   28.4000   34.5863   39.0335   63.9411 -999.2500 -999.2500 -999.2500 -999.2500   57.3492   92.9919    1.6219
   5518.4040 -999.2500 -999.2500   20.8268   28.8265   37.1912   40.7633   63.9688 -999.2500 -999.2500 -999.2500 -999.2500   57.9585   92.9792    1.6045
   5518.5564 -999.2500 -999.2500   21.3205   30.7124   37.9443   41.4780   63.9837 -999.2500 -999.2500 -999.2500 -999.2500   58.7294   92.3321    1.5724
   5518.7088 -999.2500 -999.2500   21.7084   32.3236   37.9856   39.6125   63.9945 -999.2500 -999.2500 -999.2500 -999.2500   59.3570   92.4793    1.5582
   5518.8612 -999.2500 -999.2500   22.0632   30.8537   34.4844   34.3173   64.0053 -999.2500 -999.2500 -999.2500 -999.2500   60.4205   94.0540    1.5567
   5519.0136 -999.2500 -999.2500   22.2860   26.4530   27.7809   26.7538   64.0162 -999.2500 -999.2500 -999.2500 -999.2500   60.8858   95.5185    1.5688
   5519.1660 -999.2500 -999.2500   22.3475   22.3708   22.5019   21.3587   64.0270 -999.2500 -999.2500 -999.2500 -999.2500   60.6878   96.0550    1.5829
   5519.3184 -999.2500 -999.2500   22.2498   22.1064   22.2168   21.2810   64.0375 -999.2500 -999.2500 -999.2500 -999.2500   60.2273   96.4357    1.6029
   5519.4708 -999.2500 -999.2500   22.0733   26.7844   27.5081   26.6516   64.0485 -999.2500 -999.2500 -999.2500 -999.2500   60.0623   97.1287    1.6189
   5519.6232 -999.2500 -999.2500   21.8610   34.0802   35.0503   34.2556   64.0594 -999.2500 -999.2500 -999.2500 -999.2500   60.1401   97.8318    1.6283
   5519.7756 -999.2500 -999.2500   21.6217   37.8789   37.4467   37.0960   64.0699 -999.2500 -999.2500 -999.2500 -999.2500   59.8065   99.0544    1.6570
   5519.9280 -999.2500 -999.2500   21.2621   39.1011   37.5647   37.2026   64.0807 -999.2500 -999.2500 -999.2500 -999.2500   59.9794   99.7144    1.6628
   5520.0804 -999.2500 -999.2500   20.7962   39.8505   37.9354   38.0322   64.0917 -999.2500 -999.2500 -999.2500 -999.2500   60.9588   99.3251    1.6298
   5520.2328 -999.2500 -999.2500   20.3385   42.1894   39.8445   40.1365   64.1023 -999.2500 -999.2500 -999.2500 -999.2500   61.7606   98.2433    1.5920
   5520.3852 -999.2500 -999.2500   19.9329   40.1770   36.4843   37.2839   64.1130 -999.2500 -999.2500 -999.2500 -999.2500   61.7313   97.4436    1.5823
   5520.5376 -999.2500 -999.2500   19.5451   34.1039   29.6480   31.5435   64.1240 -999.2500 -999.2500 -999.2500 -999.2500   61.1279   95.9453    1.5698
   5520.6900 -999.2500 -999.2500   19.1896   33.8044   29.4091   32.0342   64.1349 -999.2500 -999.2500 -999.2500 -999.2500   60.5325   93.2693    1.5400
   5520.8424 -999.2500 -999.2500   18.9034   33.4987   29.4353   32.1731   64.1454 -999.2500 -999.2500 -999.2500 -999.2500   59.9662   92.8674    1.5493
   5520.9948 -999.2500 -999.2500   18.6193   29.8015   27.0279   29.4754   64.1562 -999.2500 -999.2500 -999.2500 -999.2500   59.0166   93.1118    1.5780
   5521.1472 -999.2500 -999.2500   18.3025   26.5905   24.7773   27.0813   64.1672 -999.2500 -999.2500 -999.2500 -999.2500   59.1369   94.0000    1.5895
   5521.2996 -999.2500 -999.2500   17.9999   18.1608   16.6215   17.9748   64.1779 -999.2500 -999.2500 -999.2500 -999.2500   60.1145   96.0212    1.5971
   5521.4520 -999.2500 -999.2500   17.6891   10.8265    9.9077   10.3365   64.1885 -999.2500 -999.2500 -999.2500 -999.2500   61.4129  100.1260    1.6303
   5521.6044 -999.2500 -999.2500   17.3490    7.6130    7.1719    7.0839   64.1995 -999.2500 -999.2500 -999.2500 -999.2500   62.1406  101.1474    1.6289
   5521.7568 -999.2500 -999.2500   16.9864    7.0307    6.9075    6.5808   64.2104 -999.2500 -999.2500 -999.2500 -999.2500   63.3661  100.7422    1.5919
