~Version Information
 VERS.                  2.0:   CWLS log ASCII Standard -VERSION 2.0
 WRAP.                   NO:   One line per depth step
~Well Information Block
#MNEM.UNIT     VALUE/NAME     DESCRIPTION
#---------     -----------    ---------------------------
 STRT.M              5223.0528: START DEPTH
 STOP.M              5536.2348: STOP DEPTH
 STEP.M                 0.1524: STEP DEPTH
 NULL.               -999.2500: NULL VALUE
 DFWT.                        :  DIST FWL TEXT
 DFST.                        :  DIST FSL TEXT
 DMF .             Drill Floor:  DRILL MEAS FROM
 STIM.      11.30.00 09-Jul-16:  START TIME
 DATE.      11.29.04 14-Aug-16:  END TIME
 SPUD.               17-Aug-15:  SPUD DATE
 NREF.                    Grid:  NORTH REFERENCE
 HPTY.       Minimum Curvature:  HOLE POS TYPE
 DMOD.             Drill Model:  DRILL MOD DESC
 SVYD.                  Survey:  SURVEY DESC
 ILTD.               Lithology:  INTERP LTH DESC
 FTOP.          Formation Tops:  FORM TOPS DESC
 WELL.              AF011-3D-1:  WELL NAME
 COMP.               TOTAL-ABK:  COMPANY
 SON .        AD-XX-0902156848:  JOB NUMBER
 GCDE.     Generic Lat/Long's, Degrees, -180 ==> +180:  GEO COORD DESC
 CCDE.     UTM Clarke 1880 (CM 51), Meters:  CART COORD DESC
 GGSY.                      LL:  GEO GRID SYS
 CGSY.               SS CLRK51:  CART GRID SYS
 GREF.     Ellipsoid World Geodetic System :  GEO REFERENCE
 CREF.     Ellipsoid Clarke - 1880:  CART REFERENCE
 MMDL.            bggm2016.dat:  MAGNETIC MODEL
 MMDD.            20 May, 2016:  MAG DATA DATE
 MDS .              Win MagUTM:  MAG DATA SOURCE
 LLGR.      Latitude/Longitude:  LLGROUP
 XYGR.     UTM Zones, Northern Hemisphere, Meters:  XYGROUP
 PDAT.          Mean Sea Level:  PERMANENT DATUM
 WTYP.                Deviated:  WELL TYPE
 BASE.               Abu Dhabi:  LOGGING EQUIPMENT BASE LOCATION
 REGN.     Middle East/North Africa:  REGION
 PROV.               Abu Dhabi:  PROVINCE
 STAT.               Abu Dhabi:  STATE NAME
 CTRY.     United Arab Emirates:  COUNTRY NAME
 FLD .         Abu Al Bukhoosh:  FIELD NAME
 SRVC.                  SAIPEM:  CONTRACTOR
 MWDS.                Musaffah:  MWD SHOP
 RIG .           Perro Negro 8:  RIG NAME
 CNTY.               Abu Dhabi:  COUNTY NAME
 DCON.             HALLIBURTON:  DIRECTNL CONTR
 UNIT.                    9804:  LOGGING EQUIPMENT ID
 DOE .        AD-XX-0902156848:  DOE NUMBER
 API .                        :  API NUMBER
 UWI .                        :  UNIQUE WELL IDENTIFIER
 LOC .                        :  LOCATION
 LMF .             Drill Floor:  LOG MEASURED FROM
 TVDS.m              43.899999:  TVDSS CORRECTN
 LATI.deg            25.504513:  LATITUDE
 LONG.deg            53.120396:  LONGITUDE
 WHNS.m               0.000000:  WELL HEAD N/S
 WHEW.m               0.000000:  WELL HEAD E/W
 UTMX.m          713123.300043:  UTM X
 UTMY.m         2822281.299893:  UTM Y
 DFWL.m               0.000000:  DISTANCE FWL
 DFSL.m               0.000000:  DISTANCE FSL
 SDEP.m            5253.990000:  START DEPTH
 TDD .m            5543.669658:  TOTAL DEPTH (DRILLER)
 VSDR.deg           249.940002:  VERT SEC DIRECT
 GVFD.g               1.000000:  GRAVITY FIELD
 MFLD.nT          43940.839844:  MAGNETIC FIELD
 MDIP.deg            39.918472:  MAGNETIC DIP
 MDEC.deg             2.250056:  MAGNETIC DECL
 GRDC.deg             0.913350:  GRID CORRECTION
 AZTC.deg             1.336706:  AZM TOTAL CORR
 EPD .m               0.000000:  ELEVATION
 EGL .m             -45.400001:  GROUND ELEVATION
 WDMS.m              45.400001:  WD ELEV
 APD .m              43.899999:  DEPTH ABOVE PD
 MMDE.m               0.000000:  MAGUTM CALC DEP
 CMER.deg            51.000000:  CENTRL MERIDIAN
 AGAP.m              23.099999:  AIR GAP
 EKB .m              43.899999:  KB ELEVATION
 EDF .m              43.899999:  DF ELEVATION
 VSC .                       0:  VS TO CLOSURE
 MAGU.                 1527179:  MAGUTM CHECKSUM
~Parameter Information Block
#MNEM.UNIT       Value        Description
#---------     -----------    ---------------------------
 AV  .mps             1.500000:  Ann Velocity 
 AVMX.mps             2.400000:  Max Ann Veloc 
 AZIF.deg           257.739990:  Azm, Final 
 BHAT.                 Turbine:  BHA Type 
 BROT.°/100'          0.000000:  Build Rotating 
 BS  .in              8.500000:  Bit Size 
 BSZ .in              8.500000:  Bit Size 
 BTPL.psig           43.511005:  Bit Press Loss 
 CABU.                      No:  Customer Abuse 
 TCS .hr            149.515671:  Time Ciculation Ended 
 CV  .mps             3.000000:  Crit Velocity 
 CVMX.mps             4.000000:  Max Crit Veloc 
 DD1 .            Ahmed Bayoud:  Direct Drillr 1 
 DD2 .        Hany Abdel Hafez:  Direct Drillr 2 
 DDSV.                 Turbine:  DD Service 
 DEFF.%              98.000000:  % Det Eff 
 DLRX.°/100'          0.000000:  Dogleg Rot Max 
 DLSO.°/100'          0.000000:  Dogleg Oriented 
 DLSX.°/100'          0.000000:  Dogleg Str Max 
 DRET.      12.28.32 23-Jun-16:  Drill End Time 
 DRST.      14.30.00 17-Jun-16:  Drill Start Tim 
 DTIM.hr            102.349998:  Time Drilling 
 EDEP.m            5254.000000:  End Depth 
 ENG1.         Ahmed Montasser:  Engineer 1 
 ENG2.              Do Dang Sa:  Engineer 2 
 ENG3.           Khaled Khalaf:  Engineer 3 
 ENG4.         Muhammad Mubeen:  Engineer 4 
 ETIM.      05.40.54 26-Jun-16:  End Time 
 FLOI.lpm          1800.000122:  Flow In 
 FLON.lpm          1500.000000:  Flow In Min 
 FLOS.lpm             0.000000:  Fluid Loss 
 FLOX.lpm          1800.000122:  Flow In Max 
 DFT .                   Other:  Mud Type 
 HFLO.                      No:  High Flow 
 HPRE.                      No:  High Pressure 
 HTEM.                      No:  High Temp 
 HYDO.m               1.400000:  Hydro Offset 
 IFIN.deg            10.460000:  Inc, Final 
 IMAX.deg            32.367214:  Inc Max 
 IMIN.deg            11.447388:  Inc Min 
 IMND.m            5236.799805:  Inc Min Depth 
 IMXD.m            4790.299805:  Inc Max Depth 
 JARR.                      No:  Jarring 
 LETM.      12.28.32 23-Jun-16:  Log End Time 
 LOST.hr                     0:  Lost Rig Time 
 LSTM.      14.30.00 17-Jun-16:  Log Start Time 
 MDCL.ppm         23000.000000:  Mud Chlorides 
 MDES.             Fresh Water:  Mud Desc 
 DFD .g/c3            1.170004:  Mud Density 
 MDMN.g/c3            1.160004:  Dens Mud Min 
 MDMX.g/c3            1.170004:  Dens Mud Max 
 PH  .pH              9.400000:  Mud pH 
 MOIL.                       0:  Run Mud Oil % 
 MOWR.                    1 91:  Run Mud OWR 
 MSND.                     0.1:  Run Mud Sand % 
 MSOL.                     6.2:  Run Mud Solids% 
 DFV .spl            73.000000:  Mud Viscosity 
 MWOD.in              6.750000:  MWD Tool OD 
 MWSI.                      No:  Serv Intrp, MWD 
 OTIM.hr            238.111023:  Time Operating 
 PMAX.psig         4000.000000:  Press Op, Max 
 PV  .mPsec          36.000000:  Mud PV 
 RMS .ohmm            0.299000:  Mud Resistivity 
 RMCS.ohmm            0.397000:  Mud Cake Resistivity 
 MCST.degC           35.000000:  Mud Cake Sample Temperature 
 RMFS.ohmm            0.200000:  Mud Filtrate Resistivity 
 RMFT.degC           35.000000:  Mud Filtrate Sample Temperature 
 RMMT.ohmm            0.118100:  Rm @ Max Temp 
 MST .degC           35.000000:  Mud Sample Temperature 
 RUN .                    3300:  Run Number 
 ROPA.m/hr            4.450000:  ROP Avg 
 ROPN.m/hr            2.000000:  ROP Min 
 ROPX.m/hr            7.000000:  ROP Max 
 RPMA.rpm            78.000000:  RPM Surface Avg 
 RPMN.rpm            35.000000:  RPM Surface Min 
 RPMX.rpm            80.000000:  RPM Surface Max 
 RRUN.                    3300:  Rig Run Number 
 RTIM.hr              7.150000:  Time Reaming 
 SAZI.deg           249.699997:  Azm, Start 
 SDEP.m            4799.000000:  Start Depth 
 SIDD.                      No:  Serv Intrp, DD 
 SINC.deg            30.049999:  Inc, Start 
 SPPA.psig         4543.999023:  SPP Avg 
 SPPN.psig         4264.078613:  SPP Min 
 SPPX.psig         4641.173828:  SPP Max 
 STIM.      09.00.00 16-Jun-16:  Start Time 
 SVCS.                 DD, MWD:  Services 
 SVER.                8.300000:  Sperry Version 
 TDAT.m             455.000000:  Tot Depth Attmp 
 TDDF.                      No:  Trip for DD 
 TDLG.m             455.000000:  Tot Depth Loggd 
 TFF .                      No:  Trip for Fail 
 TQAA.f-p         37070.000000:  Torque Abs Avg 
 TQAN.f-p         35000.000000:  Torque Abs Min 
 TQAX.f-p         39000.000000:  Torque Abs Max 
 TRRT.°/100'          0.000000:  Turn Rotating 
 MRT .                     PWD:  Maximum Recorded Temperature 
 TTMX.degC          121.568352:  Max Tool Temp 
 VS01.     AD90473258H2V5WGV2COXF1(6):  Virtual Str1 SN 
 WBMN.klb             4.409245:  WOB Min 
 WITN.           Roger Butters:  Customer Rep 
 WOBA.klb             9.788525:  WOB Avg 
 WOBX.klb            13.227736:  WOB Max 
 YP  .pa             43.000000:  Yield Point 
~Curve Information Block
#MNEM.UNIT                 API CODE     Curve Description
#---------               -----------    ---------------------------
 DEPT.M                 00 000 000 000:  Depth
 DGRCC.api              00 000 000 000:  DGR Comb Gamma Ray BCorr
 ALHSI.in               00 000 000 000:  ALD Hole Size Indicator
 ABR .ohmm              00 000 000 000:  At-Bit Resistivity
 AFRSA.ohmm             00 000 000 000:  AFR Shallow Avg Res
 AFRMA.ohmm             00 000 000 000:  AFR Medium Avg Res
 AFRDA.ohmm             00 000 000 000:  AFR Deep Avg Res
 AFXT.hr                00 000 000 000:  AFR Form Exp Time
 ALCDLC.g/c3            00 000 000 000:  ALD LCRB Comp Density
 ALPELC.NONE            00 000 000 000:  ALD LCRB Pe Factor
 ALDCLC.g/c3            00 000 000 000:  ALD LCRB Den Correction
 TNPL.pu                00 000 000 000:  CTN Porosity Limestone
 DTC .uspf              00 000 000 000:  BAT DTC
 DTRS.uspf              00 000 000 000:  BAT Refracted Shear
 VPVS.NONE              00 000 000 000:  BAT VP/VS
#Other Information
#
#WARRANTY: Halliburton will use its best efforts to furnish customers with 
#accurate information and interpretations that are part of, and incident to, the services 
#provided.  However, Halliburton cannot and does not warrant the accuracy 
#or correctness of such information and interpretations.  Under no circumstances should any 
#such information or interpretation be relied upon as the sole basis for any drilling, 
#completion, production, or financial decision or any procedure involving any risk to the 
#safety of any drilling venture, drilling rig or its crew or any other third party.  The 
#Customer has full responsibility for all drilling, completion and production operation.  
#Halliburton makes no representations or warranties, either expressed or 
#implied, including, but not limited to, the implied warranties of merchantability or fitness 
#for a particular purpose, with respect to the services rendered.  In no event will 
#Halliburton be liable for failure to obtain any particular results or for 
#any damages, including, but not limited to, indirect, special or consequential damages, 
#resulting from the use of any information or interpretation provided by Halliburton.
#
~A   DEPT      DGRCC     ALHSI      ABR      AFRSA     AFRMA     AFRDA     AFXT     ALCDLC    ALPELC    ALDCLC     TNPL       DTC      DTRS      VPVS    
# ...
   5457.2916   13.5815    5.7500   38.6534   51.2710   49.4722   49.6790   43.7621    2.4936    2.3813   -0.0493    1.4925   53.9589   84.8131    1.5726
   5457.4440   13.4868    5.7500   38.2522   49.7972   46.7761   48.8216   43.9888    2.5121    2.3761   -0.0459    1.4532   54.3236   84.6749    1.5602
   5457.5964   12.6455    5.7500   38.3091   59.6063   58.5070   62.0425   43.7062    2.5170    2.3849   -0.0401    1.4272   55.0089   85.0258    1.5470
   5457.7488   11.1388    5.7500   38.2108   67.0133   69.4442   72.8597   43.5484    2.5123    2.4569   -0.0394    1.4175   54.5231   85.1021    1.5605
   5457.9012   11.7029    5.7500   38.0561   61.2099   64.8426   67.3258   43.5105    2.5208    2.4518   -0.0370    1.4140   54.0648   85.0469    1.5723
   5458.0536   11.3814    5.7500   38.1719   56.6657   61.1307   62.8532   43.6237    2.5264    2.5064   -0.0277    1.5260   53.9184   85.5416    1.5851
   5458.2060   11.0411    5.7500   37.8917   58.3070   63.6694   65.9992   43.9926    2.5156    2.5790   -0.0271    1.9966   55.3470   86.4548    1.5611
   5458.3584   11.3525    5.7500   37.4438   53.3950   57.1075   61.5580   43.7602    2.5040    2.7328   -0.0279    2.2164   56.3927   87.2969    1.5481
   5458.5108   14.3525    5.7500   37.0941   45.5002   46.5438   52.9942   43.6226    2.4827    2.6301   -0.0349    2.4450   56.0620   87.3838    1.5572
   5458.6632   15.6313    5.7500   36.6655   39.7310   40.7910   44.8484   43.6077    2.4720    2.6502   -0.0391    2.5737   55.0132   86.9607    1.5810
   5458.8156   15.2028    5.7500   36.4566   35.0615   38.1148   37.3863   43.6025    2.4703    2.5479   -0.0438    2.5147   54.1574   86.3706    1.5975
   5458.9680   12.2017    5.7500   36.6253   34.6611   39.3245   35.8843   43.6461    2.4770    2.6017   -0.0445    2.4476   53.6796   85.6734    1.5992
   5459.1204   12.5994    5.7500   36.5593   39.9165   43.5976   41.3509   43.7911    2.5093    2.8152   -0.0379    2.3383   54.3100   85.4377    1.5740
   5459.2728   12.8265    5.7500   36.3359   45.8988   45.8133   46.4848   44.1224    2.5391    3.0934   -0.0325    2.1779   54.8838   85.5748    1.5597
   5459.4252   13.9092    5.7500   36.2804   50.1310   48.6137   48.6322   43.7741    2.5514    3.1649   -0.0313    2.0927   55.4609   85.9258    1.5515
   5459.5776   15.4669    5.7500   36.0820   59.8111   57.2701   57.5484   43.7488    2.5348    3.1596   -0.0330    2.0821   55.4087   86.8273    1.5675
   5459.7300   13.2352    5.7500   35.5950   71.0984   64.5256   71.3474   43.8039    2.5262    2.8408   -0.0304    2.1781   55.8597   86.4260    1.5461
   5459.8824   15.7197    5.7500   35.8298   76.8506   70.4492   80.1760   43.8880    2.5240    2.5407   -0.0302    2.2865   58.4135   85.4712    1.4618
   5460.0348   17.4241    5.7500   35.3868   72.7223   69.8864   76.7271   44.2705    2.5241    2.5788   -0.0255    2.3526   59.0265   85.6718    1.4525
   5460.1872   12.1249    5.7500   34.7470   63.8301   66.2793   66.1574   44.0979    2.5157    2.7513   -0.0291    2.2252   58.1328   86.5259    1.4920
   5460.3396   12.2073    5.7500   34.2731   54.6879   62.2192   53.3688   44.0482    2.5163    3.0135   -0.0280    2.3941   59.7706   88.9569    1.4912
   5460.4920   21.0938    5.7500   33.6915   36.9160   36.4681   31.7230   44.0419    2.5228    3.2650   -0.0254    2.9178   62.2339   91.9150    1.4772
   5460.6444   30.5782    5.7500   33.2411   24.3965   19.5454   18.8416   44.0593    2.5325    3.4462   -0.0190    3.3697   63.3476   93.2085    1.4714
   5460.7968   38.7368    5.7500   33.0750   20.3952   24.6500   15.5499   44.0710    2.5269    3.2004   -0.0225    4.0001   63.9678   94.1817    1.4728
   5460.9492   56.5305    5.7500   32.7955   27.3798   58.8400   23.3625   44.0855    2.5230    2.9995   -0.0255    5.2441   64.4529   94.1341    1.4628
   5461.1016   73.7188    5.7502   32.4083   48.6064  104.7891   48.0567   44.0994    2.5289    2.9275   -0.0246    6.2118   65.4664   94.1096    1.4394
   5461.2540   71.3350    5.7508   32.2775   69.6300   97.1757   75.2816   44.1140    2.5289    3.0189   -0.0197    6.6355   65.0656   94.3198    1.4502
   5461.4064   67.9344    5.7529   31.9412   76.4394   80.5555   82.3561   44.2383    2.5327    3.0831   -0.0144    6.7299   64.6232   96.0126    1.4858
   5461.5588   76.2007    5.7507   31.5862   90.2524   81.0483   97.8196   44.7021    2.5201    3.0442   -0.0224    6.7357   64.9532   99.5818    1.5333
   5461.7112   88.5616    5.7500   31.7780  111.6748   87.6679  121.8352   44.5507    2.5142    3.1058   -0.0278    7.1746   64.8145  103.6445    1.5996
   5461.8636   86.3020    5.7500   31.5756  139.5838  101.2774  151.2660   44.4192    2.5194    3.0539   -0.0330    8.0174   64.4888  106.1591    1.6464
   5462.0160   90.9657    5.7500   31.4573  185.2877  129.5556  170.1339   44.2209    2.5165    2.9184   -0.0323    8.3899   65.0797  106.9807    1.6441
   5462.1684  108.1132    5.7500   31.6636  212.9293  129.0988  152.7505   44.1796    2.5054    2.9311   -0.0259    9.5600   65.4762  107.0235    1.6347
   5462.3208  123.7194    5.7500   31.0630  160.2666   95.5162  106.8749   44.2508    2.5029    3.0124   -0.0208   10.9364   64.6316  105.7335    1.6363
   5462.4732  133.0927    5.7500   30.5621   91.5842   62.7583   63.4321   44.4720    2.5029    3.0264   -0.0200   11.2204   62.7582  103.4901    1.6503
   5462.6256  132.8159    5.7500   30.3005   58.6371   54.6917   44.6453   44.4407    2.5023    3.0018   -0.0259   11.2525   60.7098  100.7797    1.6606
   5462.7780  126.1041    5.7500   29.6258   51.3535   49.5965   39.4977   44.2737    2.5147    3.0339   -0.0398   11.2419   60.8944   98.0731    1.6109
   5462.9304  127.1623    5.7500   29.0873   36.4385   28.4345   26.8270   44.2932    2.5275    3.1333   -0.0377   10.9713   60.6900   95.6450    1.5760
   5463.0828  135.9647    5.7501   28.6926   23.6896   17.7735   18.0241   44.5113    2.5398    3.2834   -0.0279   10.8096   59.9209   93.7653    1.5650
   5463.2352  113.0524    5.7503   27.9230   19.6981   16.7697   16.3080   44.4802    2.5372    3.4546   -0.0164   10.2112   60.3079   92.4279    1.5328
   5463.3876   55.3966    5.7503   27.1472   19.1146   17.9542   16.7191   44.3162    2.5146    3.5017   -0.0172    9.4620   60.4774   91.5200    1.5134
   5463.5400   31.5847    5.7501   26.6268   19.0120   18.8040   17.4511   44.2769    2.5019    3.3751   -0.0211    8.7601   60.1482   91.0385    1.5137
   5463.6924   22.0322    5.7500   26.0242   18.8721   18.4240   17.7874   44.2875    2.4971    3.1321   -0.0260    7.2385   59.4522   90.6064    1.5243
   5463.8448   17.7703    5.7500   25.5377   17.6148   16.6206   16.7670   44.3301    2.5009    2.8777   -0.0270    6.8934   58.2863   90.2827    1.5499
   5463.9972   16.8060    5.7500   25.0322   16.8799   15.4715   16.2698   44.4521    2.5056    2.7843   -0.0253    7.7970   57.6549   90.0201    1.5636
   5464.1496   18.3278    5.7501   24.5685   17.4063   15.3812   16.9545   44.8262    2.5087    2.9070   -0.0181    7.5630   57.7702   89.9929    1.5586
   5464.3020   18.6262    5.7550   24.2952   19.5394   17.0974   19.2919   44.8925    2.5068    3.0198   -0.0134    7.1705   58.2834   90.4503    1.5524
   5464.4544   21.4915    5.7863   23.9550   25.5190   23.2776   25.8673   44.4611    2.5144    3.2152   -0.0003    6.9890   57.9350   90.3175    1.5591
   5464.6068   24.3537    5.8644   23.7583   33.8404   32.3473   35.1905   44.3779    2.5207    3.6033    0.0179    5.8163   57.0650   89.6460    1.5711
   5464.7592   29.2044    5.9073   23.6611   36.0282   35.2569   37.4051   44.3613    2.5227    3.7911    0.0229    5.0267   56.7471   89.2896    1.5736
   5464.9116   24.3671    5.9457   23.4146   32.1984   31.2346   32.3476   44.3715    2.5136    3.9475    0.0244    4.5621   57.2493   89.5137    1.5638
   5465.0640   24.0440    5.8989   23.1937   25.4051   23.8083   24.0179   44.3817    2.5024    3.8432    0.0105    4.0697   58.1343   89.4778    1.5392
   5465.2164   38.0477    5.8364   23.0904   19.7937   17.5453   17.4272   44.3919    2.5041    3.7231   -0.0069    4.4695   58.8680   89.8174    1.5261
