~Version Information
 VERS.                  2.0:   CWLS log ASCII Standard -VERSION 2.0
 WRAP.                   NO:   One line per depth step
~Well Information Block
#MNEM.UNIT     VALUE/NAME     DESCRIPTION
#---------     -----------    ---------------------------
 STRT.M              5223.0528: START DEPTH
 STOP.M              5536.2348: STOP DEPTH
 STEP.M                 0.1524: STEP DEPTH
 NULL.               -999.2500: NULL VALUE
 DFWT.                        :  DIST FWL TEXT
 DFST.                        :  DIST FSL TEXT
 DMF .             Drill Floor:  DRILL MEAS FROM
 STIM.      11.30.00 09-Jul-16:  START TIME
 DATE.      11.29.04 14-Aug-16:  END TIME
 SPUD.               17-Aug-15:  SPUD DATE
 NREF.                    Grid:  NORTH REFERENCE
 HPTY.       Minimum Curvature:  HOLE POS TYPE
 DMOD.             Drill Model:  DRILL MOD DESC
 SVYD.                  Survey:  SURVEY DESC
 ILTD.               Lithology:  INTERP LTH DESC
 FTOP.          Formation Tops:  FORM TOPS DESC
 WELL.              AF011-3D-1:  WELL NAME
 COMP.               TOTAL-ABK:  COMPANY
 SON .        AD-XX-0902156848:  JOB NUMBER
 GCDE.     Generic Lat/Long's, Degrees, -180 ==> +180:  GEO COORD DESC
 CCDE.     UTM Clarke 1880 (CM 51), Meters:  CART COORD DESC
 GGSY.                      LL:  GEO GRID SYS
 CGSY.               SS CLRK51:  CART GRID SYS
 GREF.     Ellipsoid World Geodetic System :  GEO REFERENCE
 CREF.     Ellipsoid Clarke - 1880:  CART REFERENCE
 MMDL.            bggm2016.dat:  MAGNETIC MODEL
 MMDD.            20 May, 2016:  MAG DATA DATE
 MDS .              Win MagUTM:  MAG DATA SOURCE
 LLGR.      Latitude/Longitude:  LLGROUP
 XYGR.     UTM Zones, Northern Hemisphere, Meters:  XYGROUP
 PDAT.          Mean Sea Level:  PERMANENT DATUM
 WTYP.                Deviated:  WELL TYPE
 BASE.               Abu Dhabi:  LOGGING EQUIPMENT BASE LOCATION
 REGN.     Middle East/North Africa:  REGION
 PROV.               Abu Dhabi:  PROVINCE
 STAT.               Abu Dhabi:  STATE NAME
 CTRY.     United Arab Emirates:  COUNTRY NAME
 FLD .         Abu Al Bukhoosh:  FIELD NAME
 SRVC.                  SAIPEM:  CONTRACTOR
 MWDS.                Musaffah:  MWD SHOP
 RIG .           Perro Negro 8:  RIG NAME
 CNTY.               Abu Dhabi:  COUNTY NAME
 DCON.             HALLIBURTON:  DIRECTNL CONTR
 UNIT.                    9804:  LOGGING EQUIPMENT ID
 DOE .        AD-XX-0902156848:  DOE NUMBER
 API .                        :  API NUMBER
 UWI .                        :  UNIQUE WELL IDENTIFIER
 LOC .                        :  LOCATION
 LMF .             Drill Floor:  LOG MEASURED FROM
 TVDS.m              43.899999:  TVDSS CORRECTN
 LATI.deg            25.504513:  LATITUDE
 LONG.deg            53.120396:  LONGITUDE
 WHNS.m               0.000000:  WELL HEAD N/S
 WHEW.m               0.000000:  WELL HEAD E/W
 UTMX.m          713123.300043:  UTM X
 UTMY.m         2822281.299893:  UTM Y
 DFWL.m               0.000000:  DISTANCE FWL
 DFSL.m               0.000000:  DISTANCE FSL
 SDEP.m            5253.990000:  START DEPTH
 TDD .m            5543.669658:  TOTAL DEPTH (DRILLER)
 VSDR.deg           249.940002:  VERT SEC DIRECT
 GVFD.g               1.000000:  GRAVITY FIELD
 MFLD.nT          43940.839844:  MAGNETIC FIELD
 MDIP.deg            39.918472:  MAGNETIC DIP
 MDEC.deg             2.250056:  MAGNETIC DECL
 GRDC.deg             0.913350:  GRID CORRECTION
 AZTC.deg             1.336706:  AZM TOTAL CORR
 EPD .m               0.000000:  ELEVATION
 EGL .m             -45.400001:  GROUND ELEVATION
 WDMS.m              45.400001:  WD ELEV
 APD .m              43.899999:  DEPTH ABOVE PD
 MMDE.m               0.000000:  MAGUTM CALC DEP
 CMER.deg            51.000000:  CENTRL MERIDIAN
 AGAP.m              23.099999:  AIR GAP
 EKB .m              43.899999:  KB ELEVATION
 EDF .m              43.899999:  DF ELEVATION
 VSC .                       0:  VS TO CLOSURE
 MAGU.                 1527179:  MAGUTM CHECKSUM
~Parameter Information Block
#MNEM.UNIT       Value        Description
#---------     -----------    ---------------------------
 AV  .mps             1.500000:  Ann Velocity 
 AVMX.mps             2.400000:  Max Ann Veloc 
 AZIF.deg           257.739990:  Azm, Final 
 BHAT.                 Turbine:  BHA Type 
 BROT.°/100'          0.000000:  Build Rotating 
 BS  .in              8.500000:  Bit Size 
 BSZ .in              8.500000:  Bit Size 
 BTPL.psig           43.511005:  Bit Press Loss 
 CABU.                      No:  Customer Abuse 
 TCS .hr            149.515671:  Time Ciculation Ended 
 CV  .mps             3.000000:  Crit Velocity 
 CVMX.mps             4.000000:  Max Crit Veloc 
 DD1 .            Ahmed Bayoud:  Direct Drillr 1 
 DD2 .        Hany Abdel Hafez:  Direct Drillr 2 
 DDSV.                 Turbine:  DD Service 
 DEFF.%              98.000000:  % Det Eff 
 DLRX.°/100'          0.000000:  Dogleg Rot Max 
 DLSO.°/100'          0.000000:  Dogleg Oriented 
 DLSX.°/100'          0.000000:  Dogleg Str Max 
 DRET.      12.28.32 23-Jun-16:  Drill End Time 
 DRST.      14.30.00 17-Jun-16:  Drill Start Tim 
 DTIM.hr            102.349998:  Time Drilling 
 EDEP.m            5254.000000:  End Depth 
 ENG1.         Ahmed Montasser:  Engineer 1 
 ENG2.              Do Dang Sa:  Engineer 2 
 ENG3.           Khaled Khalaf:  Engineer 3 
 ENG4.         Muhammad Mubeen:  Engineer 4 
 ETIM.      05.40.54 26-Jun-16:  End Time 
 FLOI.lpm          1800.000122:  Flow In 
 FLON.lpm          1500.000000:  Flow In Min 
 FLOS.lpm             0.000000:  Fluid Loss 
 FLOX.lpm          1800.000122:  Flow In Max 
 DFT .                   Other:  Mud Type 
 HFLO.                      No:  High Flow 
 HPRE.                      No:  High Pressure 
 HTEM.                      No:  High Temp 
 HYDO.m               1.400000:  Hydro Offset 
 IFIN.deg            10.460000:  Inc, Final 
 IMAX.deg            32.367214:  Inc Max 
 IMIN.deg            11.447388:  Inc Min 
 IMND.m            5236.799805:  Inc Min Depth 
 IMXD.m            4790.299805:  Inc Max Depth 
 JARR.                      No:  Jarring 
 LETM.      12.28.32 23-Jun-16:  Log End Time 
 LOST.hr                     0:  Lost Rig Time 
 LSTM.      14.30.00 17-Jun-16:  Log Start Time 
 MDCL.ppm         23000.000000:  Mud Chlorides 
 MDES.             Fresh Water:  Mud Desc 
 DFD .g/c3            1.170004:  Mud Density 
 MDMN.g/c3            1.160004:  Dens Mud Min 
 MDMX.g/c3            1.170004:  Dens Mud Max 
 PH  .pH              9.400000:  Mud pH 
 MOIL.                       0:  Run Mud Oil % 
 MOWR.                    1 91:  Run Mud OWR 
 MSND.                     0.1:  Run Mud Sand % 
 MSOL.                     6.2:  Run Mud Solids% 
 DFV .spl            73.000000:  Mud Viscosity 
 MWOD.in              6.750000:  MWD Tool OD 
 MWSI.                      No:  Serv Intrp, MWD 
 OTIM.hr            238.111023:  Time Operating 
 PMAX.psig         4000.000000:  Press Op, Max 
 PV  .mPsec          36.000000:  Mud PV 
 RMS .ohmm            0.299000:  Mud Resistivity 
 RMCS.ohmm            0.397000:  Mud Cake Resistivity 
 MCST.degC           35.000000:  Mud Cake Sample Temperature 
 RMFS.ohmm            0.200000:  Mud Filtrate Resistivity 
 RMFT.degC           35.000000:  Mud Filtrate Sample Temperature 
 RMMT.ohmm            0.118100:  Rm @ Max Temp 
 MST .degC           35.000000:  Mud Sample Temperature 
 RUN .                    3300:  Run Number 
 ROPA.m/hr            4.450000:  ROP Avg 
 ROPN.m/hr            2.000000:  ROP Min 
 ROPX.m/hr            7.000000:  ROP Max 
 RPMA.rpm            78.000000:  RPM Surface Avg 
 RPMN.rpm            35.000000:  RPM Surface Min 
 RPMX.rpm            80.000000:  RPM Surface Max 
 RRUN.                    3300:  Rig Run Number 
 RTIM.hr              7.150000:  Time Reaming 
 SAZI.deg           249.699997:  Azm, Start 
 SDEP.m            4799.000000:  Start Depth 
 SIDD.                      No:  Serv Intrp, DD 
 SINC.deg            30.049999:  Inc, Start 
 SPPA.psig         4543.999023:  SPP Avg 
 SPPN.psig         4264.078613:  SPP Min 
 SPPX.psig         4641.173828:  SPP Max 
 STIM.      09.00.00 16-Jun-16:  Start Time 
 SVCS.                 DD, MWD:  Services 
 SVER.                8.300000:  Sperry Version 
 TDAT.m             455.000000:  Tot Depth Attmp 
 TDDF.                      No:  Trip for DD 
 TDLG.m             455.000000:  Tot Depth Loggd 
 TFF .                      No:  Trip for Fail 
 TQAA.f-p         37070.000000:  Torque Abs Avg 
 TQAN.f-p         35000.000000:  Torque Abs Min 
 TQAX.f-p         39000.000000:  Torque Abs Max 
 TRRT.°/100'          0.000000:  Turn Rotating 
 MRT .                     PWD:  Maximum Recorded Temperature 
 TTMX.degC          121.568352:  Max Tool Temp 
 VS01.     AD90473258H2V5WGV2COXF1(6):  Virtual Str1 SN 
 WBMN.klb             4.409245:  WOB Min 
 WITN.           Roger Butters:  Customer Rep 
 WOBA.klb             9.788525:  WOB Avg 
 WOBX.klb            13.227736:  WOB Max 
 YP  .pa             43.000000:  Yield Point 
~Curve Information Block
#MNEM.UNIT                 API CODE     Curve Description
#---------               -----------    ---------------------------
 DEPT.M                 00 000 000 000:  Depth
 DGRCC.api              00 000 000 000:  DGR Comb Gamma Ray BCorr
 ALHSI.in               00 000 000 000:  ALD Hole Size Indicator
 ABR .ohmm              00 000 000 000:  At-Bit Resistivity
 AFRSA.ohmm             00 000 000 000:  AFR Shallow Avg Res
 AFRMA.ohmm             00 000 000 000:  AFR Medium Avg Res
 AFRDA.ohmm             00 000 000 000:  AFR Deep Avg Res
 AFXT.hr                00 000 000 000:  AFR Form Exp Time
 ALCDLC.g/c3            00 000 000 000:  ALD LCRB Comp Density
 ALPELC.NONE            00 000 000 000:  ALD LCRB Pe Factor
 ALDCLC.g/c3            00 000 000 000:  ALD LCRB Den Correction
 TNPL.pu                00 000 000 000:  CTN Porosity Limestone
 DTC .uspf              00 000 000 000:  BAT DTC
 DTRS.uspf              00 000 000 000:  BAT Refracted Shear
 VPVS.NONE              00 000 000 000:  BAT VP/VS
#Other Information
#
#WARRANTY: Halliburton will use its best efforts to furnish customers with 
#accurate information and interpretations that are part of, and incident to, the services 
#provided.  However, Halliburton cannot and does not warrant the accuracy 
#or correctness of such information and interpretations.  Under no circumstances should any 
#such information or interpretation be relied upon as the sole basis for any drilling, 
#completion, production, or financial decision or any procedure involving any risk to the 
#safety of any drilling venture, drilling rig or its crew or any other third party.  The 
#Customer has full responsibility for all drilling, completion and production operation.  
#Halliburton makes no representations or warranties, either expressed or 
#implied, including, but not limited to, the implied warranties of merchantability or fitness 
#for a particular purpose, with respect to the services rendered.  In no event will 
#Halliburton be liable for failure to obtain any particular results or for 
#any damages, including, but not limited to, indirect, special or consequential damages, 
#resulting from the use of any information or interpretation provided by Halliburton.
#
~A   DEPT      DGRCC     ALHSI      ABR      AFRSA     AFRMA     AFRDA     AFXT     ALCDLC    ALPELC    ALDCLC     TNPL       DTC      DTRS      VPVS    
# ...
   5497.6776   75.4755    6.0750   23.9417   20.9231   19.0848   22.8863   61.6437    2.5176    5.8188    0.0789    6.2107   57.1557   89.4771    1.5657
   5497.8300  103.0123    6.1624   23.5527   19.5002   19.2886   20.8665   61.6599    2.5500    4.7959    0.0550    5.7699   56.2658   89.2969    1.5874
   5497.9824  123.9107    6.3074   23.1950   19.1240   21.3110   20.9157   61.6072    2.5404    4.9433    0.0625    5.5259   56.2940   89.4844    1.5904
   5498.1348  126.0523    6.4228   22.8460   17.5219   20.0898   19.3654   61.5932    2.5298    4.8306    0.0645    5.7787   58.1454   91.3426    1.5717
   5498.2872   97.3917    6.4365   22.4609   15.9660   17.5888   17.1841   61.6119    2.4901    4.6274    0.0460    5.7386   58.4448   92.8301    1.5887
   5498.4396   61.0291    6.3793   22.0783   14.2037   14.7638   14.5391   61.6885    2.4532    4.4944    0.0263    5.7068   59.1442   93.6498    1.5837
   5498.5920   43.0369    6.4132   21.7149   12.5054   12.4187   12.3556   61.7008    2.4510    4.4672    0.0234    5.9496   59.0900   94.0595    1.5920
   5498.7444   37.9894    6.4314   21.3973   13.2125   13.1234   13.3566   61.6892    2.4482    4.4809    0.0231    5.9336   59.6279   93.9581    1.5760
   5498.8968   42.1786    6.3671   21.1543   15.6744   15.9179   16.6200   61.6920    2.4479    4.4132    0.0212    5.1123   60.4414   94.1138    1.5572
   5499.0492   45.6833    6.3267   20.9279   15.9897   16.2286   17.1431   61.7163    2.4802    4.4947    0.0375    4.8768   60.5526   94.9570    1.5683
   5499.2016   42.1265    6.3755   20.6627   14.1468   14.1011   15.0140   61.7553    2.4935    4.6588    0.0448    5.6537   60.3289   95.3488    1.5807
   5499.3540   41.5304    6.2106   20.3908   12.2836   12.0918   12.9174   61.7625    2.4721    4.3365    0.0221    6.4623   60.6132   95.0620    1.5690
   5499.5064   42.8940    5.9965   20.1199   11.4817   11.3689   12.2171   61.7336    2.4736    3.9778    0.0134    6.5187   61.4470   94.4315    1.5371
   5499.6588   46.3960    6.0092   19.8711   11.3512   11.2827   12.3530   61.7751    2.5111    4.0971    0.0343    6.1775   61.6898   94.6571    1.5345
   5499.8112   48.2210    6.0594   19.6432   11.1468   11.0006   12.2458   61.7858    2.5147    4.5362    0.0465    6.1297   62.1755   94.9023    1.5266
   5499.9636   42.9064    6.1001   19.4275   10.2865   10.0680   11.1848   61.8458    2.4887    4.3800    0.0409    6.7257   62.5617   94.9367    1.5177
   5500.1160   42.5623    6.0576   19.2122    9.5170    9.2838   10.1937   61.8620    2.4665    4.1940    0.0267    7.0631   62.1269   94.5973    1.5230
   5500.2684   42.7774    6.0160   18.9891    9.3239    9.0982    9.9307   61.8323    2.4572    4.1056    0.0230    7.1233   62.7204   94.8781    1.5131
   5500.4208   47.8535    6.0095   18.7495    9.1561    8.9082    9.7542   61.7946    2.4767    4.1084    0.0279    7.6676   62.9277   96.4797    1.5333
   5500.5732   41.5253    6.0434   18.5153    8.8516    8.5901    9.3874   61.8305    2.4870    4.2112    0.0384    8.2138   63.3491   96.9502    1.5305
   5500.7256   35.7545    6.2484   18.2952    8.5949    8.2537    9.0050   61.8214    2.4953    4.5708    0.0583    7.7443   63.4538   97.4164    1.5353
   5500.8780   39.2468    6.3545   18.1029    8.2187    7.7923    8.5204   61.8121    2.4649    4.6669    0.0412    6.9375   63.0895   97.8894    1.5518
   5501.0304   40.3611    6.1834   17.9427    8.3906    7.9482    8.7470   61.8021    2.4363    4.3782    0.0123    6.8238   62.4601   98.1004    1.5709
   5501.1828   38.1198    5.9529   17.8083    9.5221    9.1359   10.0951   61.8376    2.4560    3.9452    0.0014    6.8221   62.9882   97.9860    1.5559
   5501.3352   37.1388    5.8236   17.6913   10.9001   10.5785   11.6256   62.0536    2.4963    3.7100    0.0037    6.1284   63.3962   97.7876    1.5417
   5501.4876   37.9970    5.8487   17.5648   11.8520   11.4480   12.5121   62.1609    2.5344    3.5549    0.0154    5.3893   62.6885   96.4385    1.5200
   5501.6400   38.3734    5.9468   17.4318   12.6159   11.9963   13.0916   62.1864    2.5512    3.7511    0.0323    5.1293   61.8543   94.1878    1.5164
   5501.7924   35.0396    6.0185   17.3206   13.2908   12.4179   13.5641   62.1965    2.5355    4.1203    0.0420    5.0867   61.5000   92.8857    1.5106
   5501.9448   34.2083    6.0459   17.2454   13.7330   12.6979   13.8115   62.2067    2.5239    4.3253    0.0430    5.0806   60.1621   92.3045    1.5361
   5502.0972   38.7208    6.1319   17.1870   14.1948   13.1094   14.0543   62.2168    2.5293    4.5637    0.0545    5.0791   58.3138   92.3221    1.5892
   5502.2496   40.1227    6.1410   17.1219   14.8318   13.7679   14.4420   62.2270    2.5127    4.5322    0.0442    5.0486   59.7802   91.7646    1.5455
   5502.4020   36.4252    6.0977   17.0442   15.5541   14.6659   15.1154   62.2372    2.5067    4.4888    0.0373    4.3786   59.4942   92.8841    1.5660
   5502.5544   36.5693    5.9912   16.9872   16.7470   16.0668   16.4693   62.2473    2.5110    4.3268    0.0294    4.1325   58.7647   93.1898    1.5869
   5502.7068   37.7804    5.9278   17.0196   17.1856   16.2214   16.7751   62.2575    2.5197    4.1993    0.0273    4.2484   59.3737   93.3514    1.5727
   5502.8592   35.6515    5.9255   17.1456   16.8141   15.4188   16.1009   62.2677    2.5273    4.0862    0.0276    4.3725   59.8499   93.7885    1.5674
   5503.0116   38.3244    5.9069   17.4207   17.3250   15.7968   16.5626   62.2779    2.5291    3.9329    0.0208    4.2471   60.2304   93.8045    1.5577
   5503.1640   45.4529    5.8407   17.9650   18.3016   17.0192   17.8897   62.2877    2.5317    3.7347    0.0077    4.0059   60.5813   93.6584    1.5461
   5503.3164   46.3228    5.9555   18.4357   18.5742   17.8722   18.8650   62.2972    2.5625    3.9424    0.0327    4.1642   60.5342   92.9070    1.5348
   5503.4688   53.2640    6.0126   18.7441   18.9005   18.7591   19.6332   62.3069    2.5601    4.1799    0.0433    4.2469   59.8466   90.7548    1.5163
   5503.6212   58.1491    6.0005   19.2681   18.7835   18.2939   18.9187   62.3164    2.5376    4.1941    0.0394    4.1324   59.1470   89.3124    1.5100
   5503.7736   55.3449    6.0926   20.0268   17.2189   16.0943   16.3535   62.3259    2.5396    4.3173    0.0474    4.1171   59.1774   89.8567    1.5185
   5503.9260   49.0803    6.1213   20.3086   15.1336   13.9256   13.9845   62.3355    2.5354    4.4608    0.0505    4.0283   59.5590   90.9779    1.5277
   5504.0784   42.2632    6.0772   20.3479   14.6371   13.5862   13.5740   62.3450    2.5244    4.4094    0.0418    3.9968   60.2103   92.5890    1.5378
   5504.2308   36.8841    5.9962   20.4551   15.1153   14.3076   13.9982   62.3606    2.5239    4.1418    0.0293    4.0613   61.4804   95.2567    1.5494
   5504.3832   36.7180    5.9768   20.4417   15.2440   14.3697   13.7221   62.4000    2.5495    4.3683    0.0308    4.0914   61.9276   96.2077    1.5538
   5504.5356   49.1857    5.8383   20.0130   15.1424   13.7044   13.1904   62.4544    2.5688    4.1724    0.0135 -999.2500   61.2820   96.5769    1.5765
   5504.6880   93.0647    5.8507   19.6279   15.0981   13.2078   12.8097   62.4747    2.6086    4.0221    0.0182 -999.2500   60.4427   96.8990    1.6038
   5504.8404  135.0270    5.8634   19.1728   21.6880   19.5861   19.0538   62.4853    2.6156    3.9499    0.0208 -999.2500   61.3569   97.2463    1.5853
   5504.9928  152.4252    5.8719   18.6493   41.8175   40.1269   39.3908   62.4954    2.6082    3.9072    0.0221 -999.2500   61.6429   96.7220    1.5695
   5505.1452  142.0114    5.9192   17.8787   61.1677   60.1473   59.9020   62.5056    2.6113    4.0634    0.0306 -999.2500   60.4482   95.3257    1.5785
   5505.2976  124.8227    5.9772   17.0624   67.4641   63.7115   64.3308   62.5158    2.5979    4.1953    0.0400 -999.2500   58.1445   93.7331    1.6141
   5505.4500  114.0431    5.9330   16.5342   70.9126   61.9532   64.0966   62.5261    2.5771    4.2238    0.0315 -999.2500   58.0226   92.1685    1.5897
   5505.6024  104.1191    5.8341   16.3027   70.5341   58.1377   61.9723   62.5364    2.5650    4.3705    0.0148 -999.2500   58.2484   91.9861    1.5800
