~Version Information
 VERS.                  2.0:   CWLS log ASCII Standard -VERSION 2.0
 WRAP.                   NO:   One line per depth step
~Well Information Block
#MNEM.UNIT     VALUE/NAME     DESCRIPTION
#---------     -----------    ---------------------------
 STRT.F             14200.0000: START DEPTH
 STOP.F             16770.0000: STOP DEPTH
 STEP.F                 0.5000: STEP DEPTH
 NULL.               -999.2500: NULL VALUE
 UNIT.                12318515:  LOGGING EQUIPMENT ID
 CNTY.             HAIR DALMAH:  COUNTY NAME
 JOBN.        AD-XX-0905995035:  JOB TICKET NUMB
 FLD .             HAIR DALMAH:  FIELD NAME
 PDAT.          Mean Sea Level:  PERMANENT DATUM
 RIG .                     PN8:  RIG NAME
 MWDS.                    ICAD:  MWD SHOP
 CTRY.     United Arab Emirates:  COUNTRY NAME
 REGN.     Middle East/North Africa:  REGION
 BASE.               Abu Dhabi:  LOGGING EQUIPMENT BASE LOCATION
 WTYP.                Vertical:  WELL TYPE
 XYGR.     UTM Zones, Northern Hemisphere, Meters:  XYGROUP
 LLGR.      Latitude/Longitude:  LLGROUP
 MDS .              Win MagUTM:  MAG DATA SOURCE
 MMDD.       05 December, 2019:  MAG DATA DATE
 MMDL.            bggm2019.dat:  MAGNETIC MODEL
 CREF.     Ellipsoid Clarke - 1880:  CART REFERENCE
 GREF.     Ellipsoid World Geodetic System :  GEO REFERENCE
 CGSY.               SS CLRK51:  CART GRID SYS
 GGSY.                      LL:  GEO GRID SYS
 CCDE.     UTM Clarke 1880 (CM 51), Meters:  CART COORD DESC
 GCDE.     Generic Lat/Long's, Degrees, -180 ==> +180:  GEO COORD DESC
 SON .        AD-XX-0905995035:  JOB NUMBER
 COMP.          ADNOC Offshore:  COMPANY
 WELL.               HD011-02D:  WELL NAME
 FTOP.          Formation Tops:  FORM TOPS DESC
 ILTD.               Lithology:  INTERP LTH DESC
 SVYD.                  Survey:  SURVEY DESC
 DMOD.             Drill Model:  DRILL MOD DESC
 HPTY.       Minimum Curvature:  HOLE POS TYPE
 NREF.                    Grid:  NORTH REFERENCE
 SPUD.               17-Feb-20:  SPUD DATE
 DATE.      21.00.00 29-Aug-20:  END TIME
 STIM.      12.00.00 26-Jul-20:  START TIME
 DMF .             Drill Floor:  DRILL MEAS FROM
 DFST.                        :  DIST FSL TEXT
 DFWT.                        :  DIST FWL TEXT
 PROV.               Abu Dhabi:  PROVINCE
 STAT.               Abu Dhabi:  STATE NAME
 API .                        :  API NUMBER
 SRVC.             Halliburton:  SERVICE COMPANY
 UWI .                        :  UNIQUE WELL IDENTIFIER
 LOC .                        :  LOCATION
 LMF .             Drill Floor:  LOG MEASURED FROM
 DEP .ft              0.000000:  DEPTH
 AGAP.ft            118.000000:  AIR GAP
 CMER.deg            51.000000:  CENTRL MERIDIAN
 MMDE.ft              0.000000:  MAGUTM CALC DEP
 APD .ft            118.000000:  DEPTH ABOVE PD
 WDMS.ft             65.000000:  WD ELEV
 EGL .ft              0.000000:  GROUND ELEVATION
 EPD .ft              0.000000:  ELEVATION
 AZTC.deg             1.750428:  AZM TOTAL CORR
 GRDC.deg             0.592532:  GRID CORRECTION
 MDEC.deg             2.342959:  MAGNETIC DECL
 MDIP.deg            38.394272:  MAGNETIC DIP
 MFLD.nT          43612.476563:  MAGNETIC FIELD
 GVFD.g               1.000000:  GRAVITY FIELD
 VSDR.deg            91.860001:  VERT SEC DIRECT
 TDD .ft          16770.000000:  TOTAL DEPTH (DRILLER)
 SDEP.ft          14436.000000:  START DEPTH
 DFSL.ft              0.000000:  DISTANCE FSL
 DFWL.ft              0.000000:  DISTANCE FWL
 UTMY.m         2710911.810000:  UTM Y
 UTMX.m          644702.250000:  UTM X
 WHEW.ft              0.000000:  WELL HEAD E/W
 WHNS.ft              0.000000:  WELL HEAD N/S
 LONG.deg            52.428197:  LONGITUDE
 LATI.deg            24.507246:  LATITUDE
 TVDS.ft            118.000000:  TVDSS CORRECTN
 EKB .ft            118.000000:  KB ELEVATION
 EDF .ft            118.000000:  DF ELEVATION
 MAGU.                 1512580:  MAGUTM CHECKSUM
 VSC .                       0:  VS TO CLOSURE
~Parameter Information Block
#MNEM.UNIT       Value        Description
#---------     -----------    ---------------------------
 AV  .fpm           484.999969:  Ann Velocity 
 AVMX.fpm           969.999939:  Max Ann Veloc 
 AZIF.deg           166.490005:  Azm, Final 
 BHAT.               Mud Motor:  BHA Type 
 BROT.°/100'          0.030000:  Build Rotating 
 BS  .in              8.375000:  Bit Size 
 BSZ .in              8.375000:  Bit Size 
 BTPL.psig          415.000000:  Bit Press Loss 
 CABU.                      No:  Customer Abuse 
 CGEO.             Carey Mills:  Customer Geo 
 COMM.                     ÜhT:  Run Comments 1 
 TCS .hr             21.141129:  Time Ciculation Ended 
 CV  .fpm           564.000000:  Crit Velocity 
 CVMX.fpm           702.000000:  Max Crit Veloc 
 DD1 .     Mohamed Gayed Barakat:  Direct Drillr 1 
 DDSV.               Mud Motor:  DD Service 
 DEFF.%              98.000000:  % Det Eff 
 DLRX.°/100'          0.100000:  Dogleg Rot Max 
 DLSO.°/100'          0.070000:  Dogleg Oriented 
 DLSX.°/100'          0.100000:  Dogleg Str Max 
 DRET.      23.59.00 10-Aug-20:  Drill End Time 
 DRST.      15.30.00 10-Aug-20:  Drill Start Tim 
 DTIM.hr              4.412436:  Time Drilling 
 EDEP.ft          15118.000000:  End Depth 
 ENG1.             Ahmed Aleem:  Engineer 1 
 ETIM.      16.00.00 11-Aug-20:  End Time 
 FLOI.gpm           550.000000:  Flow In 
 FLON.gpm           499.999969:  Flow In Min 
 FLOS.mptm            3.000000:  Fluid Loss 
 FLOX.gpm           550.000000:  Flow In Max 
 DFT .                 Polymer:  Mud Type 
 HFLO.                      No:  High Flow 
 HPRE.                      No:  High Pressure 
 HTEM.                      No:  High Temp 
 HYDO.ft              0.000000:  Hydro Offset 
 IFIN.deg             1.530000:  Inc, Final 
 IMAX.deg             1.590000:  Inc Max 
 IMIN.deg             1.560000:  Inc Min 
 IMND.ft          14992.000000:  Inc Min Depth 
 IMXD.ft          14895.000000:  Inc Max Depth 
 JARR.                      No:  Jarring 
 LETM.      23.59.00 10-Aug-20:  Log End Time 
 LOST.hr                    42:  Lost Rig Time 
 LSTM.      11.00.00 10-Aug-20:  Log Start Time 
 MDCL.ppm        140000.000000:  Mud Chlorides 
 MDES.             Fresh Water:  Mud Desc 
 DFD .ppg            12.000000:  Mud Density 
 MDMN.ppg            12.000000:  Dens Mud Min 
 MDMX.ppg            12.000000:  Dens Mud Max 
 PH  .pH             10.000000:  Mud pH 
 MOWR.                    0 83:  Run Mud OWR 
 MSND.                       0:  Run Mud Sand % 
 MSOL.                      17:  Run Mud Solids% 
 MTV .                GeoForce:  Motor Variant 
 DFV .spqt           50.000000:  Mud Viscosity 
 MWOD.in              6.900000:  MWD Tool OD 
 MWSI.                     Yes:  Serv Intrp, MWD 
 OTIM.hr             49.000000:  Time Operating 
 PMAX.psig        10491.233398:  Press Op, Max 
 PV  .cP             22.000000:  Mud PV 
 RMS .ohmm            0.022000:  Mud Resistivity 
 RMCS.ohmm            0.033000:  Mud Cake Resistivity 
 MCST.degF          212.000000:  Mud Cake Sample Temperature 
 RMFS.ohmm            0.020000:  Mud Filtrate Resistivity 
 RMFT.degF          212.000000:  Mud Filtrate Sample Temperature 
 RMMT.ohmm            0.018000:  Rm @ Max Temp 
 MST .degF          212.000000:  Mud Sample Temperature 
 RUN .                    4200:  Run Number 
 ROPA.fph            20.629999:  ROP Avg 
 ROPN.fph            20.000000:  ROP Min 
 ROPX.fph            31.250002:  ROP Max 
 RPMA.rpm            90.000000:  RPM Surface Avg 
 RPMN.rpm            90.000000:  RPM Surface Min 
 RPMX.rpm            90.000000:  RPM Surface Max 
 RRUN.                    4200:  Rig Run Number 
 RTIM.hr              8.500000:  Time Reaming 
 SAZI.deg           168.300003:  Azm, Start 
 SDEP.ft          14972.500000:  Start Depth 
 SIDD.                      No:  Serv Intrp, DD 
 SINC.deg             1.570000:  Inc, Start 
 SPPA.psig         3000.000000:  SPP Avg 
 SPPN.psig         3000.000000:  SPP Min 
 SPPX.psig         3000.000000:  SPP Max 
 STIM.      21.30.00 09-Aug-20:  Start Time 
 SVCS.                 DD, MWD:  Services 
 SVER.                9.200000:  Sperry Version 
 TDAT.ft            348.000000:  Tot Depth Attmp 
 TDDF.                      No:  Trip for DD 
 TDLG.ft            145.500000:  Tot Depth Loggd 
 TFF .                     Yes:  Trip for Fail 
 TQAA.f-p            22.000000:  Torque Abs Avg 
 TQAN.f-p            22.000000:  Torque Abs Min 
 TQAX.f-p            22.000000:  Torque Abs Max 
 TRRT.°/100'          1.010000:  Turn Rotating 
 MRT .                     AFR:  Maximum Recorded Temperature 
 TTMX.degF          260.000000:  Max Tool Temp 
 VS01.     AD90608221 H7V5WCOF1 (6):  Virtual Str1 SN 
 VS02.     90608207 R11GV2CO (6):  Virtual Str2 SN 
 WBMN.klb            15.000000:  WOB Min 
 WITN.         Ricardo Vasquez:  Customer Rep 
 WOBA.klb            17.500000:  WOB Avg 
 WOBX.klb            20.000000:  WOB Max 
 YP  .lhf2           35.000000:  Yield Point 
~Curve Information Block
#MNEM.UNIT                 API CODE     Curve Description
#---------               -----------    ---------------------------
 DEPT.F                 00 000 000 000:  Depth
 RPTVD.ft               00 000 000 000:  ROP True Vertical Depth
 ROPA.fph               00 000 000 000:  Avg Rate of Penetration
 DGRCC.api              00 000 000 000:  DGR Comb Gamma Ray BCorr
 ALHSI.in               00 000 000 000:  ALD Hole Size Indicator
 ABR .ohmm              00 000 000 000:  At-Bit Resistivity
 AFXT.hr                00 000 000 000:  AFR Form Exp Time
 RM  .ohmm              00 000 000 000:  AFR Medium Avg Res
 RS  .ohmm              00 000 000 000:  AFR Shallow Avg Res
 RD  .ohmm              00 000 000 000:  AFR Deep Avg Res
 TNPL.pu                00 000 000 000:  CTN Porosity Limestone
 ALCDLC.g/cc            00 000 000 000:  ALD LCRB Comp Density
 ALDCLC.g/cc            00 000 000 000:  ALD LCRB Den Correction
 ALPELC.                00 000 000 000:  ALD LCRB Pe Factor
#Other Information
#
#WARRANTY: Halliburton will use its best efforts to furnish customers with 
#accurate information and interpretations that are part of, and incident to, the services 
#provided.  However, Halliburton cannot and does not warrant the accuracy 
#or correctness of such information and interpretations.  Under no circumstances should any 
#such information or interpretation be relied upon as the sole basis for any drilling, 
#completion, production, or financial decision or any procedure involving any risk to the 
#safety of any drilling venture, drilling rig or its crew or any other third party.  The 
#Customer has full responsibility for all drilling, completion and production operation.  
#Halliburton makes no representations or warranties, either expressed or 
#implied, including, but not limited to, the implied warranties of merchantability or fitness 
#for a particular purpose, with respect to the services rendered.  In no event will 
#Halliburton be liable for failure to obtain any particular results or for 
#any damages, including, but not limited to, indirect, special or consequential damages, 
#resulting from the use of any information or interpretation provided by Halliburton.
#
~A    DEPT      RPTVD      ROPA      DGRCC     ALHSI      ABR      AFXT        RM        RS         RD       TNPL     ALCDLC    ALDCLC    ALPELC   
# ...
   16675.0000 15540.1963   10.7627   22.9361    8.3754  184.5021    5.0013    95.3992   61.4940   117.7383    3.3921    2.8545   -0.0128    4.3760
   16675.5000 15540.7080   11.6914   25.3383    8.3750  182.7984    5.0059    85.7532   57.5522    97.5812    3.4758    2.8548   -0.0144    4.4591
   16676.0000 15541.2129   13.8191   27.2137    8.3750  182.0817    5.0132    61.0748   46.9017    63.5543    3.6702    2.8536   -0.0162    4.4375
   16676.5000 15541.7207   15.2291   30.4058    8.3750  182.0481    5.0227    37.2285   32.8251    37.7619    3.9067    2.8550   -0.0167    4.3107
   16677.0000 15542.2197   15.6007   33.3343    8.3750  182.4391    5.0329    38.6217   34.0719    43.8503    3.6605    2.8567   -0.0165    4.3290
   16677.5000 15542.7178   15.5756   27.9799    8.3750  182.6650    5.0430    65.2145   46.4201    80.8017    3.6139    2.8555   -0.0153    4.2900
   16678.0000 15543.2197   15.6047   24.0117    8.3755  183.6175    5.0532    85.4841   50.0355   101.4681 -999.2500    2.8556   -0.0123    4.2913
   16678.5000 15543.7188   15.6206   26.0736    8.3755  185.4851    5.0632    86.0965   49.5404   103.0520 -999.2500    2.8502   -0.0109    4.6736
   16679.0000 15544.2158   15.6042   26.6907    8.3750  187.7944    5.0725    76.4561   45.7882    89.5644 -999.2500    2.8452   -0.0103    4.4624
   16679.5000 15544.7256   15.5858   30.5237    8.3750  190.2125    5.0810    66.9830   46.2957    81.4275 -999.2500    2.8480   -0.0126    4.5389
   16680.0000 15545.2080   15.0370   32.4234    8.3750  193.0449    5.0897    78.7703   54.5294    98.4449 -999.2500    2.8592   -0.0143    4.6273
   16680.5000 15545.7207   14.7623   25.8833    8.3750  195.6753    5.0987   130.5363   66.0132   152.6087 -999.2500    2.8700   -0.0107    4.7049
   16681.0000 15546.2168   14.9528   19.9856    8.3750  196.5753    5.1415   184.0972   77.3611   227.8898 -999.2500    2.8662   -0.0106    4.8362
   16681.5000 15546.7119   14.8144   19.3902    8.3750  197.0433    6.1058   162.2166   80.4678   263.8736 -999.2500    2.8590   -0.0111    4.4583
   16682.0000 15547.2139   15.0646   20.7276    8.3750  197.2932    6.9972   137.7446   72.9419   240.5438 -999.2500    2.8488   -0.0190    4.7702
   16682.5000 15547.7129   15.5240   19.6086    8.3750  198.0222    7.0305   131.0956   66.2783   222.0932 -999.2500    2.8695   -0.0109    4.7185
   16683.0000 15548.2080   16.0282   19.7288    8.3750  198.4319    7.0335   141.3897   65.5641   239.0088 -999.2500    2.8617   -0.0131    4.5494
   16683.5000 15548.7148   16.9042   18.2879    8.3750  197.2621    7.0352   157.6400   66.8337   265.3091 -999.2500    2.8565   -0.0111    4.5830
   16684.0000 15549.2139   17.5329   18.4155    8.3750  195.1769    7.0374   160.8660   66.4511   264.8117 -999.2500    2.8504   -0.0102    4.5219
   16684.5000 15549.7158   17.6216   21.5625    8.3770  192.6748    7.0424   143.7861   62.8512   232.0216 -999.2500    2.8565   -0.0043    4.6375
   16685.0000 15550.2158   17.6141   22.2788    8.3765  188.9877    7.0479   133.3380   61.0612   218.4356 -999.2500    2.8487   -0.0101    4.5667
   16685.5000 15550.7197   17.4714   22.5266    8.3750  185.9738    7.0520   146.8181   63.0372   253.0223 -999.2500    2.8388   -0.0169    4.3122
   16686.0000 15551.2139   17.0492   22.7667    8.3750  183.9319    7.0556   167.2934   65.0118   303.2367 -999.2500    2.8390   -0.0142    4.3806
   16686.5000 15551.7432   16.3355   22.6055    8.3750  181.6235    7.0580   144.4925   59.2474   261.6010 -999.2500    2.8374   -0.0141    4.4759
   16687.0000 15552.2197   14.0537   22.1144    8.3750  178.6641    7.0659   118.6784   52.6534   198.4523 -999.2500    2.8440   -0.0090    4.4882
   16687.5000 15552.6680   12.2224   19.7713    8.3750  176.4887    7.0693   119.1324   52.2891   193.8878 -999.2500    2.8416   -0.0105    4.7708
   16688.0000 15553.2070   14.3740   19.9533    8.3766  175.7533    7.0768   126.2043   54.0410   216.3329 -999.2500    2.8487   -0.0065    4.5767
   16688.5000 15553.7119   18.6054   19.1993    8.3758  175.5846    7.0919   125.3764   53.4998   215.3474 -999.2500    2.8369   -0.0080    4.4663
   16689.0000 15554.2188   19.7102   24.2122    8.3771  175.2215    7.1081   137.7392   55.9981   240.8159 -999.2500    2.8336   -0.0075    4.6673
   16689.5000 15554.7139   19.2676   26.5253    8.3754  175.2054    7.1232   171.2160   63.7288   310.2937 -999.2500    2.8350   -0.0083    4.8045
   16690.0000 15555.2363   18.5056   29.4473    8.3755  175.3116    7.1329   192.7128   68.3525   322.5649 -999.2500    2.8393   -0.0088    4.6040
   16690.5000 15555.7109   16.6875   28.7963    8.3770  175.3147    7.1340   168.7902   63.6425   250.9276 -999.2500    2.8532   -0.0096    4.7468
   16691.0000 15556.2119   14.9349   25.6840    8.3770  174.6095    7.1339   134.9227   59.9816   191.2982 -999.2500    2.8536   -0.0097    4.7549
   16691.5000 15556.7109   14.7397   26.4134 -999.2500  172.7028    7.1338    93.2175   52.6669   126.0070 -999.2500 -999.2500 -999.2500 -999.2500
   16692.0000 15557.2129   14.8830   24.7789 -999.2500  172.2003    7.1342    88.8732   51.3877   109.2412 -999.2500 -999.2500 -999.2500 -999.2500
   16692.5000 15557.7109   14.8655   21.0202 -999.2500  172.1012    7.1340   132.5680   62.3406   162.3599 -999.2500 -999.2500 -999.2500 -999.2500
   16693.0000 15558.2100   14.8587   20.3931 -999.2500  170.1416    7.1338   189.0587   72.7447   271.0567 -999.2500 -999.2500 -999.2500 -999.2500
   16693.5000 15558.7109   14.8616   19.2289 -999.2500  167.2160    7.1341   234.7436   78.1614   383.8224 -999.2500 -999.2500 -999.2500 -999.2500
   16694.0000 15559.2100   14.8629   19.3662 -999.2500  164.7610    7.1341   253.1965   80.1343   480.8169 -999.2500 -999.2500 -999.2500 -999.2500
   16694.5000 15559.7109   14.8579   19.4600 -999.2500  161.9576    7.1346   221.8548   74.8628   451.6918 -999.2500 -999.2500 -999.2500 -999.2500
   16695.0000 15560.2100   14.8503   19.4759 -999.2500  160.2797    7.1343   198.1254   70.6778   402.8913 -999.2500 -999.2500 -999.2500 -999.2500
   16695.5000 15560.7109   14.8525   18.7428 -999.2500  158.3238    7.1347   204.1172   71.3993   400.8371 -999.2500 -999.2500 -999.2500 -999.2500
   16696.0000 15561.2100   14.8738   19.1313 -999.2500  155.9783    7.1343   207.0190   71.9204   376.3921 -999.2500 -999.2500 -999.2500 -999.2500
   16696.5000 15561.7090   14.8600   19.3469 -999.2500  152.9057    7.1314   179.0916   66.7506   282.0695 -999.2500 -999.2500 -999.2500 -999.2500
   16697.0000 15562.2100   14.8457   20.7821 -999.2500  148.5908    7.1260   143.7800   62.6485   194.5498 -999.2500 -999.2500 -999.2500 -999.2500
   16697.5000 15562.7090   14.8683   25.5379 -999.2500  144.6769    7.1198    87.1378   53.5871   104.4668 -999.2500 -999.2500 -999.2500 -999.2500
   16698.0000 15563.2305   14.7460   32.7046 -999.2500  141.7838    7.1088    58.1600   41.9768    61.1820 -999.2500 -999.2500 -999.2500 -999.2500
   16698.5000 15563.7393   12.8999   35.7724 -999.2500  138.9345    7.0859    53.6855   46.8435    65.7359 -999.2500 -999.2500 -999.2500 -999.2500
   16699.0000 15564.1709   10.2959   29.8627 -999.2500  136.7474    7.0630    78.9002   69.5244   124.9778 -999.2500 -999.2500 -999.2500 -999.2500
   16699.5000 15564.6816   10.1541   25.6707 -999.2500  136.8659    7.0525    95.6452   68.8725   137.7199 -999.2500 -999.2500 -999.2500 -999.2500
   16700.0000 15565.2607   13.8456   30.0824 -999.2500  137.4212    7.0450    53.5379   45.5988    69.8539 -999.2500 -999.2500 -999.2500 -999.2500
   16700.5000 15565.6934   13.2351   28.5865 -999.2500  137.2247    7.0357    57.1988   42.2294    60.0624 -999.2500 -999.2500 -999.2500 -999.2500
   16701.0000 15566.2002   12.1881   23.2152 -999.2500  137.2412    7.0354   110.5187   55.3935   113.5412 -999.2500 -999.2500 -999.2500 -999.2500
   16701.5000 15566.6660   13.6308   20.2555 -999.2500  138.3684    7.0411   158.2554   65.1650   208.3998 -999.2500 -999.2500 -999.2500 -999.2500
   16702.0000 15567.2783   17.3200   15.4060 -999.2500  139.2201    6.9286   192.1407   70.9358   271.9947 -999.2500 -999.2500 -999.2500 -999.2500
