~Version Information
 VERS.                  2.0:   CWLS log ASCII Standard -VERSION 2.0
 WRAP.                   NO:   One line per depth step
~Well Information Block
#MNEM.UNIT     VALUE/NAME     DESCRIPTION
#---------     -----------    ---------------------------
 STRT.F             14200.0000: START DEPTH
 STOP.F             16770.0000: STOP DEPTH
 STEP.F                 0.5000: STEP DEPTH
 NULL.               -999.2500: NULL VALUE
 UNIT.                12318515:  LOGGING EQUIPMENT ID
 CNTY.             HAIR DALMAH:  COUNTY NAME
 JOBN.        AD-XX-0905995035:  JOB TICKET NUMB
 FLD .             HAIR DALMAH:  FIELD NAME
 PDAT.          Mean Sea Level:  PERMANENT DATUM
 RIG .                     PN8:  RIG NAME
 MWDS.                    ICAD:  MWD SHOP
 CTRY.     United Arab Emirates:  COUNTRY NAME
 REGN.     Middle East/North Africa:  REGION
 BASE.               Abu Dhabi:  LOGGING EQUIPMENT BASE LOCATION
 WTYP.                Vertical:  WELL TYPE
 XYGR.     UTM Zones, Northern Hemisphere, Meters:  XYGROUP
 LLGR.      Latitude/Longitude:  LLGROUP
 MDS .              Win MagUTM:  MAG DATA SOURCE
 MMDD.       05 December, 2019:  MAG DATA DATE
 MMDL.            bggm2019.dat:  MAGNETIC MODEL
 CREF.     Ellipsoid Clarke - 1880:  CART REFERENCE
 GREF.     Ellipsoid World Geodetic System :  GEO REFERENCE
 CGSY.               SS CLRK51:  CART GRID SYS
 GGSY.                      LL:  GEO GRID SYS
 CCDE.     UTM Clarke 1880 (CM 51), Meters:  CART COORD DESC
 GCDE.     Generic Lat/Long's, Degrees, -180 ==> +180:  GEO COORD DESC
 SON .        AD-XX-0905995035:  JOB NUMBER
 COMP.          ADNOC Offshore:  COMPANY
 WELL.               HD011-02D:  WELL NAME
 FTOP.          Formation Tops:  FORM TOPS DESC
 ILTD.               Lithology:  INTERP LTH DESC
 SVYD.                  Survey:  SURVEY DESC
 DMOD.             Drill Model:  DRILL MOD DESC
 HPTY.       Minimum Curvature:  HOLE POS TYPE
 NREF.                    Grid:  NORTH REFERENCE
 SPUD.               17-Feb-20:  SPUD DATE
 DATE.      21.00.00 29-Aug-20:  END TIME
 STIM.      12.00.00 26-Jul-20:  START TIME
 DMF .             Drill Floor:  DRILL MEAS FROM
 DFST.                        :  DIST FSL TEXT
 DFWT.                        :  DIST FWL TEXT
 PROV.               Abu Dhabi:  PROVINCE
 STAT.               Abu Dhabi:  STATE NAME
 API .                        :  API NUMBER
 SRVC.             Halliburton:  SERVICE COMPANY
 UWI .                        :  UNIQUE WELL IDENTIFIER
 LOC .                        :  LOCATION
 LMF .             Drill Floor:  LOG MEASURED FROM
 DEP .ft              0.000000:  DEPTH
 AGAP.ft            118.000000:  AIR GAP
 CMER.deg            51.000000:  CENTRL MERIDIAN
 MMDE.ft              0.000000:  MAGUTM CALC DEP
 APD .ft            118.000000:  DEPTH ABOVE PD
 WDMS.ft             65.000000:  WD ELEV
 EGL .ft              0.000000:  GROUND ELEVATION
 EPD .ft              0.000000:  ELEVATION
 AZTC.deg             1.750428:  AZM TOTAL CORR
 GRDC.deg             0.592532:  GRID CORRECTION
 MDEC.deg             2.342959:  MAGNETIC DECL
 MDIP.deg            38.394272:  MAGNETIC DIP
 MFLD.nT          43612.476563:  MAGNETIC FIELD
 GVFD.g               1.000000:  GRAVITY FIELD
 VSDR.deg            91.860001:  VERT SEC DIRECT
 TDD .ft          16770.000000:  TOTAL DEPTH (DRILLER)
 SDEP.ft          14436.000000:  START DEPTH
 DFSL.ft              0.000000:  DISTANCE FSL
 DFWL.ft              0.000000:  DISTANCE FWL
 UTMY.m         2710911.810000:  UTM Y
 UTMX.m          644702.250000:  UTM X
 WHEW.ft              0.000000:  WELL HEAD E/W
 WHNS.ft              0.000000:  WELL HEAD N/S
 LONG.deg            52.428197:  LONGITUDE
 LATI.deg            24.507246:  LATITUDE
 TVDS.ft            118.000000:  TVDSS CORRECTN
 EKB .ft            118.000000:  KB ELEVATION
 EDF .ft            118.000000:  DF ELEVATION
 MAGU.                 1512580:  MAGUTM CHECKSUM
 VSC .                       0:  VS TO CLOSURE
~Parameter Information Block
#MNEM.UNIT       Value        Description
#---------     -----------    ---------------------------
 AV  .fpm           484.999969:  Ann Velocity 
 AVMX.fpm           969.999939:  Max Ann Veloc 
 AZIF.deg           166.490005:  Azm, Final 
 BHAT.               Mud Motor:  BHA Type 
 BROT.°/100'          0.030000:  Build Rotating 
 BS  .in              8.375000:  Bit Size 
 BSZ .in              8.375000:  Bit Size 
 BTPL.psig          415.000000:  Bit Press Loss 
 CABU.                      No:  Customer Abuse 
 CGEO.             Carey Mills:  Customer Geo 
 COMM.                     ÜhT:  Run Comments 1 
 TCS .hr             21.141129:  Time Ciculation Ended 
 CV  .fpm           564.000000:  Crit Velocity 
 CVMX.fpm           702.000000:  Max Crit Veloc 
 DD1 .     Mohamed Gayed Barakat:  Direct Drillr 1 
 DDSV.               Mud Motor:  DD Service 
 DEFF.%              98.000000:  % Det Eff 
 DLRX.°/100'          0.100000:  Dogleg Rot Max 
 DLSO.°/100'          0.070000:  Dogleg Oriented 
 DLSX.°/100'          0.100000:  Dogleg Str Max 
 DRET.      23.59.00 10-Aug-20:  Drill End Time 
 DRST.      15.30.00 10-Aug-20:  Drill Start Tim 
 DTIM.hr              4.412436:  Time Drilling 
 EDEP.ft          15118.000000:  End Depth 
 ENG1.             Ahmed Aleem:  Engineer 1 
 ETIM.      16.00.00 11-Aug-20:  End Time 
 FLOI.gpm           550.000000:  Flow In 
 FLON.gpm           499.999969:  Flow In Min 
 FLOS.mptm            3.000000:  Fluid Loss 
 FLOX.gpm           550.000000:  Flow In Max 
 DFT .                 Polymer:  Mud Type 
 HFLO.                      No:  High Flow 
 HPRE.                      No:  High Pressure 
 HTEM.                      No:  High Temp 
 HYDO.ft              0.000000:  Hydro Offset 
 IFIN.deg             1.530000:  Inc, Final 
 IMAX.deg             1.590000:  Inc Max 
 IMIN.deg             1.560000:  Inc Min 
 IMND.ft          14992.000000:  Inc Min Depth 
 IMXD.ft          14895.000000:  Inc Max Depth 
 JARR.                      No:  Jarring 
 LETM.      23.59.00 10-Aug-20:  Log End Time 
 LOST.hr                    42:  Lost Rig Time 
 LSTM.      11.00.00 10-Aug-20:  Log Start Time 
 MDCL.ppm        140000.000000:  Mud Chlorides 
 MDES.             Fresh Water:  Mud Desc 
 DFD .ppg            12.000000:  Mud Density 
 MDMN.ppg            12.000000:  Dens Mud Min 
 MDMX.ppg            12.000000:  Dens Mud Max 
 PH  .pH             10.000000:  Mud pH 
 MOWR.                    0 83:  Run Mud OWR 
 MSND.                       0:  Run Mud Sand % 
 MSOL.                      17:  Run Mud Solids% 
 MTV .                GeoForce:  Motor Variant 
 DFV .spqt           50.000000:  Mud Viscosity 
 MWOD.in              6.900000:  MWD Tool OD 
 MWSI.                     Yes:  Serv Intrp, MWD 
 OTIM.hr             49.000000:  Time Operating 
 PMAX.psig        10491.233398:  Press Op, Max 
 PV  .cP             22.000000:  Mud PV 
 RMS .ohmm            0.022000:  Mud Resistivity 
 RMCS.ohmm            0.033000:  Mud Cake Resistivity 
 MCST.degF          212.000000:  Mud Cake Sample Temperature 
 RMFS.ohmm            0.020000:  Mud Filtrate Resistivity 
 RMFT.degF          212.000000:  Mud Filtrate Sample Temperature 
 RMMT.ohmm            0.018000:  Rm @ Max Temp 
 MST .degF          212.000000:  Mud Sample Temperature 
 RUN .                    4200:  Run Number 
 ROPA.fph            20.629999:  ROP Avg 
 ROPN.fph            20.000000:  ROP Min 
 ROPX.fph            31.250002:  ROP Max 
 RPMA.rpm            90.000000:  RPM Surface Avg 
 RPMN.rpm            90.000000:  RPM Surface Min 
 RPMX.rpm            90.000000:  RPM Surface Max 
 RRUN.                    4200:  Rig Run Number 
 RTIM.hr              8.500000:  Time Reaming 
 SAZI.deg           168.300003:  Azm, Start 
 SDEP.ft          14972.500000:  Start Depth 
 SIDD.                      No:  Serv Intrp, DD 
 SINC.deg             1.570000:  Inc, Start 
 SPPA.psig         3000.000000:  SPP Avg 
 SPPN.psig         3000.000000:  SPP Min 
 SPPX.psig         3000.000000:  SPP Max 
 STIM.      21.30.00 09-Aug-20:  Start Time 
 SVCS.                 DD, MWD:  Services 
 SVER.                9.200000:  Sperry Version 
 TDAT.ft            348.000000:  Tot Depth Attmp 
 TDDF.                      No:  Trip for DD 
 TDLG.ft            145.500000:  Tot Depth Loggd 
 TFF .                     Yes:  Trip for Fail 
 TQAA.f-p            22.000000:  Torque Abs Avg 
 TQAN.f-p            22.000000:  Torque Abs Min 
 TQAX.f-p            22.000000:  Torque Abs Max 
 TRRT.°/100'          1.010000:  Turn Rotating 
 MRT .                     AFR:  Maximum Recorded Temperature 
 TTMX.degF          260.000000:  Max Tool Temp 
 VS01.     AD90608221 H7V5WCOF1 (6):  Virtual Str1 SN 
 VS02.     90608207 R11GV2CO (6):  Virtual Str2 SN 
 WBMN.klb            15.000000:  WOB Min 
 WITN.         Ricardo Vasquez:  Customer Rep 
 WOBA.klb            17.500000:  WOB Avg 
 WOBX.klb            20.000000:  WOB Max 
 YP  .lhf2           35.000000:  Yield Point 
~Curve Information Block
#MNEM.UNIT                 API CODE     Curve Description
#---------               -----------    ---------------------------
 DEPT.F                 00 000 000 000:  Depth
 RPTVD.ft               00 000 000 000:  ROP True Vertical Depth
 ROPA.fph               00 000 000 000:  Avg Rate of Penetration
 DGRCC.api              00 000 000 000:  DGR Comb Gamma Ray BCorr
 ALHSI.in               00 000 000 000:  ALD Hole Size Indicator
 ABR .ohmm              00 000 000 000:  At-Bit Resistivity
 AFXT.hr                00 000 000 000:  AFR Form Exp Time
 RM  .ohmm              00 000 000 000:  AFR Medium Avg Res
 RS  .ohmm              00 000 000 000:  AFR Shallow Avg Res
 RD  .ohmm              00 000 000 000:  AFR Deep Avg Res
 TNPL.pu                00 000 000 000:  CTN Porosity Limestone
 ALCDLC.g/cc            00 000 000 000:  ALD LCRB Comp Density
 ALDCLC.g/cc            00 000 000 000:  ALD LCRB Den Correction
 ALPELC.                00 000 000 000:  ALD LCRB Pe Factor
#Other Information
#
#WARRANTY: Halliburton will use its best efforts to furnish customers with 
#accurate information and interpretations that are part of, and incident to, the services 
#provided.  However, Halliburton cannot and does not warrant the accuracy 
#or correctness of such information and interpretations.  Under no circumstances should any 
#such information or interpretation be relied upon as the sole basis for any drilling, 
#completion, production, or financial decision or any procedure involving any risk to the 
#safety of any drilling venture, drilling rig or its crew or any other third party.  The 
#Customer has full responsibility for all drilling, completion and production operation.  
#Halliburton makes no representations or warranties, either expressed or 
#implied, including, but not limited to, the implied warranties of merchantability or fitness 
#for a particular purpose, with respect to the services rendered.  In no event will 
#Halliburton be liable for failure to obtain any particular results or for 
#any damages, including, but not limited to, indirect, special or consequential damages, 
#resulting from the use of any information or interpretation provided by Halliburton.
#
~A    DEPT      RPTVD      ROPA      DGRCC     ALHSI      ABR      AFXT        RM        RS         RD       TNPL     ALCDLC    ALDCLC    ALPELC   
# ...
   16262.5000 15127.9004   17.4840   21.5184    8.3750 1719.1957    2.2170  2233.2573  323.0983  6759.9580    2.9253    2.8455   -0.0138    4.2906
   16263.0000 15128.4043   19.5850   19.7457    8.3750 1703.6479    2.2118  3858.4109  514.9386  7522.2021    2.7724    2.8438   -0.0205    4.6099
   16263.5000 15128.9033   19.8108   19.8948    8.3804 1684.3303    2.2089  7647.3281  731.5225  8284.4463    2.5954    2.8632   -0.0098    4.7543
   16264.0000 15129.4023   19.8301   18.2171    8.3793 1660.2850    2.2066 16599.4746 1015.1301  9046.6904    2.4950    2.8832   -0.0029    4.8368
   16264.5000 15129.9014   19.8579   16.5756    8.3752 1637.7988    2.2038 19928.1289 1195.7908  9808.9346    2.2637    2.8743   -0.0121    4.8081
   16265.0000 15130.4033   19.8503   14.6879    8.3750 1626.8379    2.2027 19325.6914 1099.6407 10571.1787    2.1838    2.8850   -0.0096    4.9458
   16265.5000 15130.8984   19.8046   14.6826    8.3750 1610.7886    2.2056 12134.1475  827.0160 11333.4229    2.2876    2.8847   -0.0094    4.8024
   16266.0000 15131.3945   20.2331   14.8218    8.3750 1590.1774    2.2084  6217.4990  696.8181 12095.6670    2.6142    2.8726   -0.0145    4.2922
   16266.5000 15131.9004   21.3213   16.9009    8.3750 1575.5345    2.2110  4534.9683  769.4453 12857.9111    2.8597    2.8697   -0.0150    4.3076
   16267.0000 15132.4014   22.0591   19.6699    8.3750 1562.0688    2.2136  3307.8330  942.1454 13620.1553    2.9134    2.8624   -0.0199    4.3185
   16267.5000 15132.9014   22.1291   19.3554    8.3757 1557.2384    2.2174  1678.6188  683.1181 14382.3994    2.5645    2.8669   -0.0141    4.4977
   16268.0000 15133.4043   22.0549   18.9405    8.3771 1549.5702    2.2337   995.6939  306.1266 15144.6436    2.1438    2.8637   -0.0106    4.4399
   16268.5000 15133.9033   21.5929   22.6860    8.3750 1537.5287    2.2668   839.8461  164.7685 15906.8877    1.7928    2.8611   -0.0167    4.8625
   16269.0000 15134.4023   21.1193   20.4946    8.3750 1524.5914    2.2780   796.5809  108.3948 16669.1328    1.8193    2.8781   -0.0152    4.5554
   16269.5000 15134.9014   20.9923   19.2467    8.3750 1505.2285    2.2832   782.5873   79.4372 10819.2246    1.9784    2.8735   -0.0135    4.1499
   16270.0000 15135.4043   20.8724   20.1392    8.3750 1484.9288    2.2870   728.3050   67.7654  3482.7166    2.1365    2.8608   -0.0156    4.1614
   16270.5000 15135.9014   20.4160   21.0915    8.3750 1470.7903    2.2841   587.6346   65.7873  2295.0728    2.3523    2.8571   -0.0177    4.2525
   16271.0000 15136.4004   19.9439   19.7606    8.3750 1472.3434    2.2838   435.7209   67.7982  2658.9775    2.3956    2.8589   -0.0167    4.2840
   16271.5000 15136.8965   19.7941   19.8599    8.3750 1477.3971    2.2802   351.7770   75.6680  3551.7202    2.4452    2.8630   -0.0106    4.3738
   16272.0000 15137.4004   19.7766   23.8713    8.3750 1479.0426    2.4505   323.0010   85.7369  4302.0972    2.3085    2.8534   -0.0152    4.3979
   16272.5000 15137.9004   19.7913   21.6159    8.3750 1474.4069    3.1781   308.2755   82.4781  3858.6704    2.1388    2.8598   -0.0183    4.5223
   16273.0000 15138.3994   19.8250   20.0050    8.3750 1466.3374    3.2519   284.3965   72.3010  2891.3755    1.9244    2.8747   -0.0139    4.4588
   16273.5000 15138.8975   19.7827   18.4874    8.3750 1454.8116    3.2598   280.7943   66.5498  2212.0264    1.9675    2.8806   -0.0132    4.4733
   16274.0000 15139.3936   19.9166   16.8496    8.3766 1440.3004    3.2686   300.1785   63.5092  1965.2161    2.0376    2.8699   -0.0104    4.5071
   16274.5000 15139.8994   20.4311   17.1704    8.3795 1433.7808    3.2799   313.5427   59.6666  1704.5541    2.1283    2.8633   -0.0050    4.5246
   16275.0000 15140.4004   20.5665   18.3172    8.3766 1425.3816    3.3009   289.8661   55.5559  1252.4280    2.2577    2.8659   -0.0096    4.7737
   16275.5000 15140.8975   20.0219   20.0665    8.3783 1400.7252    3.3042   254.4664   52.8671   903.5620    2.3123    2.8700   -0.0069    4.4443
   16276.0000 15141.3955   19.6683   22.0935    8.3876 1370.0027    3.3101   223.0794   52.9195   741.2977    2.6172    2.8625   -0.0002    4.6063
   16276.5000 15141.8984   19.6587   22.3156    8.3973 1352.6936    3.3205   209.0869   54.1287   665.1829    2.7015    2.8548    0.0020    4.6813
   16277.0000 15142.3955   19.6347   21.4139    8.3770 1391.9344    3.3312   208.2824   56.4856   686.0559    2.7332    2.8533   -0.0117    4.5294
   16277.5000 15142.8975   19.6068   20.1085    8.3750 1512.0038    3.3396   221.1886   57.9960   826.9228    2.6097    2.8624   -0.0123    4.5037
   16278.0000 15143.3955   19.6197   18.2931    8.3750 1671.6125    3.3444   250.0480   59.6705   975.4512    2.4595    2.8638   -0.0124    4.3379
   16278.5000 15143.8887   19.7729   18.4221    8.3763 1801.8290    3.3477   273.2743   64.9271  1134.2684    2.5114    2.8685   -0.0106    4.4505
   16279.0000 15144.3965   20.5073   20.3249    8.3759 1924.3860    3.3509   288.1317   73.0942  1381.2360    2.6253    2.8675   -0.0128    4.4764
   16279.5000 15144.8945   21.2625   20.3740    8.3752 2037.7623    3.3531   288.0633   74.3419  1313.8969    2.8243    2.8681   -0.0116    4.3496
   16280.0000 15145.3955   21.3987   21.9001    8.3767 2101.4431    3.3545   236.3743   66.0806   915.3420    3.1611    2.8656   -0.0063    4.4821
   16280.5000 15145.8945   21.3537   25.2174    8.3754 2127.1902    3.3563   187.1412   56.8830   630.5059    3.1783    2.8612   -0.0061    4.4040
   16281.0000 15146.3955   21.3479   28.4394    8.3751 2135.9927    3.3676   173.7925   52.7659   529.9338    3.1139    2.8605   -0.0059    4.4988
   16281.5000 15146.8945   21.3832   30.3423    8.3750 2152.1089    3.3932   194.4074   53.1619   555.6130    2.9618    2.8581   -0.0143    4.4020
   16282.0000 15147.3926   21.4056   27.4119    8.3750 2131.8188    3.4051   231.0990   54.8403   662.1700    2.8406    2.8665   -0.0109    4.4054
   16282.5000 15147.8936   21.4259   28.5664    8.3750 2077.1538    3.4166   243.2543   52.8266   709.6173    3.0086    2.8543   -0.0186    4.2266
   16283.0000 15148.3945   21.4232   31.2780    8.3751 2042.2906    3.4314   221.0412   49.4000   622.1970    3.2233    2.8531   -0.0185    4.2819
   16283.5000 15148.8936   21.3993   30.5451    8.3758 2046.1968    3.4448   167.2640   43.4998   450.2558    3.3837    2.8619   -0.0100    4.3723
   16284.0000 15149.3945   21.4268   28.4861    8.3819 2028.2202    3.4584   133.5550   39.9457   338.7971    3.4755    2.8590   -0.0023    4.5203
   16284.5000 15149.8945   21.4211   29.1121    8.3777 2027.5908    3.4708   121.4085   38.5934   284.5963    3.4796    2.8505   -0.0029    4.7069
   16285.0000 15150.3926   21.3696   32.2360    8.3755 2062.4753    3.4898   126.8027   40.2444   285.0930    3.5942    2.8510   -0.0080    4.7689
   16285.5000 15150.8936   21.3958   28.5060    8.3753 2105.7520    3.5019   141.5524   44.8601   326.0319    3.3540    2.8535   -0.0125    4.5720
   16286.0000 15151.3936   21.4395   25.3385    8.3750 2159.5645    3.5122   142.5151   48.2529   357.9470    3.2425    2.8500   -0.0140    4.5679
   16286.5000 15151.8906   21.4163   24.6345    8.3763 2206.5352    3.5221   142.8443   50.8169   391.9752    3.1340    2.8629   -0.0076    4.7139
   16287.0000 15152.3916   21.4123   23.6959    8.3756 2234.0752    3.5320   157.8159   54.7724   469.2705    3.0622    2.8651   -0.0098    4.5360
   16287.5000 15152.8926   21.4319   24.0607    8.3750 2210.1846    3.5427   169.6487   55.7907   522.6638    3.1364    2.8590   -0.0146    4.3726
   16288.0000 15153.3906   21.4473   30.7559    8.3750 2104.7915    3.5531   144.3366   49.2997   417.7653    2.9451    2.8633   -0.0111    4.4138
   16288.5000 15153.8828   21.6103   32.9583    8.3750 2094.0840    3.5645   108.4897   39.8161   273.9912    2.8245    2.8598   -0.0148    4.3418
   16289.0000 15154.3916   22.4924   27.3724    8.3750 2094.4294    3.5774    87.3240   32.1586   203.3651    2.5648    2.8657   -0.0110    4.4682
   16289.5000 15154.8975   23.1859   22.7125    8.3750 2078.6050    3.5893    78.9188   27.8477   182.3204    2.2575    2.8595   -0.0119    4.3924
