~Version Information
 VERS.                  2.0:   CWLS log ASCII Standard -VERSION 2.0
 WRAP.                   NO:   One line per depth step
~Well Information Block
#MNEM.UNIT     VALUE/NAME     DESCRIPTION
#---------     -----------    ---------------------------
 STRT.M              5223.0528: START DEPTH
 STOP.M              5536.2348: STOP DEPTH
 STEP.M                 0.1524: STEP DEPTH
 NULL.               -999.2500: NULL VALUE
 DFWT.                        :  DIST FWL TEXT
 DFST.                        :  DIST FSL TEXT
 DMF .             Drill Floor:  DRILL MEAS FROM
 STIM.      11.30.00 09-Jul-16:  START TIME
 DATE.      11.29.04 14-Aug-16:  END TIME
 SPUD.               17-Aug-15:  SPUD DATE
 NREF.                    Grid:  NORTH REFERENCE
 HPTY.       Minimum Curvature:  HOLE POS TYPE
 DMOD.             Drill Model:  DRILL MOD DESC
 SVYD.                  Survey:  SURVEY DESC
 ILTD.               Lithology:  INTERP LTH DESC
 FTOP.          Formation Tops:  FORM TOPS DESC
 WELL.              AF011-3D-1:  WELL NAME
 COMP.               TOTAL-ABK:  COMPANY
 SON .        AD-XX-0902156848:  JOB NUMBER
 GCDE.     Generic Lat/Long's, Degrees, -180 ==> +180:  GEO COORD DESC
 CCDE.     UTM Clarke 1880 (CM 51), Meters:  CART COORD DESC
 GGSY.                      LL:  GEO GRID SYS
 CGSY.               SS CLRK51:  CART GRID SYS
 GREF.     Ellipsoid World Geodetic System :  GEO REFERENCE
 CREF.     Ellipsoid Clarke - 1880:  CART REFERENCE
 MMDL.            bggm2016.dat:  MAGNETIC MODEL
 MMDD.            20 May, 2016:  MAG DATA DATE
 MDS .              Win MagUTM:  MAG DATA SOURCE
 LLGR.      Latitude/Longitude:  LLGROUP
 XYGR.     UTM Zones, Northern Hemisphere, Meters:  XYGROUP
 PDAT.          Mean Sea Level:  PERMANENT DATUM
 WTYP.                Deviated:  WELL TYPE
 BASE.               Abu Dhabi:  LOGGING EQUIPMENT BASE LOCATION
 REGN.     Middle East/North Africa:  REGION
 PROV.               Abu Dhabi:  PROVINCE
 STAT.               Abu Dhabi:  STATE NAME
 CTRY.     United Arab Emirates:  COUNTRY NAME
 FLD .         Abu Al Bukhoosh:  FIELD NAME
 SRVC.                  SAIPEM:  CONTRACTOR
 MWDS.                Musaffah:  MWD SHOP
 RIG .           Perro Negro 8:  RIG NAME
 CNTY.               Abu Dhabi:  COUNTY NAME
 DCON.             HALLIBURTON:  DIRECTNL CONTR
 UNIT.                    9804:  LOGGING EQUIPMENT ID
 DOE .        AD-XX-0902156848:  DOE NUMBER
 API .                        :  API NUMBER
 UWI .                        :  UNIQUE WELL IDENTIFIER
 LOC .                        :  LOCATION
 LMF .             Drill Floor:  LOG MEASURED FROM
 TVDS.m              43.899999:  TVDSS CORRECTN
 LATI.deg            25.504513:  LATITUDE
 LONG.deg            53.120396:  LONGITUDE
 WHNS.m               0.000000:  WELL HEAD N/S
 WHEW.m               0.000000:  WELL HEAD E/W
 UTMX.m          713123.300043:  UTM X
 UTMY.m         2822281.299893:  UTM Y
 DFWL.m               0.000000:  DISTANCE FWL
 DFSL.m               0.000000:  DISTANCE FSL
 SDEP.m            5253.990000:  START DEPTH
 TDD .m            5543.669658:  TOTAL DEPTH (DRILLER)
 VSDR.deg           249.940002:  VERT SEC DIRECT
 GVFD.g               1.000000:  GRAVITY FIELD
 MFLD.nT          43940.839844:  MAGNETIC FIELD
 MDIP.deg            39.918472:  MAGNETIC DIP
 MDEC.deg             2.250056:  MAGNETIC DECL
 GRDC.deg             0.913350:  GRID CORRECTION
 AZTC.deg             1.336706:  AZM TOTAL CORR
 EPD .m               0.000000:  ELEVATION
 EGL .m             -45.400001:  GROUND ELEVATION
 WDMS.m              45.400001:  WD ELEV
 APD .m              43.899999:  DEPTH ABOVE PD
 MMDE.m               0.000000:  MAGUTM CALC DEP
 CMER.deg            51.000000:  CENTRL MERIDIAN
 AGAP.m              23.099999:  AIR GAP
 EKB .m              43.899999:  KB ELEVATION
 EDF .m              43.899999:  DF ELEVATION
 VSC .                       0:  VS TO CLOSURE
 MAGU.                 1527179:  MAGUTM CHECKSUM
~Parameter Information Block
#MNEM.UNIT       Value        Description
#---------     -----------    ---------------------------
 AV  .mps             1.500000:  Ann Velocity 
 AVMX.mps             2.400000:  Max Ann Veloc 
 AZIF.deg           257.739990:  Azm, Final 
 BHAT.                 Turbine:  BHA Type 
 BROT.°/100'          0.000000:  Build Rotating 
 BS  .in              8.500000:  Bit Size 
 BSZ .in              8.500000:  Bit Size 
 BTPL.psig           43.511005:  Bit Press Loss 
 CABU.                      No:  Customer Abuse 
 TCS .hr            149.515671:  Time Ciculation Ended 
 CV  .mps             3.000000:  Crit Velocity 
 CVMX.mps             4.000000:  Max Crit Veloc 
 DD1 .            Ahmed Bayoud:  Direct Drillr 1 
 DD2 .        Hany Abdel Hafez:  Direct Drillr 2 
 DDSV.                 Turbine:  DD Service 
 DEFF.%              98.000000:  % Det Eff 
 DLRX.°/100'          0.000000:  Dogleg Rot Max 
 DLSO.°/100'          0.000000:  Dogleg Oriented 
 DLSX.°/100'          0.000000:  Dogleg Str Max 
 DRET.      12.28.32 23-Jun-16:  Drill End Time 
 DRST.      14.30.00 17-Jun-16:  Drill Start Tim 
 DTIM.hr            102.349998:  Time Drilling 
 EDEP.m            5254.000000:  End Depth 
 ENG1.         Ahmed Montasser:  Engineer 1 
 ENG2.              Do Dang Sa:  Engineer 2 
 ENG3.           Khaled Khalaf:  Engineer 3 
 ENG4.         Muhammad Mubeen:  Engineer 4 
 ETIM.      05.40.54 26-Jun-16:  End Time 
 FLOI.lpm          1800.000122:  Flow In 
 FLON.lpm          1500.000000:  Flow In Min 
 FLOS.lpm             0.000000:  Fluid Loss 
 FLOX.lpm          1800.000122:  Flow In Max 
 DFT .                   Other:  Mud Type 
 HFLO.                      No:  High Flow 
 HPRE.                      No:  High Pressure 
 HTEM.                      No:  High Temp 
 HYDO.m               1.400000:  Hydro Offset 
 IFIN.deg            10.460000:  Inc, Final 
 IMAX.deg            32.367214:  Inc Max 
 IMIN.deg            11.447388:  Inc Min 
 IMND.m            5236.799805:  Inc Min Depth 
 IMXD.m            4790.299805:  Inc Max Depth 
 JARR.                      No:  Jarring 
 LETM.      12.28.32 23-Jun-16:  Log End Time 
 LOST.hr                     0:  Lost Rig Time 
 LSTM.      14.30.00 17-Jun-16:  Log Start Time 
 MDCL.ppm         23000.000000:  Mud Chlorides 
 MDES.             Fresh Water:  Mud Desc 
 DFD .g/c3            1.170004:  Mud Density 
 MDMN.g/c3            1.160004:  Dens Mud Min 
 MDMX.g/c3            1.170004:  Dens Mud Max 
 PH  .pH              9.400000:  Mud pH 
 MOIL.                       0:  Run Mud Oil % 
 MOWR.                    1 91:  Run Mud OWR 
 MSND.                     0.1:  Run Mud Sand % 
 MSOL.                     6.2:  Run Mud Solids% 
 DFV .spl            73.000000:  Mud Viscosity 
 MWOD.in              6.750000:  MWD Tool OD 
 MWSI.                      No:  Serv Intrp, MWD 
 OTIM.hr            238.111023:  Time Operating 
 PMAX.psig         4000.000000:  Press Op, Max 
 PV  .mPsec          36.000000:  Mud PV 
 RMS .ohmm            0.299000:  Mud Resistivity 
 RMCS.ohmm            0.397000:  Mud Cake Resistivity 
 MCST.degC           35.000000:  Mud Cake Sample Temperature 
 RMFS.ohmm            0.200000:  Mud Filtrate Resistivity 
 RMFT.degC           35.000000:  Mud Filtrate Sample Temperature 
 RMMT.ohmm            0.118100:  Rm @ Max Temp 
 MST .degC           35.000000:  Mud Sample Temperature 
 RUN .                    3300:  Run Number 
 ROPA.m/hr            4.450000:  ROP Avg 
 ROPN.m/hr            2.000000:  ROP Min 
 ROPX.m/hr            7.000000:  ROP Max 
 RPMA.rpm            78.000000:  RPM Surface Avg 
 RPMN.rpm            35.000000:  RPM Surface Min 
 RPMX.rpm            80.000000:  RPM Surface Max 
 RRUN.                    3300:  Rig Run Number 
 RTIM.hr              7.150000:  Time Reaming 
 SAZI.deg           249.699997:  Azm, Start 
 SDEP.m            4799.000000:  Start Depth 
 SIDD.                      No:  Serv Intrp, DD 
 SINC.deg            30.049999:  Inc, Start 
 SPPA.psig         4543.999023:  SPP Avg 
 SPPN.psig         4264.078613:  SPP Min 
 SPPX.psig         4641.173828:  SPP Max 
 STIM.      09.00.00 16-Jun-16:  Start Time 
 SVCS.                 DD, MWD:  Services 
 SVER.                8.300000:  Sperry Version 
 TDAT.m             455.000000:  Tot Depth Attmp 
 TDDF.                      No:  Trip for DD 
 TDLG.m             455.000000:  Tot Depth Loggd 
 TFF .                      No:  Trip for Fail 
 TQAA.f-p         37070.000000:  Torque Abs Avg 
 TQAN.f-p         35000.000000:  Torque Abs Min 
 TQAX.f-p         39000.000000:  Torque Abs Max 
 TRRT.°/100'          0.000000:  Turn Rotating 
 MRT .                     PWD:  Maximum Recorded Temperature 
 TTMX.degC          121.568352:  Max Tool Temp 
 VS01.     AD90473258H2V5WGV2COXF1(6):  Virtual Str1 SN 
 WBMN.klb             4.409245:  WOB Min 
 WITN.           Roger Butters:  Customer Rep 
 WOBA.klb             9.788525:  WOB Avg 
 WOBX.klb            13.227736:  WOB Max 
 YP  .pa             43.000000:  Yield Point 
~Curve Information Block
#MNEM.UNIT                 API CODE     Curve Description
#---------               -----------    ---------------------------
 DEPT.M                 00 000 000 000:  Depth
 DGRCC.api              00 000 000 000:  DGR Comb Gamma Ray BCorr
 ALHSI.in               00 000 000 000:  ALD Hole Size Indicator
 ABR .ohmm              00 000 000 000:  At-Bit Resistivity
 AFRSA.ohmm             00 000 000 000:  AFR Shallow Avg Res
 AFRMA.ohmm             00 000 000 000:  AFR Medium Avg Res
 AFRDA.ohmm             00 000 000 000:  AFR Deep Avg Res
 AFXT.hr                00 000 000 000:  AFR Form Exp Time
 ALCDLC.g/c3            00 000 000 000:  ALD LCRB Comp Density
 ALPELC.NONE            00 000 000 000:  ALD LCRB Pe Factor
 ALDCLC.g/c3            00 000 000 000:  ALD LCRB Den Correction
 TNPL.pu                00 000 000 000:  CTN Porosity Limestone
 DTC .uspf              00 000 000 000:  BAT DTC
 DTRS.uspf              00 000 000 000:  BAT Refracted Shear
 VPVS.NONE              00 000 000 000:  BAT VP/VS
#Other Information
#
#WARRANTY: Halliburton will use its best efforts to furnish customers with 
#accurate information and interpretations that are part of, and incident to, the services 
#provided.  However, Halliburton cannot and does not warrant the accuracy 
#or correctness of such information and interpretations.  Under no circumstances should any 
#such information or interpretation be relied upon as the sole basis for any drilling, 
#completion, production, or financial decision or any procedure involving any risk to the 
#safety of any drilling venture, drilling rig or its crew or any other third party.  The 
#Customer has full responsibility for all drilling, completion and production operation.  
#Halliburton makes no representations or warranties, either expressed or 
#implied, including, but not limited to, the implied warranties of merchantability or fitness 
#for a particular purpose, with respect to the services rendered.  In no event will 
#Halliburton be liable for failure to obtain any particular results or for 
#any damages, including, but not limited to, indirect, special or consequential damages, 
#resulting from the use of any information or interpretation provided by Halliburton.
#
~A   DEPT      DGRCC     ALHSI      ABR      AFRSA     AFRMA     AFRDA     AFXT     ALCDLC    ALPELC    ALDCLC     TNPL       DTC      DTRS      VPVS    
# ...
   5400.7512   17.1091    5.9669    5.0056    7.3776    6.3696    6.6891   38.5255    2.4495    4.0636    0.0247    9.0559   65.6218   97.7473    1.4897
   5400.9036   17.3263    5.9831    6.3758    9.4411    8.4572    8.6395   38.5397    2.4575    4.0111    0.0185    7.5606   66.0818   97.6312    1.4776
   5401.0560   24.7303    5.8944    7.0275   12.2250   11.2635   11.2254   38.5513    2.4634    3.6552    0.0005    6.6634   65.6062   97.7623    1.4905
   5401.2084   37.1618    5.8073    7.0916   11.4520   10.0358   10.3282   38.5619    2.4771    3.1332   -0.0256    7.6340   64.9969   98.8902    1.5219
   5401.3608   38.1014    5.8358    6.7622   10.0300    7.8940    8.8146   38.5731    2.5158    2.9771   -0.0068    9.4212   65.1511  100.8646    1.5488
   5401.5132   36.3337    5.9597    6.1339    9.8582    7.5123    8.5555   38.5867    2.5077    3.3089    0.0209    9.8756   64.5026  103.3273    1.6038
   5401.6656   29.7592    5.8802    5.4331    8.3587    6.7312    7.1209   38.6096    2.4538    3.4193    0.0117   10.8853   65.5618  105.1154    1.6054
   5401.8180   23.0772    5.8230    4.8563    6.5060    5.4545    5.3924   38.6573    2.4250    3.6541    0.0091   11.6936   68.0838  105.9400    1.5570
   5401.9704   22.5914    5.8455    4.3508    6.0416    5.0183    4.9689   38.7052    2.4402    3.6849    0.0138   11.5763   67.8890  104.5861    1.5406
   5402.1228   23.1025    5.9106    3.9202    6.3978    5.3920    5.3669   38.7702    2.4477    3.7329    0.0221   10.6389   67.0671  102.5314    1.5288
   5402.2752   23.6182    5.8428    3.5340    6.7385    5.8084    5.8068   38.8032    2.4268    3.6143    0.0017   10.1668   66.9832  100.7033    1.5035
   5402.4276   29.2453    5.7710    3.2003    6.9897    5.9880    6.2242   39.0265    2.4247    3.1593   -0.0298   10.4652   67.3800   99.7412    1.4804
   5402.5800   33.0899    5.7805    2.9651    7.3532    6.4486    6.7497   39.1027    2.4755    2.8516   -0.0123   10.4389   66.8149   98.8535    1.4799
   5402.7324   31.2359    5.8206    2.9083    7.3644    6.6067    6.8543   39.1220    2.4870    3.1324    0.0078   10.1921   65.8800   99.8425    1.5159
   5402.8848   25.8376    5.8141    2.9525    7.4292    6.6321    6.9490   39.1325    2.4602    3.5665    0.0097   10.1351   65.5313  101.5750    1.5502
   5403.0372   21.4610    5.8117    3.0015    8.7117    8.0660    8.1706   39.1441    2.4535    3.7646    0.0092    9.4556   65.9405  101.7902    1.5437
   5403.1896   15.1400    5.7854    3.0103   10.0403    9.1493    9.3125   39.1599    2.4540    3.7688    0.0052    8.9558   66.0856  102.0384    1.5441
   5403.3420   16.2436    5.8061    3.0111    8.7800    7.3649    7.9282   39.1859    2.4573    3.7185    0.0107    8.4590   66.9285  104.3854    1.5599
   5403.4944   23.4024    5.9003    3.0289    6.6239    5.4748    5.7525   39.2024    2.4691    3.8840    0.0287    8.7846   68.5661  105.7238    1.5422
   5403.6468   30.3571    5.9601    3.0369    5.6382    4.7597    4.7229   39.2141    2.4532    3.9112    0.0326   10.0892   69.5281  107.4187    1.5452
   5403.7992   24.5891    5.9278    3.0419    5.6441    4.7795    4.6659   39.2246    2.4305    3.9617    0.0261   11.6416   69.0438  109.1933    1.5820
   5403.9516   20.1908    5.9332    3.0824    5.8422    4.9215    4.7929   39.2356    2.4269    4.0292    0.0254   11.5068   67.3273  106.6280    1.5845
   5404.1040   21.5028    5.8462    3.1488    6.4998    5.4387    5.2922   39.2465    2.4262    3.7527    0.0066   11.0384   66.6012  100.3918    1.5072
   5404.2564   25.2393    5.7720    3.2152    9.2406    7.8810    7.6993   39.2570    2.4426    3.4132   -0.0236   10.5052   65.3280   95.2418    1.4579
   5404.4088   34.2405    5.7626    3.2448   13.1416   11.4994   11.4955   39.2678    2.5030    3.2625   -0.0280   10.2046   63.3646   93.1442    1.4712
   5404.5612   45.3404    5.8263    3.2621   13.0733   11.3828   11.8103   39.2787    2.5796    3.2794    0.0048    9.3839   60.7226   91.5588    1.5094
   5404.7136   53.8902    5.9700    3.3158   11.2139    9.5266   10.1028   39.2893    2.5863    3.5420    0.0369    9.0035   60.5191   92.7387    1.5332
   5404.8660   46.4023    6.0750    3.3970   10.2906    8.6618    9.1253   39.3000    2.5668    3.9042    0.0549    8.1044   62.0892   95.0819    1.5319
   5405.0184   34.2167    6.0749    3.4760    9.8573    8.4281    8.6023   39.3110    2.5279    4.1643    0.0519    7.8900   63.0382   97.9778    1.5551
   5405.1708   28.3832    6.0299    3.5387    9.8280    8.7239    8.5450   39.3218    2.5026    4.2430    0.0422    7.6470   62.2908   98.9723    1.5900
   5405.3232   29.6882    6.0406    3.5570   10.3865    9.5729    9.0015   39.3323    2.5022    4.2012    0.0438    7.3892   63.2802   99.4004    1.5721
   5405.4756   30.0279    6.0321    3.5933    9.5686    8.6821    8.0836   39.3433    2.4855    4.1162    0.0383    8.3487   64.5968   99.8940    1.5469
   5405.6280   26.2357    5.9981    3.6596    8.0474    6.9114    6.5589   39.3542    2.4708    4.1193    0.0355    9.7141   65.0683   99.6475    1.5315
   5405.7804   23.4262    5.9480    3.7157    7.8126    6.4346    6.3186   39.3646    2.4618    4.0786    0.0289    9.8665   64.4268   98.2971    1.5258
   5405.9328   31.0223    5.8806    3.7036   10.1348    8.3849    8.5048   39.3755    2.4584    3.9628    0.0193    9.6088   62.9477   95.8719    1.5234
   5406.0852   48.6482    5.9926    3.7179   17.4680   14.7412   15.2456   39.3865    2.4881    4.1017    0.0352    9.7315   62.7853   94.1232    1.5000
   5406.2376   42.5462    6.0702    3.8286   27.3818   23.0825   24.1506   39.3971    2.5016    4.1994    0.0380    8.9656   61.5952   93.1832    1.5145
   5406.3900   27.0612    6.0434    3.9338   21.1862   17.8220   19.1852   39.4078    2.5035    4.0657    0.0259   10.3841   60.4352   92.8012    1.5361
   5406.5424   20.2957    6.0752    3.9849   13.5622   11.6560   12.5660   39.4188    2.5275    4.2539    0.0341   12.9377   60.5489   93.4464    1.5435
   5406.6948   28.2100    5.9911    3.9913    8.6628    7.5987    8.1308   39.4297    2.5336    4.3395    0.0350    8.6912   60.4604   97.1552    1.6071
   5406.8472   41.7428    6.0818    4.0000    5.9407    5.2527    5.5214   39.4401    2.5520    4.4042    0.0548    8.9232   61.3788  100.4932    1.6378
   5406.9996   47.8481    6.2138    4.0544    4.8600    4.3879    4.4675   39.4509    2.5392    4.5244    0.0722   11.2667   63.9369  103.5146    1.6197
   5407.1520   44.5869    6.2573    4.1195    4.6403    4.3299    4.3212   39.4612    2.4979    4.6245    0.0675   12.1054   65.7153  105.8166    1.6105
   5407.3044   40.2472    6.2544    4.1515    4.6654    4.5432    4.5503   39.4715    2.4724    4.8004    0.0622   13.1822   66.8220  106.0366    1.5870
   5407.4568   39.8073    6.2649    4.1730    5.0407    5.0952    5.2561   39.4817    2.4681    4.9602    0.0642   13.9977   66.5725  105.1698    1.5800
   5407.6092   43.2047    6.1884    4.2393    5.4122    5.5001    5.9429   39.4919    2.4594    4.9483    0.0600   14.4603   65.6920  105.3010    1.6031
   5407.7616   55.0600    6.0292    4.2872    5.2349    5.1722    5.8222   39.5020    2.4540    4.6708    0.0362   14.8623   65.0919  105.2222    1.6166
   5407.9140   46.2510    6.1280    4.2824    4.8940    4.7123    5.4421   39.5121    2.4926    4.7480    0.0551   14.9118   64.9526  104.8881    1.6149
   5408.0664   42.9265    6.3251    4.2777    4.9185    4.7590    5.6074   39.5224    2.5215    5.0136    0.0843   14.6706   65.4568  104.7199    1.6000
   5408.2188   37.2034    6.3563    4.2483    5.3721    5.3393    6.3648   39.5325    2.4929    5.0606    0.0781   14.5230   65.7678  104.9589    1.5960
   5408.3712   37.5053    6.3607    4.1983    5.5768    5.5969    6.6789   39.5426    2.4854    5.0537    0.0699   14.7310   65.3587  105.3246    1.6116
   5408.5236   42.3016    6.2871    4.1634    5.1241    5.0653    5.9658   39.5528    2.4791    4.9636    0.0552   14.7000   65.6438  105.4634    1.6067
   5408.6760   44.6570    6.3468    4.1257    4.6757    4.5726    5.2672   39.5629    2.5033    4.9904    0.0711   14.4159   66.5720  105.8947    1.5910
