~Version Information
 VERS.                  2.0:   CWLS log ASCII Standard -VERSION 2.0
 WRAP.                   NO:   One line per depth step
~Well Information Block
#MNEM.UNIT     VALUE/NAME     DESCRIPTION
#---------     -----------    ---------------------------
 STRT.F             14200.0000: START DEPTH
 STOP.F             16770.0000: STOP DEPTH
 STEP.F                 0.5000: STEP DEPTH
 NULL.               -999.2500: NULL VALUE
 UNIT.                12318515:  LOGGING EQUIPMENT ID
 CNTY.             HAIR DALMAH:  COUNTY NAME
 JOBN.        AD-XX-0905995035:  JOB TICKET NUMB
 FLD .             HAIR DALMAH:  FIELD NAME
 PDAT.          Mean Sea Level:  PERMANENT DATUM
 RIG .                     PN8:  RIG NAME
 MWDS.                    ICAD:  MWD SHOP
 CTRY.     United Arab Emirates:  COUNTRY NAME
 REGN.     Middle East/North Africa:  REGION
 BASE.               Abu Dhabi:  LOGGING EQUIPMENT BASE LOCATION
 WTYP.                Vertical:  WELL TYPE
 XYGR.     UTM Zones, Northern Hemisphere, Meters:  XYGROUP
 LLGR.      Latitude/Longitude:  LLGROUP
 MDS .              Win MagUTM:  MAG DATA SOURCE
 MMDD.       05 December, 2019:  MAG DATA DATE
 MMDL.            bggm2019.dat:  MAGNETIC MODEL
 CREF.     Ellipsoid Clarke - 1880:  CART REFERENCE
 GREF.     Ellipsoid World Geodetic System :  GEO REFERENCE
 CGSY.               SS CLRK51:  CART GRID SYS
 GGSY.                      LL:  GEO GRID SYS
 CCDE.     UTM Clarke 1880 (CM 51), Meters:  CART COORD DESC
 GCDE.     Generic Lat/Long's, Degrees, -180 ==> +180:  GEO COORD DESC
 SON .        AD-XX-0905995035:  JOB NUMBER
 COMP.          ADNOC Offshore:  COMPANY
 WELL.               HD011-02D:  WELL NAME
 FTOP.          Formation Tops:  FORM TOPS DESC
 ILTD.               Lithology:  INTERP LTH DESC
 SVYD.                  Survey:  SURVEY DESC
 DMOD.             Drill Model:  DRILL MOD DESC
 HPTY.       Minimum Curvature:  HOLE POS TYPE
 NREF.                    Grid:  NORTH REFERENCE
 SPUD.               17-Feb-20:  SPUD DATE
 DATE.      21.00.00 29-Aug-20:  END TIME
 STIM.      12.00.00 26-Jul-20:  START TIME
 DMF .             Drill Floor:  DRILL MEAS FROM
 DFST.                        :  DIST FSL TEXT
 DFWT.                        :  DIST FWL TEXT
 PROV.               Abu Dhabi:  PROVINCE
 STAT.               Abu Dhabi:  STATE NAME
 API .                        :  API NUMBER
 SRVC.             Halliburton:  SERVICE COMPANY
 UWI .                        :  UNIQUE WELL IDENTIFIER
 LOC .                        :  LOCATION
 LMF .             Drill Floor:  LOG MEASURED FROM
 DEP .ft              0.000000:  DEPTH
 AGAP.ft            118.000000:  AIR GAP
 CMER.deg            51.000000:  CENTRL MERIDIAN
 MMDE.ft              0.000000:  MAGUTM CALC DEP
 APD .ft            118.000000:  DEPTH ABOVE PD
 WDMS.ft             65.000000:  WD ELEV
 EGL .ft              0.000000:  GROUND ELEVATION
 EPD .ft              0.000000:  ELEVATION
 AZTC.deg             1.750428:  AZM TOTAL CORR
 GRDC.deg             0.592532:  GRID CORRECTION
 MDEC.deg             2.342959:  MAGNETIC DECL
 MDIP.deg            38.394272:  MAGNETIC DIP
 MFLD.nT          43612.476563:  MAGNETIC FIELD
 GVFD.g               1.000000:  GRAVITY FIELD
 VSDR.deg            91.860001:  VERT SEC DIRECT
 TDD .ft          16770.000000:  TOTAL DEPTH (DRILLER)
 SDEP.ft          14436.000000:  START DEPTH
 DFSL.ft              0.000000:  DISTANCE FSL
 DFWL.ft              0.000000:  DISTANCE FWL
 UTMY.m         2710911.810000:  UTM Y
 UTMX.m          644702.250000:  UTM X
 WHEW.ft              0.000000:  WELL HEAD E/W
 WHNS.ft              0.000000:  WELL HEAD N/S
 LONG.deg            52.428197:  LONGITUDE
 LATI.deg            24.507246:  LATITUDE
 TVDS.ft            118.000000:  TVDSS CORRECTN
 EKB .ft            118.000000:  KB ELEVATION
 EDF .ft            118.000000:  DF ELEVATION
 MAGU.                 1512580:  MAGUTM CHECKSUM
 VSC .                       0:  VS TO CLOSURE
~Parameter Information Block
#MNEM.UNIT       Value        Description
#---------     -----------    ---------------------------
 AV  .fpm           484.999969:  Ann Velocity 
 AVMX.fpm           969.999939:  Max Ann Veloc 
 AZIF.deg           166.490005:  Azm, Final 
 BHAT.               Mud Motor:  BHA Type 
 BROT.°/100'          0.030000:  Build Rotating 
 BS  .in              8.375000:  Bit Size 
 BSZ .in              8.375000:  Bit Size 
 BTPL.psig          415.000000:  Bit Press Loss 
 CABU.                      No:  Customer Abuse 
 CGEO.             Carey Mills:  Customer Geo 
 COMM.                     ÜhT:  Run Comments 1 
 TCS .hr             21.141129:  Time Ciculation Ended 
 CV  .fpm           564.000000:  Crit Velocity 
 CVMX.fpm           702.000000:  Max Crit Veloc 
 DD1 .     Mohamed Gayed Barakat:  Direct Drillr 1 
 DDSV.               Mud Motor:  DD Service 
 DEFF.%              98.000000:  % Det Eff 
 DLRX.°/100'          0.100000:  Dogleg Rot Max 
 DLSO.°/100'          0.070000:  Dogleg Oriented 
 DLSX.°/100'          0.100000:  Dogleg Str Max 
 DRET.      23.59.00 10-Aug-20:  Drill End Time 
 DRST.      15.30.00 10-Aug-20:  Drill Start Tim 
 DTIM.hr              4.412436:  Time Drilling 
 EDEP.ft          15118.000000:  End Depth 
 ENG1.             Ahmed Aleem:  Engineer 1 
 ETIM.      16.00.00 11-Aug-20:  End Time 
 FLOI.gpm           550.000000:  Flow In 
 FLON.gpm           499.999969:  Flow In Min 
 FLOS.mptm            3.000000:  Fluid Loss 
 FLOX.gpm           550.000000:  Flow In Max 
 DFT .                 Polymer:  Mud Type 
 HFLO.                      No:  High Flow 
 HPRE.                      No:  High Pressure 
 HTEM.                      No:  High Temp 
 HYDO.ft              0.000000:  Hydro Offset 
 IFIN.deg             1.530000:  Inc, Final 
 IMAX.deg             1.590000:  Inc Max 
 IMIN.deg             1.560000:  Inc Min 
 IMND.ft          14992.000000:  Inc Min Depth 
 IMXD.ft          14895.000000:  Inc Max Depth 
 JARR.                      No:  Jarring 
 LETM.      23.59.00 10-Aug-20:  Log End Time 
 LOST.hr                    42:  Lost Rig Time 
 LSTM.      11.00.00 10-Aug-20:  Log Start Time 
 MDCL.ppm        140000.000000:  Mud Chlorides 
 MDES.             Fresh Water:  Mud Desc 
 DFD .ppg            12.000000:  Mud Density 
 MDMN.ppg            12.000000:  Dens Mud Min 
 MDMX.ppg            12.000000:  Dens Mud Max 
 PH  .pH             10.000000:  Mud pH 
 MOWR.                    0 83:  Run Mud OWR 
 MSND.                       0:  Run Mud Sand % 
 MSOL.                      17:  Run Mud Solids% 
 MTV .                GeoForce:  Motor Variant 
 DFV .spqt           50.000000:  Mud Viscosity 
 MWOD.in              6.900000:  MWD Tool OD 
 MWSI.                     Yes:  Serv Intrp, MWD 
 OTIM.hr             49.000000:  Time Operating 
 PMAX.psig        10491.233398:  Press Op, Max 
 PV  .cP             22.000000:  Mud PV 
 RMS .ohmm            0.022000:  Mud Resistivity 
 RMCS.ohmm            0.033000:  Mud Cake Resistivity 
 MCST.degF          212.000000:  Mud Cake Sample Temperature 
 RMFS.ohmm            0.020000:  Mud Filtrate Resistivity 
 RMFT.degF          212.000000:  Mud Filtrate Sample Temperature 
 RMMT.ohmm            0.018000:  Rm @ Max Temp 
 MST .degF          212.000000:  Mud Sample Temperature 
 RUN .                    4200:  Run Number 
 ROPA.fph            20.629999:  ROP Avg 
 ROPN.fph            20.000000:  ROP Min 
 ROPX.fph            31.250002:  ROP Max 
 RPMA.rpm            90.000000:  RPM Surface Avg 
 RPMN.rpm            90.000000:  RPM Surface Min 
 RPMX.rpm            90.000000:  RPM Surface Max 
 RRUN.                    4200:  Rig Run Number 
 RTIM.hr              8.500000:  Time Reaming 
 SAZI.deg           168.300003:  Azm, Start 
 SDEP.ft          14972.500000:  Start Depth 
 SIDD.                      No:  Serv Intrp, DD 
 SINC.deg             1.570000:  Inc, Start 
 SPPA.psig         3000.000000:  SPP Avg 
 SPPN.psig         3000.000000:  SPP Min 
 SPPX.psig         3000.000000:  SPP Max 
 STIM.      21.30.00 09-Aug-20:  Start Time 
 SVCS.                 DD, MWD:  Services 
 SVER.                9.200000:  Sperry Version 
 TDAT.ft            348.000000:  Tot Depth Attmp 
 TDDF.                      No:  Trip for DD 
 TDLG.ft            145.500000:  Tot Depth Loggd 
 TFF .                     Yes:  Trip for Fail 
 TQAA.f-p            22.000000:  Torque Abs Avg 
 TQAN.f-p            22.000000:  Torque Abs Min 
 TQAX.f-p            22.000000:  Torque Abs Max 
 TRRT.°/100'          1.010000:  Turn Rotating 
 MRT .                     AFR:  Maximum Recorded Temperature 
 TTMX.degF          260.000000:  Max Tool Temp 
 VS01.     AD90608221 H7V5WCOF1 (6):  Virtual Str1 SN 
 VS02.     90608207 R11GV2CO (6):  Virtual Str2 SN 
 WBMN.klb            15.000000:  WOB Min 
 WITN.         Ricardo Vasquez:  Customer Rep 
 WOBA.klb            17.500000:  WOB Avg 
 WOBX.klb            20.000000:  WOB Max 
 YP  .lhf2           35.000000:  Yield Point 
~Curve Information Block
#MNEM.UNIT                 API CODE     Curve Description
#---------               -----------    ---------------------------
 DEPT.F                 00 000 000 000:  Depth
 RPTVD.ft               00 000 000 000:  ROP True Vertical Depth
 ROPA.fph               00 000 000 000:  Avg Rate of Penetration
 DGRCC.api              00 000 000 000:  DGR Comb Gamma Ray BCorr
 ALHSI.in               00 000 000 000:  ALD Hole Size Indicator
 ABR .ohmm              00 000 000 000:  At-Bit Resistivity
 AFXT.hr                00 000 000 000:  AFR Form Exp Time
 RM  .ohmm              00 000 000 000:  AFR Medium Avg Res
 RS  .ohmm              00 000 000 000:  AFR Shallow Avg Res
 RD  .ohmm              00 000 000 000:  AFR Deep Avg Res
 TNPL.pu                00 000 000 000:  CTN Porosity Limestone
 ALCDLC.g/cc            00 000 000 000:  ALD LCRB Comp Density
 ALDCLC.g/cc            00 000 000 000:  ALD LCRB Den Correction
 ALPELC.                00 000 000 000:  ALD LCRB Pe Factor
#Other Information
#
#WARRANTY: Halliburton will use its best efforts to furnish customers with 
#accurate information and interpretations that are part of, and incident to, the services 
#provided.  However, Halliburton cannot and does not warrant the accuracy 
#or correctness of such information and interpretations.  Under no circumstances should any 
#such information or interpretation be relied upon as the sole basis for any drilling, 
#completion, production, or financial decision or any procedure involving any risk to the 
#safety of any drilling venture, drilling rig or its crew or any other third party.  The 
#Customer has full responsibility for all drilling, completion and production operation.  
#Halliburton makes no representations or warranties, either expressed or 
#implied, including, but not limited to, the implied warranties of merchantability or fitness 
#for a particular purpose, with respect to the services rendered.  In no event will 
#Halliburton be liable for failure to obtain any particular results or for 
#any damages, including, but not limited to, indirect, special or consequential damages, 
#resulting from the use of any information or interpretation provided by Halliburton.
#
~A    DEPT      RPTVD      ROPA      DGRCC     ALHSI      ABR      AFXT        RM        RS         RD       TNPL     ALCDLC    ALDCLC    ALPELC   
# ...
   15712.5000 14578.1797   16.4722   35.9831    8.3842  142.8242    4.3184    40.7589   19.3826    63.5987    4.1481    2.8042   -0.0030    4.6880
   15713.0000 14578.6797   16.4820   34.9131    8.4026  140.8827    4.3111    33.4266   16.9006    51.8797    4.1785    2.7969    0.0049    4.6856
   15713.5000 14579.1807   16.5112   32.1251    8.3836  137.0259    4.3022    27.3058   13.6402    43.2254    4.1702    2.7825   -0.0011    4.7370
   15714.0000 14579.6797   16.5202   30.5051    8.3949  132.2085    4.2932    24.1312   12.5606    38.7647    4.4503    2.7900    0.0010    4.8734
   15714.5000 14580.1787   16.5358   29.1832    8.4119  128.5092    4.2852    25.4740   13.4629    41.1641    4.3838    2.8095    0.0067    4.9525
   15715.0000 14580.6807   16.5386   38.8938    8.3991  129.9214    4.2807    27.1692   13.5651    45.8370    4.3733    2.8179    0.0025    4.6416
   15715.5000 14581.1787   16.5133   49.8340    8.5103  134.1543    4.2781    25.2457   12.8004    53.1599    4.4397    2.8299    0.0270    5.1721
   15716.0000 14581.6797   16.4999   55.5805    8.7065  136.3573    4.2757    21.8988   11.5032    56.7809    4.7376    2.8241    0.0649    6.0249
   15716.5000 14582.1797   16.5048   40.5355    8.6580  138.5762    4.2722    14.7056    7.5548    40.0510    4.8864    2.7920    0.0532    6.1375
   15717.0000 14582.6797   16.5154   40.9958    8.9061  138.1563    4.2685    11.9447    5.2827    32.3386    6.0305    2.8135    0.0840    6.5372
   15717.5000 14583.1748   16.6416   45.6287    9.2141  137.2508    4.2665    15.4974    5.1679    40.2025    7.1380    2.8112    0.0802    6.3655
   15718.0000 14583.6787   17.1176   44.5290    9.5316  136.9370    4.2651    17.1009    4.4201    41.4629    7.8632    2.7921    0.0582    5.7911
   15718.5000 14584.1777   17.5512   42.5407   10.4228  137.6545    4.2646    12.4711    2.7784    30.2256    9.4327    2.7875    0.0671    6.1257
   15719.0000 14584.7090   13.7258   41.0888   10.3921  135.8265    4.2513     8.5238    1.5505    20.9865   10.5661    2.7429    0.0504    6.2926
   15719.5000 14585.1689    1.6981   43.3246    9.9161  127.6608    4.1882     8.2679    1.1939    20.0638   12.2988    2.7423    0.0471    6.2288
   15720.0000 14585.7471    5.1858   42.8448    9.6063  124.1967    4.1208    11.5824    1.1987    26.6830   11.0246    2.7542    0.0461    6.2693
   15720.5000 14586.1348    9.5593   47.3760    9.2055  122.1819    4.0834    15.4823    1.3442    33.3788   10.2551    2.7426    0.0143    5.6676
   15721.0000 14586.7334    9.3111   48.3945    9.0747  124.0848    4.0548    15.7734    1.7273    31.0275    9.8503    2.7472    0.0011    5.2681
   15721.5000 14587.1182    9.3355   45.9721    9.0772  125.9539    4.0257    12.5520    2.2675    25.3242    8.1425    2.7707   -0.0020    5.0633
   15722.0000 14587.6631    8.9888   45.2966    8.8963  130.3951    4.0002    10.3647    2.7577    24.1547    7.5726    2.7771   -0.0052    4.9666
   15722.5000 14588.1699   13.7831   50.6321    8.4569  134.4966    3.9926    11.7268    3.8486    29.9235    7.3271    2.7642    0.0009    5.2449
   15723.0000 14588.6885   16.8520   48.7003    8.3812  137.2000    3.9889    16.6110    6.4819    38.4423    6.1762    2.7943   -0.0076    4.7214
   15723.5000 14589.2070   16.1768   45.9980    8.3762  141.6659    3.9788    24.9453   11.1884    50.6289    5.3916    2.8191   -0.0079    4.4250
   15724.0000 14589.6807   13.2547   48.9964    8.3770  149.6677    3.9648    37.7644   21.5899    70.1642    4.6558    2.8266   -0.0069    4.5658
   15724.5000 14590.1758   11.1645   49.3084    8.3761  158.8565    3.9461    40.7193   27.8070    67.1284    4.0995    2.8211   -0.0119    4.5507
   15725.0000 14590.6699   10.7508   45.7149    8.3750  167.8895    3.9282    28.1463   24.2542    46.2622    4.0241    2.8235   -0.0117    4.3685
   15725.5000 14591.1582   11.1234   36.8630    8.3759  175.8932    3.9153    20.1874   22.4855    32.4205    3.6763    2.8215   -0.0056    4.6008
   15726.0000 14591.6670   12.4496   31.7590    8.3761  178.0903    3.9044    30.6486   34.6009    42.0538    3.5518    2.8194   -0.0085    4.5444
   15726.5000 14592.1650   14.0914   36.5482    8.3763  178.7655    3.8987    96.5517   73.0834   116.4632    3.4082    2.8333   -0.0066    4.4607
   15727.0000 14592.6602   15.5020   36.6092    8.3773  177.6672    3.8968   183.6655  105.4780   278.8891    3.4140    2.8449   -0.0055    4.5839
   15727.5000 14593.1865   17.4995   43.6674    8.3751  177.4072    3.9020   136.0811   79.9882   272.4632    3.6272    2.8418   -0.0092    4.4415
   15728.0000 14593.6826   17.8186   42.4853    8.3760  181.0517    3.9098    59.5896   35.4195   130.8279    4.1203    2.8284   -0.0059    4.4969
   15728.5000 14594.1768   16.1402   36.9541    8.3753  187.9508    3.9136    28.6028   17.8125    59.5814    4.5425    2.7915   -0.0073    4.3784
   15729.0000 14594.6719   14.9844   35.5355    8.3750  191.7585    3.9164    18.1598   12.1983    33.4796    5.0910    2.7460   -0.0150    4.3497
   15729.5000 14595.1748   14.7070   36.5308    8.3750  191.9191    3.9190    16.9680   10.7367    28.1938    5.3251    2.7394   -0.0192    4.4723
   15730.0000 14595.6729   14.7039   46.5466    8.3750  191.5863    3.9206    25.8906   12.0396    41.3179    5.2560    2.7625   -0.0174    4.5015
   15730.5000 14596.1689   14.7733   48.4916    8.3750  190.4832    3.9198    49.8428   13.4557    70.1719    5.2852    2.7936   -0.0185    4.3214
   15731.0000 14596.6699   15.1376   47.4331    8.3750  189.7272    3.9174    60.1495   11.9323    72.5093    5.5808    2.7843   -0.0112    4.3639
   15731.5000 14597.1904   15.5668   43.7459    8.3750  190.2495    3.9125    37.0315    9.6194    47.7754    5.6166    2.7373   -0.0149    4.3739
   15732.0000 14597.6836   14.4727   40.9934    8.3750  191.2557    3.9068    21.2426    8.3626    33.4606    5.9062    2.7077   -0.0134    4.3941
   15732.5000 14598.1680   12.5300   38.1100    8.3750  191.4728    3.9005    19.2550    8.4340    33.0746    5.5809    2.7152   -0.0263    4.4170
   15733.0000 14598.6729   11.8094   39.3647    8.3750  191.8062    3.8948    36.5010   13.8550    59.6702    4.8432    2.7700   -0.0247    4.3816
   15733.5000 14599.1660   11.9036   41.2061    8.3750  192.5614    3.8901    88.6554   32.0185   145.9780    4.2220    2.8054   -0.0186    4.1480
   15734.0000 14599.6650   12.2660   39.7320    8.3750  192.1129    3.8848   100.5633   46.1010   224.6008    4.1641    2.8110   -0.0165    4.1808
   15734.5000 14600.1523   13.1117   38.2465    8.3794  190.6102    3.8814    67.1625   40.7225   216.5150    4.4333    2.8046   -0.0093    4.3648
   15735.0000 14600.6523   14.8447   40.1618    8.3806  189.7980    3.8802    31.8102   25.4687   134.9618    5.0443    2.7719   -0.0058    4.3696
   15735.5000 14601.1865   17.6636   37.1226    8.3750  189.3545    3.8831    19.4170   14.4564    71.4534    5.7940    2.7322   -0.0119    4.3526
   15736.0000 14601.6758   17.9764   32.4382    8.3750  188.9296    3.9150    17.1987   10.3197    49.6706    6.5366    2.7035   -0.0143    4.3498
   15736.5000 14602.1768   16.1696   30.2034    8.3750  189.0209    3.9753    17.6719    9.2479    47.4141    7.1708    2.6740   -0.0187    4.1767
   15737.0000 14602.6797   15.0985   34.3225    8.3750  190.8230    3.9750    21.2500    9.4058    52.5581    7.5835    2.6590   -0.0194    4.4707
   15737.5000 14603.1660   14.0868   29.4419    8.3750  191.6236    3.9660    27.5975    8.8113    49.2130    7.7961    2.6795   -0.0162    4.5483
   15738.0000 14603.6699   13.6897   25.9427    8.3750  191.8793    3.9546    26.6196    7.0684    37.4005    7.8755    2.6868   -0.0111    4.4518
   15738.5000 14604.1689   13.8362   26.2765    8.3750  192.4730    3.9436    21.4584    6.4393    34.6776    8.6808    2.6546   -0.0137    4.3245
   15739.0000 14604.6660   13.8193   27.2681    8.3750  193.4977    3.9340    19.4813    7.0085    39.0324    9.6062    2.6095   -0.0222    4.4655
   15739.5000 14605.1543   14.0595   26.0512    8.3750  196.1911    3.9302    18.9926    7.8122    43.1957    9.9776    2.6035   -0.0316    4.2354
