~Version Information
 VERS.                  2.0:   CWLS log ASCII Standard -VERSION 2.0
 WRAP.                   NO:   One line per depth step
~Well Information Block
#MNEM.UNIT     VALUE/NAME     DESCRIPTION
#---------     -----------    ---------------------------
 STRT.F             10112.0000: START DEPTH
 STOP.F             11135.0000: STOP DEPTH
 STEP.F                 0.5000: STEP DEPTH
 NULL.               -999.2500: NULL VALUE
 UNIT.                12318515:  LOGGING EQUIPMENT ID
 CNTY.             HAIR DALMAH:  COUNTY NAME
 JOBN.        AD-XX-0905995035:  JOB TICKET NUMB
 FLD .             HAIR DALMAH:  FIELD NAME
 PDAT.          Mean Sea Level:  PERMANENT DATUM
 RIG .                     PN8:  RIG NAME
 MWDS.                    ICAD:  MWD SHOP
 CTRY.     United Arab Emirates:  COUNTRY NAME
 REGN.     Middle East/North Africa:  REGION
 BASE.               Abu Dhabi:  LOGGING EQUIPMENT BASE LOCATION
 WTYP.                Deviated:  WELL TYPE
 XYGR.     UTM Zones, Northern Hemisphere, Meters:  XYGROUP
 LLGR.      Latitude/Longitude:  LLGROUP
 MDS .              Win MagUTM:  MAG DATA SOURCE
 MMDD.       05 December, 2019:  MAG DATA DATE
 MMDL.            bggm2019.dat:  MAGNETIC MODEL
 CREF.     Ellipsoid Clarke - 1880:  CART REFERENCE
 GREF.     Ellipsoid World Geodetic System :  GEO REFERENCE
 CGSY.               SS CLRK51:  CART GRID SYS
 GGSY.                      LL:  GEO GRID SYS
 CCDE.     UTM Clarke 1880 (CM 51), Meters:  CART COORD DESC
 GCDE.     Generic Lat/Long's, Degrees, -180 ==> +180:  GEO COORD DESC
 SON .        AD-XX-0905995035:  JOB NUMBER
 COMP.          ADNOC Offshore:  COMPANY
 WELL.               HD011-02D:  WELL NAME
 FTOP.          Formation Tops:  FORM TOPS DESC
 ILTD.               Lithology:  INTERP LTH DESC
 SVYD.                  Survey:  SURVEY DESC
 DMOD.             Drill Model:  DRILL MOD DESC
 HPTY.       Minimum Curvature:  HOLE POS TYPE
 NREF.                    Grid:  NORTH REFERENCE
 SPUD.               17-Feb-20:  SPUD DATE
 DATE.      06.00.00 09-Apr-20:  END TIME
 STIM.      11.40.00 06-Apr-20:  START TIME
 DMF .             Drill Floor:  DRILL MEAS FROM
 DFST.                        :  DIST FSL TEXT
 DFWT.                        :  DIST FWL TEXT
 PROV.               Abu Dhabi:  PROVINCE
 STAT.               Abu Dhabi:  STATE NAME
 API .                        :  API NUMBER
 SRVC.             Halliburton:  SERVICE COMPANY
 UWI .                        :  UNIQUE WELL IDENTIFIER
 LOC .                        :  LOCATION
 LMF .             Drill Floor:  LOG MEASURED FROM
 DEP .ft              0.000000:  DEPTH
 AGAP.ft            118.000000:  AIR GAP
 CMER.deg            51.000000:  CENTRL MERIDIAN
 MMDE.ft              0.000000:  MAGUTM CALC DEP
 APD .ft            118.000000:  DEPTH ABOVE PD
 WDMS.ft             65.000000:  WD ELEV
 EGL .ft              0.000000:  GROUND ELEVATION
 EPD .ft              0.000000:  ELEVATION
 AZTC.deg             1.750428:  AZM TOTAL CORR
 GRDC.deg             0.592532:  GRID CORRECTION
 MDEC.deg             2.342959:  MAGNETIC DECL
 MDIP.deg            38.394272:  MAGNETIC DIP
 MFLD.nT          43612.476563:  MAGNETIC FIELD
 GVFD.g               1.000000:  GRAVITY FIELD
 VSDR.deg            91.860001:  VERT SEC DIRECT
 TDD .ft          11135.000000:  TOTAL DEPTH (DRILLER)
 SDEP.ft          10171.000000:  START DEPTH
 DFSL.ft              0.000000:  DISTANCE FSL
 DFWL.ft              0.000000:  DISTANCE FWL
 UTMY.m         2710911.810000:  UTM Y
 UTMX.m          644702.250000:  UTM X
 WHEW.ft              0.000000:  WELL HEAD E/W
 WHNS.ft              0.000000:  WELL HEAD N/S
 LONG.deg            52.428197:  LONGITUDE
 LATI.deg            24.507246:  LATITUDE
 TVDS.ft            118.000000:  TVDSS CORRECTN
 EKB .ft            118.000000:  KB ELEVATION
 EDF .ft            118.000000:  DF ELEVATION
 MAGU.                 1512580:  MAGUTM CHECKSUM
 VSC .                       0:  VS TO CLOSURE
~Parameter Information Block
#MNEM.UNIT       Value        Description
#---------     -----------    ---------------------------
 AV  .fpm             1.000000:  Ann Velocity 
 AVMX.fpm             1.000000:  Max Ann Veloc 
 AZIF.deg            83.830002:  Azm, Final 
 BHAT.               Mud Motor:  BHA Type 
 BS  .in             14.500000:  Bit Size 
 BSZ .in             14.500000:  Bit Size 
 BTPL.psig            1.000000:  Bit Press Loss 
 CABU.                      No:  Customer Abuse 
 CGEO.             Carey Mills:  Customer Geo 
 COMM.                     t i:  Run Comments 1 
 TCS .hr             83.600342:  Time Ciculation Ended 
 CV  .fpm             1.000000:  Crit Velocity 
 CVMX.fpm             1.000000:  Max Crit Veloc 
 DD1 .          Devinder Kumar:  Direct Drillr 1 
 DD2 .     Mohamed Gayed Barakat:  Direct Drillr 2 
 DDSV.               Mud Motor:  DD Service 
 DEFF.%              90.000000:  % Det Eff 
 DRET.      06.15.00 04-Apr-20:  Drill End Time 
 DRST.      13.57.20 31-Mar-20:  Drill Start Tim 
 DTIM.hr             56.449772:  Time Drilling 
 EDEP.ft          10171.000000:  End Depth 
 ENG1.           Denis Sobolev:  Engineer 1 
 ENG2.            Imad Youssef:  Engineer 2 
 ETIM.      23.30.00 06-Apr-20:  End Time 
 FLOI.gpm           999.999939:  Flow In 
 FLON.gpm           964.999939:  Flow In Min 
 FLOS.mptm            2.600000:  Fluid Loss 
 FLOX.gpm          1100.000000:  Flow In Max 
 DFT .                 Polymer:  Mud Type 
 HFLO.                      No:  High Flow 
 HPRE.                      No:  High Pressure 
 HTEM.                      No:  High Temp 
 HYDO.ft              0.000000:  Hydro Offset 
 IFIN.deg            26.030001:  Inc, Final 
 IMAX.deg            26.559999:  Inc Max 
 IMIN.deg            24.139999:  Inc Min 
 IMND.ft           9477.000000:  Inc Min Depth 
 IMXD.ft           9942.000000:  Inc Max Depth 
 JARR.                      No:  Jarring 
 LETM.      23.30.00 06-Apr-20:  Log End Time 
 LOST.hr                     0:  Lost Rig Time 
 LSTM.      13.57.20 31-Mar-20:  Log Start Time 
 MDCL.ppm        150000.000000:  Mud Chlorides 
 MDES.             Fresh Water:  Mud Desc 
 DFD .ppg            12.000000:  Mud Density 
 MDMN.ppg            12.000000:  Dens Mud Min 
 MDMX.ppg            12.000000:  Dens Mud Max 
 PH  .pH             10.300000:  Mud pH 
 MOIL.                      19:  Run Mud Oil % 
 MOWR.                   19 81:  Run Mud OWR 
 MSND.                       0:  Run Mud Sand % 
 MSOL.                      19:  Run Mud Solids% 
 MTV .                GeoForce:  Motor Variant 
 DFV .spqt           51.000000:  Mud Viscosity 
 MWOD.in              8.150000:  MWD Tool OD 
 MWSI.                      No:  Serv Intrp, MWD 
 OTIM.hr            106.542305:  Time Operating 
 PMAX.psig         6850.255859:  Press Op, Max 
 PV  .cP             21.000000:  Mud PV 
 RMS .ohmm            0.039000:  Mud Resistivity 
 RMCS.ohmm            0.059000:  Mud Cake Resistivity 
 MCST.degF           80.000000:  Mud Cake Sample Temperature 
 RMFS.ohmm            0.030000:  Mud Filtrate Resistivity 
 RMFT.degF           80.000000:  Mud Filtrate Sample Temperature 
 RMMT.ohmm            0.018000:  Rm @ Max Temp 
 MST .degF           80.000000:  Mud Sample Temperature 
 RUN .                    2300:  Run Number 
 RRUN.                    2300:  Rig Run Number 
 SAZI.deg           101.400002:  Azm, Start 
 SDEP.ft           9467.000000:  Start Depth 
 SIDD.                      No:  Serv Intrp, DD 
 SINC.deg            24.139999:  Inc, Start 
 STIM.      13.57.20 31-Mar-20:  Start Time 
 SVER.                9.200000:  Sperry Version 
 TDAT.ft            704.000000:  Tot Depth Attmp 
 TDDF.                      No:  Trip for DD 
 TDLG.ft            704.000000:  Tot Depth Loggd 
 TFF .                      No:  Trip for Fail 
 MRT .                     PWD:  Maximum Recorded Temperature 
 TTMX.degF          181.000000:  Max Tool Temp 
 VS01.           F1(8)90603244:  Virtual Str1 SN 
 VS02.     H2V5WGV2R(8)90604159:  Virtual Str2 SN 
 WITN.     Mohamed Sharaf el Din:  Customer Rep 
 YP  .lhf2           29.000000:  Yield Point 
~Curve Information Block
#MNEM.UNIT                 API CODE     Curve Description
#---------               -----------    ---------------------------
 DEPT.F                 00 000 000 000:  Depth
 RPTVD.ft               00 000 000 000:  ROP True Vertical Depth
 ROPA.fph               00 000 000 000:  Avg Rate of Penetration
 DGRCC.api              00 000 000 000:  DGR Comb Gamma Ray BCorr
 EWXT.hr                00 000 000 000:  EWR Formation Exp Time
 R15P.ohmm              00 000 000 000:  EWR Shallow Phase Res
 R15A.ohmm              00 000 000 000:  EWR Shallow Atten Res
 R27P.ohmm              00 000 000 000:  EWR Medium Phase Res
 R27A.ohmm              00 000 000 000:  EWR Medium Atten Res
 R39P.ohmm              00 000 000 000:  EWR Deep Phase Res
 R39A.ohmm              00 000 000 000:  EWR Deep Atten Res
 ABR .ohmm              00 000 000 000:  At-Bit Resistivity
 AFRSA.ohmm             00 000 000 000:  AFR Shallow Avg Res
 AFRDA.ohmm             00 000 000 000:  AFR Deep Avg Res
 AFXT.hr                00 000 000 000:  AFR Form Exp Time
#Other Information
#
#WARRANTY: Halliburton will use its best efforts to furnish customers with 
#accurate information and interpretations that are part of, and incident to, the services 
#provided.  However, Halliburton cannot and does not warrant the accuracy 
#or correctness of such information and interpretations.  Under no circumstances should any 
#such information or interpretation be relied upon as the sole basis for any drilling, 
#completion, production, or financial decision or any procedure involving any risk to the 
#safety of any drilling venture, drilling rig or its crew or any other third party.  The 
#Customer has full responsibility for all drilling, completion and production operation.  
#Halliburton makes no representations or warranties, either expressed or 
#implied, including, but not limited to, the implied warranties of merchantability or fitness 
#for a particular purpose, with respect to the services rendered.  In no event will 
#Halliburton be liable for failure to obtain any particular results or for 
#any damages, including, but not limited to, indirect, special or consequential damages, 
#resulting from the use of any information or interpretation provided by Halliburton.
#
~A    DEPT      RPTVD      ROPA      DGRCC     EWXT      R15P      R15A      R27P      R27A      R39P      R39A       ABR       AFRSA      AFRDA      AFXT    
# ...
   10622.0000  9667.3887   29.6058   11.0373    3.1408   35.3848   11.1762   61.8951  200.0000 1308.7296  200.0000   690.3729  2786.2524  4493.5166    2.4906
   10622.5000  9667.8135   29.6087   12.9179    3.1414   42.2877   11.2820   64.0105  200.0000 1891.1010  200.0000   687.4541  3032.8525  4375.9609    2.5151
   10623.0000  9668.2627   29.5558   14.5162    3.1382   72.1919   11.6346  105.1989  200.0000 1809.8738  200.0000   680.3688  2308.9180  1937.6248    2.6205
   10623.5000  9668.7549   27.0642   11.0500    3.1253  677.6349   12.0324  827.6534  200.0000 1993.0388  200.0000   668.1304  1587.8057  1348.2686    2.6304
   10624.0000  9669.0205   21.7364   10.5347    3.1123  719.6686   16.4554  295.0271  200.0000 2000.0000  200.0000   663.0757  1308.4744  2193.6660    2.6247
   10624.5000  9669.6309   24.1861    8.2290    3.1037  159.2120   14.6805  116.0824  200.0000 2000.0000  200.0000   674.3386  2180.8767  8190.8550    2.6264
   10625.0000  9669.9912   30.0837    9.8869    3.0949   82.3593   27.8863   78.8579  200.0000 2000.0000  200.0000   700.8864  8681.3008 17074.8906    2.6334
   10625.5000  9670.5029   22.5913    8.3238    3.0777   45.3292   81.5307   64.7498  200.0000 2000.0000  200.0000   760.6357 18371.1230 16712.4434    2.6307
   10626.0000  9670.8008   19.0495    9.9663    3.0592   38.7629   93.2838   59.6259  200.0000 2000.0000  200.0000   814.8411 20000.0000 16349.9961    2.6212
   10626.5000  9671.3125   17.2217   10.9206    3.0445   49.9563  161.7719   68.1012  200.0000 2000.0000  200.0000   896.2496 19578.7109 15987.5479    2.6143
   10627.0000  9671.8271   18.0345   11.2682    2.9796   56.8132  116.0414   68.8922  200.0000 2000.0000  200.0000   949.2464 19157.4199 15625.1006    2.5497
   10627.5000  9672.0850   12.2668    8.7053    2.6511   43.5903   28.9343   69.5477  200.0000 2000.0000  200.0000   971.0699 18736.1309 15262.6533    2.2554
   10628.0000  9672.5996    1.6776    9.4911    2.3511   49.4121   18.2186   73.1988  200.0000 2000.0000  200.0000   997.5259 18314.8418 14900.2061    1.9648
   10628.5000  9673.0352   22.1053   10.3904    2.3094   41.0242   19.0921   68.0903  200.0000 2000.0000  200.0000  1006.7540 17893.5527 14537.7578    1.9075
   10629.0000  9673.4678   29.6677   11.3759    2.3126   34.3425   42.9331   74.8800  200.0000 2000.0000  200.0000  1014.5677 17472.2617 14175.3105    1.9096
   10629.5000  9673.8965   29.6923   15.6635    2.3164   38.4777   78.4871   86.8848  200.0000 2000.0000  200.0000  1019.9392 17050.9727 13812.8633    1.9125
   10630.0000  9674.3877   28.7734   16.8220    2.3173   35.2104   28.9558   60.8087  200.0000 1671.8508  200.0000  1008.7655  6986.4971  5235.7329    1.9139
   10630.5000  9674.7500   20.6322   18.8917    2.3075   19.4514   13.5949   37.8402  200.0000  417.4118  200.0000   978.6568   393.1517  1271.1401    1.9034
   10631.0000  9675.1611    3.0881   20.4692    2.2975   20.8933   13.6398   58.7718  200.0000 1473.5889  200.0000   888.9020    52.0503   741.3847    1.8964
   10631.5000  9675.6436   12.1854   17.5224    2.2985   21.7737   14.4796   82.1672  200.0000 1914.3911  200.0000   843.8246    32.9692   633.4927    1.9015
   10632.0000  9676.0762   29.1235   14.6920    2.3022   16.4713   10.7848   57.9625  200.0000  775.3953  200.0000   820.5875    42.2572   614.1273    1.9077
   10632.5000  9676.5088   29.8499   17.2114    2.3059   16.0489    6.8072   63.7795  200.0000  450.9374  200.0000   801.0076    51.8436   629.7025    1.9133
   10633.0000  9676.9434   29.7375   16.9868    2.3024   14.4659    8.1524   62.6294  200.0000 1076.3334  200.0000   783.0415    43.4107   641.5277    1.9114
   10633.5000  9677.3828   22.2265   18.4987    2.2706   16.1706   10.8800  123.4781  200.0000 1966.6768  200.0000   767.0526    43.0809   619.8669    1.8807
   10634.0000  9677.8135    1.6442   16.0595    2.2394   21.8776    7.8071  682.3539  200.0000 2000.0000  200.0000   755.2172    57.5968   512.6674    1.8491
   10634.5000  9678.2412    7.8506   19.8702    2.2362   73.8996    6.8353 1908.0863  200.0000 2000.0000  200.0000   742.7814    72.0841   402.4311    1.8435
   10635.0000  9678.6719   29.0572   19.2706    2.2409   55.2499    8.1266 2000.0000  200.0000 2000.0000  200.0000   734.1057    78.5167   357.5903    1.8435
   10635.5000  9679.1143   34.1400   19.1057    2.2475   39.0202    9.0419 2000.0000  200.0000 2000.0000  200.0000   727.0435    79.4441   356.2730    1.8425
   10636.0000  9679.5557   37.1500   21.6127    2.2548   39.3060    9.4668 2000.0000  200.0000 2000.0000  200.0000   721.8732    76.8273   334.3277    1.8409
   10636.5000  9679.9688   37.7315   20.8658    2.2630   37.6026    8.9317 2000.0000  200.0000 2000.0000  200.0000   717.7656    81.6980   285.7935    1.8386
   10637.0000  9680.4150   40.7978   23.6661    2.2716   41.5806    8.4646 2000.0000  200.0000 2000.0000  200.0000   714.4343    96.2990   266.7095    1.8362
   10637.5000  9680.8525   46.4238   20.5907    2.2814   46.0388    9.0094 2000.0000  200.0000 2000.0000  200.0000   712.7255   102.1534   346.8861    1.8352
   10638.0000  9681.4072   43.9148   20.2099    2.2663   53.2067   10.1841 2000.0000  200.0000 2000.0000  200.0000   711.4515    99.5794   735.8853    1.8093
   10638.5000  9681.7607   29.3074   15.3203    2.1538   55.7481   10.3180 2000.0000  200.0000 2000.0000  200.0000   711.1938   128.2515  2417.8149    1.6829
   10639.0000  9682.0332   11.1238   14.1927    2.0315   63.7169   11.0627 1832.1102  200.0000 2000.0000  200.0000   707.6164   372.3546  9486.3535    1.5568
   10639.5000  9682.5889   10.1088    9.8700    2.0101   75.8567   10.9173 1251.4971  200.0000 2000.0000  200.0000   705.1785  3259.5652  -999.2500    1.5315
   10640.0000  9683.0928   43.7418    9.6487    2.0140   63.1913   10.0841 1481.4114  200.0000 2000.0000  200.0000   705.3129  -999.2500  -999.2500    1.5320
   10640.5000  9683.4463   34.7995    8.8850    2.0117   69.0121   11.1946 1846.1864  200.0000 2000.0000  200.0000   704.8992  -999.2500  -999.2500    1.5331
   10641.0000  9683.9014   28.4857    9.2910    2.0081   75.8497   12.1464 1657.2205  200.0000 2000.0000  200.0000   704.8747  -999.2500  -999.2500    1.5354
   10641.5000  9684.3223   29.0678    8.1327    2.0054   90.4434   11.1239 1483.5446  200.0000 2000.0000  200.0000   704.6438  -999.2500  -999.2500    1.5386
   10642.0000  9684.7842   28.5422    9.7931    2.0009   85.5185    9.9247 1944.9332  200.0000 2000.0000  200.0000   704.4229  -999.2500  -999.2500    1.5416
   10642.5000  9685.2031   26.7414   11.8725    1.9939   77.3813    9.7233 1759.0067  200.0000 2000.0000  200.0000   705.2466  -999.2500  -999.2500    1.5427
   10643.0000  9685.6523   24.8443   11.7401    1.9854   78.7606   11.7181 1906.6230  200.0000 2000.0000  200.0000   706.3716  -999.2500  -999.2500    1.5433
   10643.5000  9686.0557   24.2465    8.7449    1.9772  103.2009   11.1705 1624.9652  200.0000 2000.0000  200.0000   708.2136  -999.2500  -999.2500    1.5431
   10644.0000  9686.5098   24.5261   10.7049    1.9682   94.2811   11.5185 1491.8411  200.0000 2000.0000  200.0000   709.2911  -999.2500  -999.2500    1.5429
   10644.5000  9686.9316   24.9729    8.5136    1.9590   69.4972   11.1689 1140.4434  200.0000 2000.0000  200.0000   710.5164  -999.2500  -999.2500    1.5432
   10645.0000  9687.3848   25.2591   10.4360    1.9522   72.7820   13.4887 1349.9681  200.0000 2000.0000  200.0000   712.0178  -999.2500  -999.2500    1.5437
   10645.5000  9687.8193   26.3125   11.6186    1.9454   68.6504   22.3171 1020.0494  200.0000 2000.0000  200.0000   713.1996  -999.2500  -999.2500    1.5448
   10646.0000  9688.2471   25.2661    9.7406    1.9379   76.9436   17.0708 1085.0579  200.0000 2000.0000  200.0000   716.1995  -999.2500  -999.2500    1.5452
   10646.5000  9688.6816   23.8294    7.9708    1.9272   73.8673   12.7323 1063.5317  200.0000 2000.0000  200.0000   732.8941  -999.2500  -999.2500    1.5440
   10647.0000  9689.0986   23.4802    9.7906    1.9179   68.5398   12.4473 1309.7720  200.0000 2000.0000  200.0000   765.2897  -999.2500  -999.2500    1.5427
