~Version Information
 VERS.                  2.0:   CWLS log ASCII Standard -VERSION 2.0
 WRAP.                   NO:   One line per depth step
~Well Information Block
#MNEM.UNIT     VALUE/NAME     DESCRIPTION
#---------     -----------    ---------------------------
 STRT.M              5223.0528: START DEPTH
 STOP.M              5536.2348: STOP DEPTH
 STEP.M                 0.1524: STEP DEPTH
 NULL.               -999.2500: NULL VALUE
 DFWT.                        :  DIST FWL TEXT
 DFST.                        :  DIST FSL TEXT
 DMF .             Drill Floor:  DRILL MEAS FROM
 STIM.      11.30.00 09-Jul-16:  START TIME
 DATE.      11.29.04 14-Aug-16:  END TIME
 SPUD.               17-Aug-15:  SPUD DATE
 NREF.                    Grid:  NORTH REFERENCE
 HPTY.       Minimum Curvature:  HOLE POS TYPE
 DMOD.             Drill Model:  DRILL MOD DESC
 SVYD.                  Survey:  SURVEY DESC
 ILTD.               Lithology:  INTERP LTH DESC
 FTOP.          Formation Tops:  FORM TOPS DESC
 WELL.              AF011-3D-1:  WELL NAME
 COMP.               TOTAL-ABK:  COMPANY
 SON .        AD-XX-0902156848:  JOB NUMBER
 GCDE.     Generic Lat/Long's, Degrees, -180 ==> +180:  GEO COORD DESC
 CCDE.     UTM Clarke 1880 (CM 51), Meters:  CART COORD DESC
 GGSY.                      LL:  GEO GRID SYS
 CGSY.               SS CLRK51:  CART GRID SYS
 GREF.     Ellipsoid World Geodetic System :  GEO REFERENCE
 CREF.     Ellipsoid Clarke - 1880:  CART REFERENCE
 MMDL.            bggm2016.dat:  MAGNETIC MODEL
 MMDD.            20 May, 2016:  MAG DATA DATE
 MDS .              Win MagUTM:  MAG DATA SOURCE
 LLGR.      Latitude/Longitude:  LLGROUP
 XYGR.     UTM Zones, Northern Hemisphere, Meters:  XYGROUP
 PDAT.          Mean Sea Level:  PERMANENT DATUM
 WTYP.                Deviated:  WELL TYPE
 BASE.               Abu Dhabi:  LOGGING EQUIPMENT BASE LOCATION
 REGN.     Middle East/North Africa:  REGION
 PROV.               Abu Dhabi:  PROVINCE
 STAT.               Abu Dhabi:  STATE NAME
 CTRY.     United Arab Emirates:  COUNTRY NAME
 FLD .         Abu Al Bukhoosh:  FIELD NAME
 SRVC.                  SAIPEM:  CONTRACTOR
 MWDS.                Musaffah:  MWD SHOP
 RIG .           Perro Negro 8:  RIG NAME
 CNTY.               Abu Dhabi:  COUNTY NAME
 DCON.             HALLIBURTON:  DIRECTNL CONTR
 UNIT.                    9804:  LOGGING EQUIPMENT ID
 DOE .        AD-XX-0902156848:  DOE NUMBER
 API .                        :  API NUMBER
 UWI .                        :  UNIQUE WELL IDENTIFIER
 LOC .                        :  LOCATION
 LMF .             Drill Floor:  LOG MEASURED FROM
 TVDS.m              43.899999:  TVDSS CORRECTN
 LATI.deg            25.504513:  LATITUDE
 LONG.deg            53.120396:  LONGITUDE
 WHNS.m               0.000000:  WELL HEAD N/S
 WHEW.m               0.000000:  WELL HEAD E/W
 UTMX.m          713123.300043:  UTM X
 UTMY.m         2822281.299893:  UTM Y
 DFWL.m               0.000000:  DISTANCE FWL
 DFSL.m               0.000000:  DISTANCE FSL
 SDEP.m            5253.990000:  START DEPTH
 TDD .m            5543.669658:  TOTAL DEPTH (DRILLER)
 VSDR.deg           249.940002:  VERT SEC DIRECT
 GVFD.g               1.000000:  GRAVITY FIELD
 MFLD.nT          43940.839844:  MAGNETIC FIELD
 MDIP.deg            39.918472:  MAGNETIC DIP
 MDEC.deg             2.250056:  MAGNETIC DECL
 GRDC.deg             0.913350:  GRID CORRECTION
 AZTC.deg             1.336706:  AZM TOTAL CORR
 EPD .m               0.000000:  ELEVATION
 EGL .m             -45.400001:  GROUND ELEVATION
 WDMS.m              45.400001:  WD ELEV
 APD .m              43.899999:  DEPTH ABOVE PD
 MMDE.m               0.000000:  MAGUTM CALC DEP
 CMER.deg            51.000000:  CENTRL MERIDIAN
 AGAP.m              23.099999:  AIR GAP
 EKB .m              43.899999:  KB ELEVATION
 EDF .m              43.899999:  DF ELEVATION
 VSC .                       0:  VS TO CLOSURE
 MAGU.                 1527179:  MAGUTM CHECKSUM
~Parameter Information Block
#MNEM.UNIT       Value        Description
#---------     -----------    ---------------------------
 AV  .mps             1.500000:  Ann Velocity 
 AVMX.mps             2.400000:  Max Ann Veloc 
 AZIF.deg           257.739990:  Azm, Final 
 BHAT.                 Turbine:  BHA Type 
 BROT.°/100'          0.000000:  Build Rotating 
 BS  .in              8.500000:  Bit Size 
 BSZ .in              8.500000:  Bit Size 
 BTPL.psig           43.511005:  Bit Press Loss 
 CABU.                      No:  Customer Abuse 
 TCS .hr            149.515671:  Time Ciculation Ended 
 CV  .mps             3.000000:  Crit Velocity 
 CVMX.mps             4.000000:  Max Crit Veloc 
 DD1 .            Ahmed Bayoud:  Direct Drillr 1 
 DD2 .        Hany Abdel Hafez:  Direct Drillr 2 
 DDSV.                 Turbine:  DD Service 
 DEFF.%              98.000000:  % Det Eff 
 DLRX.°/100'          0.000000:  Dogleg Rot Max 
 DLSO.°/100'          0.000000:  Dogleg Oriented 
 DLSX.°/100'          0.000000:  Dogleg Str Max 
 DRET.      12.28.32 23-Jun-16:  Drill End Time 
 DRST.      14.30.00 17-Jun-16:  Drill Start Tim 
 DTIM.hr            102.349998:  Time Drilling 
 EDEP.m            5254.000000:  End Depth 
 ENG1.         Ahmed Montasser:  Engineer 1 
 ENG2.              Do Dang Sa:  Engineer 2 
 ENG3.           Khaled Khalaf:  Engineer 3 
 ENG4.         Muhammad Mubeen:  Engineer 4 
 ETIM.      05.40.54 26-Jun-16:  End Time 
 FLOI.lpm          1800.000122:  Flow In 
 FLON.lpm          1500.000000:  Flow In Min 
 FLOS.lpm             0.000000:  Fluid Loss 
 FLOX.lpm          1800.000122:  Flow In Max 
 DFT .                   Other:  Mud Type 
 HFLO.                      No:  High Flow 
 HPRE.                      No:  High Pressure 
 HTEM.                      No:  High Temp 
 HYDO.m               1.400000:  Hydro Offset 
 IFIN.deg            10.460000:  Inc, Final 
 IMAX.deg            32.367214:  Inc Max 
 IMIN.deg            11.447388:  Inc Min 
 IMND.m            5236.799805:  Inc Min Depth 
 IMXD.m            4790.299805:  Inc Max Depth 
 JARR.                      No:  Jarring 
 LETM.      12.28.32 23-Jun-16:  Log End Time 
 LOST.hr                     0:  Lost Rig Time 
 LSTM.      14.30.00 17-Jun-16:  Log Start Time 
 MDCL.ppm         23000.000000:  Mud Chlorides 
 MDES.             Fresh Water:  Mud Desc 
 DFD .g/c3            1.170004:  Mud Density 
 MDMN.g/c3            1.160004:  Dens Mud Min 
 MDMX.g/c3            1.170004:  Dens Mud Max 
 PH  .pH              9.400000:  Mud pH 
 MOIL.                       0:  Run Mud Oil % 
 MOWR.                    1 91:  Run Mud OWR 
 MSND.                     0.1:  Run Mud Sand % 
 MSOL.                     6.2:  Run Mud Solids% 
 DFV .spl            73.000000:  Mud Viscosity 
 MWOD.in              6.750000:  MWD Tool OD 
 MWSI.                      No:  Serv Intrp, MWD 
 OTIM.hr            238.111023:  Time Operating 
 PMAX.psig         4000.000000:  Press Op, Max 
 PV  .mPsec          36.000000:  Mud PV 
 RMS .ohmm            0.299000:  Mud Resistivity 
 RMCS.ohmm            0.397000:  Mud Cake Resistivity 
 MCST.degC           35.000000:  Mud Cake Sample Temperature 
 RMFS.ohmm            0.200000:  Mud Filtrate Resistivity 
 RMFT.degC           35.000000:  Mud Filtrate Sample Temperature 
 RMMT.ohmm            0.118100:  Rm @ Max Temp 
 MST .degC           35.000000:  Mud Sample Temperature 
 RUN .                    3300:  Run Number 
 ROPA.m/hr            4.450000:  ROP Avg 
 ROPN.m/hr            2.000000:  ROP Min 
 ROPX.m/hr            7.000000:  ROP Max 
 RPMA.rpm            78.000000:  RPM Surface Avg 
 RPMN.rpm            35.000000:  RPM Surface Min 
 RPMX.rpm            80.000000:  RPM Surface Max 
 RRUN.                    3300:  Rig Run Number 
 RTIM.hr              7.150000:  Time Reaming 
 SAZI.deg           249.699997:  Azm, Start 
 SDEP.m            4799.000000:  Start Depth 
 SIDD.                      No:  Serv Intrp, DD 
 SINC.deg            30.049999:  Inc, Start 
 SPPA.psig         4543.999023:  SPP Avg 
 SPPN.psig         4264.078613:  SPP Min 
 SPPX.psig         4641.173828:  SPP Max 
 STIM.      09.00.00 16-Jun-16:  Start Time 
 SVCS.                 DD, MWD:  Services 
 SVER.                8.300000:  Sperry Version 
 TDAT.m             455.000000:  Tot Depth Attmp 
 TDDF.                      No:  Trip for DD 
 TDLG.m             455.000000:  Tot Depth Loggd 
 TFF .                      No:  Trip for Fail 
 TQAA.f-p         37070.000000:  Torque Abs Avg 
 TQAN.f-p         35000.000000:  Torque Abs Min 
 TQAX.f-p         39000.000000:  Torque Abs Max 
 TRRT.°/100'          0.000000:  Turn Rotating 
 MRT .                     PWD:  Maximum Recorded Temperature 
 TTMX.degC          121.568352:  Max Tool Temp 
 VS01.     AD90473258H2V5WGV2COXF1(6):  Virtual Str1 SN 
 WBMN.klb             4.409245:  WOB Min 
 WITN.           Roger Butters:  Customer Rep 
 WOBA.klb             9.788525:  WOB Avg 
 WOBX.klb            13.227736:  WOB Max 
 YP  .pa             43.000000:  Yield Point 
~Curve Information Block
#MNEM.UNIT                 API CODE     Curve Description
#---------               -----------    ---------------------------
 DEPT.M                 00 000 000 000:  Depth
 DGRCC.api              00 000 000 000:  DGR Comb Gamma Ray BCorr
 ALHSI.in               00 000 000 000:  ALD Hole Size Indicator
 ABR .ohmm              00 000 000 000:  At-Bit Resistivity
 AFRSA.ohmm             00 000 000 000:  AFR Shallow Avg Res
 AFRMA.ohmm             00 000 000 000:  AFR Medium Avg Res
 AFRDA.ohmm             00 000 000 000:  AFR Deep Avg Res
 AFXT.hr                00 000 000 000:  AFR Form Exp Time
 ALCDLC.g/c3            00 000 000 000:  ALD LCRB Comp Density
 ALPELC.NONE            00 000 000 000:  ALD LCRB Pe Factor
 ALDCLC.g/c3            00 000 000 000:  ALD LCRB Den Correction
 TNPL.pu                00 000 000 000:  CTN Porosity Limestone
 DTC .uspf              00 000 000 000:  BAT DTC
 DTRS.uspf              00 000 000 000:  BAT Refracted Shear
 VPVS.NONE              00 000 000 000:  BAT VP/VS
#Other Information
#
#WARRANTY: Halliburton will use its best efforts to furnish customers with 
#accurate information and interpretations that are part of, and incident to, the services 
#provided.  However, Halliburton cannot and does not warrant the accuracy 
#or correctness of such information and interpretations.  Under no circumstances should any 
#such information or interpretation be relied upon as the sole basis for any drilling, 
#completion, production, or financial decision or any procedure involving any risk to the 
#safety of any drilling venture, drilling rig or its crew or any other third party.  The 
#Customer has full responsibility for all drilling, completion and production operation.  
#Halliburton makes no representations or warranties, either expressed or 
#implied, including, but not limited to, the implied warranties of merchantability or fitness 
#for a particular purpose, with respect to the services rendered.  In no event will 
#Halliburton be liable for failure to obtain any particular results or for 
#any damages, including, but not limited to, indirect, special or consequential damages, 
#resulting from the use of any information or interpretation provided by Halliburton.
#
~A   DEPT      DGRCC     ALHSI      ABR      AFRSA     AFRMA     AFRDA     AFXT     ALCDLC    ALPELC    ALDCLC     TNPL       DTC      DTRS      VPVS    
# ...
   5384.5968   67.0928    5.7596   17.8935    2.8580    2.6785    3.0990   37.4508    2.4821    3.1971   -0.0053   17.1302   72.1658  120.5035    1.6698
   5384.7492   65.3716    5.7679   17.8283    2.8816    2.6892    3.0084   37.4610    2.4584    3.4656    0.0003   17.0940   72.1762  120.4046    1.6682
   5384.9016   60.1431    5.7695   17.7826    3.0413    2.8205    3.0794   37.4711    2.4521    3.6401   -0.0036   16.7586   72.1516  120.4173    1.6690
   5385.0540   56.3083    5.7754   17.7941    3.2960    3.0011    3.2324   37.4814    2.4598    3.6037   -0.0183   16.3112   72.1965  119.9292    1.6612
   5385.2064   56.8847    5.8609   17.7383    3.3613    2.9350    3.1093   37.4916    2.4993    3.8562    0.0071   15.3934   72.0453  119.0054    1.6517
   5385.3588   56.0290    5.9235   17.6148    3.4298    2.8761    3.0348   37.5018    2.5039    4.1656    0.0245   15.2222   71.3099  116.2711    1.6303
   5385.5112   56.3603    5.8169   17.1946    4.4839    3.6748    3.9520   37.5119    2.4775    3.9393    0.0030   14.8051   70.3558  113.1103    1.6076
   5385.6636   55.6913    5.8156   16.8354    6.2677    4.9663    5.3469   37.5221    2.4923    3.7990    0.0025   12.1699   69.6902  111.5280    1.6004
   5385.8160   52.2548    5.8041   16.7298    6.7615    5.2258    5.5142   37.5323    2.4968    3.9910    0.0023   11.1796   69.1094  111.0282    1.6066
   5385.9684   45.5970    5.7808   16.4240    5.8250    4.5189    4.8372   37.5424    2.4885    3.8906   -0.0007   12.1801   69.0028  111.1441    1.6107
   5386.1208   37.4490    5.7940   15.5686    5.0385    3.8845    4.2680   37.5525    2.4850    3.6391    0.0030   12.6072   69.0139  112.1916    1.6256
   5386.2732   34.9751    5.8148   14.7936    4.3694    3.3695    3.6323   37.5627    2.4656    3.7994    0.0054   13.8301   69.2318  114.9916    1.6609
   5386.4256   37.8176    5.8271   14.1892    4.4919    3.7282    3.8785   37.5728    2.4719    4.1736    0.0053   13.3743   69.4898  117.2261    1.6869
   5386.5780   42.7884    5.7752   13.4933    5.2681    4.9990    5.0338   37.5830    2.4971    3.7936   -0.0183   12.8467   69.5903  117.0031    1.6813
   5386.7304   45.1759    5.7590   12.8545    6.1863    6.4457    6.3568   37.5932    2.5337    3.5529   -0.0152   12.5379   68.8619  115.1890    1.6727
   5386.8828   47.7057    5.7672   12.4206    5.6655    5.8775    5.7566   37.6034    2.5403    3.4230   -0.0042   13.5455   68.3892  113.2494    1.6560
   5387.0352   61.1278    5.7751   11.9992    4.6782    4.4771    4.4325   37.6136    2.5026    3.4373   -0.0080   15.8346   68.6074  113.4542    1.6534
   5387.1876   78.3690    5.8511   11.5225    4.2017    3.6827    3.7498   37.6237    2.4811    4.2520    0.0070   18.4025   69.8504  119.6235    1.7112
   5387.3400   84.1749    5.9492   11.0507    3.9300    3.3835    3.5849   37.6338    2.4656    5.4818    0.0211   19.2871   71.7873  129.4400    1.8028
   5387.4924   86.7366    5.8346   10.6909    3.6283    3.1253    3.4381   37.6439    2.4568    5.0293   -0.0067   21.5794   73.7123  131.2501    1.7810
   5387.6448  106.8095    5.9037   10.5618    3.3402    2.8453    3.0079   37.6541    2.5148    4.5281    0.0177   23.2741   74.5240  130.5629    1.7520
   5387.7972  135.9285    5.9080   10.5758    3.2225    2.6962    2.6906   37.6643    2.5197    4.0132    0.0227   17.5394   74.3278  128.2120    1.7249
   5387.9496  122.7133    5.8069   10.6280    3.2989    2.8252    2.8039   37.6744    2.4866    3.8476   -0.0015   14.8584   73.6358  121.2078    1.6460
   5388.1020   84.7615    5.7811   10.6408    3.2157    2.9493    2.9524   37.6842    2.4867    3.6238   -0.0169   15.3016   71.7220  117.4709    1.6382
   5388.2544   67.5484    5.8855   10.5565    3.1678    3.1239    3.1576   37.6937    2.5179    3.7363    0.0125   15.3870   69.8840  116.0265    1.6606
   5388.4068   67.1836    6.0093   10.4051    3.3205    3.4045    3.5071   37.7032    2.5167    4.1763    0.0397   15.1401   69.2177  116.3225    1.6806
   5388.5592   71.1166    5.8933   10.0881    3.2814    3.3567    3.5708   37.7129    2.4710    4.1269    0.0189   15.4688   68.9698  116.0120    1.6821
   5388.7116   67.8410    5.8190    9.7100    3.0552    3.0224    3.3127   37.7224    2.4595    3.8932    0.0062   16.5662   68.8568  116.0990    1.6861
   5388.8640   61.8302    5.8687    9.4048    3.0280    2.9169    3.2566   37.7320    2.4839    3.8804    0.0175   16.8404   68.9387  116.7054    1.6929
   5389.0164   63.3771    5.9837    9.2514    3.0545    2.8759    3.2462   37.7415    2.4950    3.9841    0.0353   16.8827   69.4433  118.7401    1.7099
   5389.1688   66.1002    5.9897    9.1141    3.0219    2.8058    3.1278   37.7512    2.4654    4.0657    0.0276   16.4503   70.3770  119.9484    1.7044
   5389.3212   63.7173    5.8257    8.9290    2.8488    2.6113    2.8247   37.7607    2.4248    3.8603   -0.0157   16.4639   70.5429  119.4099    1.6927
   5389.4736   64.9278    5.8675    8.7690    2.7855    2.4990    2.6864   37.7702    2.4691    3.7738    0.0010   16.7326   70.4946  119.1554    1.6903
   5389.6260   70.6104    6.0521    8.6183    3.1775    2.8758    3.0874   37.7798    2.5050    4.2318    0.0448   16.5449   70.2162  118.8939    1.6933
   5389.7784   69.4063    6.0611    8.4774    3.2884    3.0408    3.1679   37.7896    2.4677    4.4291    0.0441   17.0430   70.0249  117.2710    1.6747
   5389.9308   68.8404    6.2053    8.3252    2.9123    2.6794    2.6964   37.7998    2.4462    4.6895    0.0537   17.3574   70.0747  117.2386    1.6731
   5390.0832   61.0054    6.1963    8.1533    2.8725    2.5772    2.5815   37.8101    2.4164    4.8672    0.0457   16.7146   70.7714  119.3770    1.6868
   5390.2356   53.3930    5.9543    7.9219    3.0325    2.6343    2.6826   37.8204    2.3974    4.6346    0.0137   15.7822   72.1327  121.7299    1.6875
   5390.3880   52.0566    5.7959    7.6017    2.9905    2.5047    2.5688   37.8306    2.4282    4.1750   -0.0154   15.4898   72.5844  123.2913    1.6985
   5390.5404   59.8145    5.7717    7.3766    3.2297    2.6791    2.7513   37.8409    2.4826    3.6703   -0.0361   15.6500   71.4633  120.5457    1.6864
   5390.6928   78.4238    5.8361    7.2367    4.4320    3.7601    3.9064   37.8512    2.5342    3.1967   -0.0033   15.3526   70.0956  115.1041    1.6418
   5390.8452   79.7469    5.8935    7.1478    6.0168    5.1725    5.3695   37.8615    2.4890    2.7361    0.0183   15.6963   69.9246  113.8952    1.6287
   5390.9976   55.1480    5.7895    7.0532    4.9255    4.1240    4.0816   37.8717    2.3632    2.6640   -0.0049   17.4250   70.7904  116.4816    1.6453
   5391.1500   32.0244    5.7526    6.8987    2.9424    2.3298    2.1790   37.8819    2.2909    2.6923   -0.0239   17.9623   72.4505  119.5835    1.6504
   5391.3024   20.3690    5.7500    6.6316    2.0780    1.5604    1.4388   37.8922    2.2731    2.5928   -0.0344   17.8118   74.7027  125.0452    1.6748
   5391.4548   17.4248    5.7500    6.2981    1.9643    1.4754    1.4645   37.9025    2.2743    2.5598   -0.0434   16.7907   77.9718  126.0350    1.6176
   5391.6072   16.0429    5.7500    6.0055    2.0471    1.6023    1.7664   37.9127    2.2925    2.4988   -0.0457   15.5777   79.2244  125.0485    1.5784
   5391.7596   14.3812    5.7500    5.8148    2.2449    1.8787    2.2937   37.9229    2.3201    2.4335   -0.0411   14.2858   77.5683  120.6471    1.5552
   5391.9120   14.0895    5.7500    5.7799    2.6000    2.3765    3.2436   37.9332    2.3399    2.4887   -0.0348   13.3841   74.7799  116.2901    1.5553
   5392.0644   12.2151    5.7500    5.7064    3.0018    3.0204    4.7513   37.9435    2.3486    2.7091   -0.0235   13.8985   72.1940  113.9891    1.5794
   5392.2168   15.1473    5.7500    5.4586    2.8923    3.1799    5.8829   37.9537    2.3256    3.0333   -0.0213   14.9517   71.1982  116.3713    1.6346
   5392.3692   13.5654    5.7500    5.1426    1.9616    2.2878    4.8278   37.9639    2.2931    3.2553   -0.0233   17.5490   71.9417  120.3811    1.6735
   5392.5216   14.5030    5.7500    4.8617    1.0470    1.2489    2.6042   37.9742    2.2627    3.3819   -0.0328   20.4006   73.6759  122.9185    1.6688
