~Version Information
 VERS.                  2.0:   CWLS log ASCII Standard -VERSION 2.0
 WRAP.                   NO:   One line per depth step
~Well Information Block
#MNEM.UNIT     VALUE/NAME     DESCRIPTION
#---------     -----------    ---------------------------
 STRT.F             10112.0000: START DEPTH
 STOP.F             11135.0000: STOP DEPTH
 STEP.F                 0.5000: STEP DEPTH
 NULL.               -999.2500: NULL VALUE
 UNIT.                12318515:  LOGGING EQUIPMENT ID
 CNTY.             HAIR DALMAH:  COUNTY NAME
 JOBN.        AD-XX-0905995035:  JOB TICKET NUMB
 FLD .             HAIR DALMAH:  FIELD NAME
 PDAT.          Mean Sea Level:  PERMANENT DATUM
 RIG .                     PN8:  RIG NAME
 MWDS.                    ICAD:  MWD SHOP
 CTRY.     United Arab Emirates:  COUNTRY NAME
 REGN.     Middle East/North Africa:  REGION
 BASE.               Abu Dhabi:  LOGGING EQUIPMENT BASE LOCATION
 WTYP.                Deviated:  WELL TYPE
 XYGR.     UTM Zones, Northern Hemisphere, Meters:  XYGROUP
 LLGR.      Latitude/Longitude:  LLGROUP
 MDS .              Win MagUTM:  MAG DATA SOURCE
 MMDD.       05 December, 2019:  MAG DATA DATE
 MMDL.            bggm2019.dat:  MAGNETIC MODEL
 CREF.     Ellipsoid Clarke - 1880:  CART REFERENCE
 GREF.     Ellipsoid World Geodetic System :  GEO REFERENCE
 CGSY.               SS CLRK51:  CART GRID SYS
 GGSY.                      LL:  GEO GRID SYS
 CCDE.     UTM Clarke 1880 (CM 51), Meters:  CART COORD DESC
 GCDE.     Generic Lat/Long's, Degrees, -180 ==> +180:  GEO COORD DESC
 SON .        AD-XX-0905995035:  JOB NUMBER
 COMP.          ADNOC Offshore:  COMPANY
 WELL.               HD011-02D:  WELL NAME
 FTOP.          Formation Tops:  FORM TOPS DESC
 ILTD.               Lithology:  INTERP LTH DESC
 SVYD.                  Survey:  SURVEY DESC
 DMOD.             Drill Model:  DRILL MOD DESC
 HPTY.       Minimum Curvature:  HOLE POS TYPE
 NREF.                    Grid:  NORTH REFERENCE
 SPUD.               17-Feb-20:  SPUD DATE
 DATE.      06.00.00 09-Apr-20:  END TIME
 STIM.      11.40.00 06-Apr-20:  START TIME
 DMF .             Drill Floor:  DRILL MEAS FROM
 DFST.                        :  DIST FSL TEXT
 DFWT.                        :  DIST FWL TEXT
 PROV.               Abu Dhabi:  PROVINCE
 STAT.               Abu Dhabi:  STATE NAME
 API .                        :  API NUMBER
 SRVC.             Halliburton:  SERVICE COMPANY
 UWI .                        :  UNIQUE WELL IDENTIFIER
 LOC .                        :  LOCATION
 LMF .             Drill Floor:  LOG MEASURED FROM
 DEP .ft              0.000000:  DEPTH
 AGAP.ft            118.000000:  AIR GAP
 CMER.deg            51.000000:  CENTRL MERIDIAN
 MMDE.ft              0.000000:  MAGUTM CALC DEP
 APD .ft            118.000000:  DEPTH ABOVE PD
 WDMS.ft             65.000000:  WD ELEV
 EGL .ft              0.000000:  GROUND ELEVATION
 EPD .ft              0.000000:  ELEVATION
 AZTC.deg             1.750428:  AZM TOTAL CORR
 GRDC.deg             0.592532:  GRID CORRECTION
 MDEC.deg             2.342959:  MAGNETIC DECL
 MDIP.deg            38.394272:  MAGNETIC DIP
 MFLD.nT          43612.476563:  MAGNETIC FIELD
 GVFD.g               1.000000:  GRAVITY FIELD
 VSDR.deg            91.860001:  VERT SEC DIRECT
 TDD .ft          11135.000000:  TOTAL DEPTH (DRILLER)
 SDEP.ft          10171.000000:  START DEPTH
 DFSL.ft              0.000000:  DISTANCE FSL
 DFWL.ft              0.000000:  DISTANCE FWL
 UTMY.m         2710911.810000:  UTM Y
 UTMX.m          644702.250000:  UTM X
 WHEW.ft              0.000000:  WELL HEAD E/W
 WHNS.ft              0.000000:  WELL HEAD N/S
 LONG.deg            52.428197:  LONGITUDE
 LATI.deg            24.507246:  LATITUDE
 TVDS.ft            118.000000:  TVDSS CORRECTN
 EKB .ft            118.000000:  KB ELEVATION
 EDF .ft            118.000000:  DF ELEVATION
 MAGU.                 1512580:  MAGUTM CHECKSUM
 VSC .                       0:  VS TO CLOSURE
~Parameter Information Block
#MNEM.UNIT       Value        Description
#---------     -----------    ---------------------------
 AV  .fpm             1.000000:  Ann Velocity 
 AVMX.fpm             1.000000:  Max Ann Veloc 
 AZIF.deg            83.830002:  Azm, Final 
 BHAT.               Mud Motor:  BHA Type 
 BS  .in             14.500000:  Bit Size 
 BSZ .in             14.500000:  Bit Size 
 BTPL.psig            1.000000:  Bit Press Loss 
 CABU.                      No:  Customer Abuse 
 CGEO.             Carey Mills:  Customer Geo 
 COMM.                     t i:  Run Comments 1 
 TCS .hr             83.600342:  Time Ciculation Ended 
 CV  .fpm             1.000000:  Crit Velocity 
 CVMX.fpm             1.000000:  Max Crit Veloc 
 DD1 .          Devinder Kumar:  Direct Drillr 1 
 DD2 .     Mohamed Gayed Barakat:  Direct Drillr 2 
 DDSV.               Mud Motor:  DD Service 
 DEFF.%              90.000000:  % Det Eff 
 DRET.      06.15.00 04-Apr-20:  Drill End Time 
 DRST.      13.57.20 31-Mar-20:  Drill Start Tim 
 DTIM.hr             56.449772:  Time Drilling 
 EDEP.ft          10171.000000:  End Depth 
 ENG1.           Denis Sobolev:  Engineer 1 
 ENG2.            Imad Youssef:  Engineer 2 
 ETIM.      23.30.00 06-Apr-20:  End Time 
 FLOI.gpm           999.999939:  Flow In 
 FLON.gpm           964.999939:  Flow In Min 
 FLOS.mptm            2.600000:  Fluid Loss 
 FLOX.gpm          1100.000000:  Flow In Max 
 DFT .                 Polymer:  Mud Type 
 HFLO.                      No:  High Flow 
 HPRE.                      No:  High Pressure 
 HTEM.                      No:  High Temp 
 HYDO.ft              0.000000:  Hydro Offset 
 IFIN.deg            26.030001:  Inc, Final 
 IMAX.deg            26.559999:  Inc Max 
 IMIN.deg            24.139999:  Inc Min 
 IMND.ft           9477.000000:  Inc Min Depth 
 IMXD.ft           9942.000000:  Inc Max Depth 
 JARR.                      No:  Jarring 
 LETM.      23.30.00 06-Apr-20:  Log End Time 
 LOST.hr                     0:  Lost Rig Time 
 LSTM.      13.57.20 31-Mar-20:  Log Start Time 
 MDCL.ppm        150000.000000:  Mud Chlorides 
 MDES.             Fresh Water:  Mud Desc 
 DFD .ppg            12.000000:  Mud Density 
 MDMN.ppg            12.000000:  Dens Mud Min 
 MDMX.ppg            12.000000:  Dens Mud Max 
 PH  .pH             10.300000:  Mud pH 
 MOIL.                      19:  Run Mud Oil % 
 MOWR.                   19 81:  Run Mud OWR 
 MSND.                       0:  Run Mud Sand % 
 MSOL.                      19:  Run Mud Solids% 
 MTV .                GeoForce:  Motor Variant 
 DFV .spqt           51.000000:  Mud Viscosity 
 MWOD.in              8.150000:  MWD Tool OD 
 MWSI.                      No:  Serv Intrp, MWD 
 OTIM.hr            106.542305:  Time Operating 
 PMAX.psig         6850.255859:  Press Op, Max 
 PV  .cP             21.000000:  Mud PV 
 RMS .ohmm            0.039000:  Mud Resistivity 
 RMCS.ohmm            0.059000:  Mud Cake Resistivity 
 MCST.degF           80.000000:  Mud Cake Sample Temperature 
 RMFS.ohmm            0.030000:  Mud Filtrate Resistivity 
 RMFT.degF           80.000000:  Mud Filtrate Sample Temperature 
 RMMT.ohmm            0.018000:  Rm @ Max Temp 
 MST .degF           80.000000:  Mud Sample Temperature 
 RUN .                    2300:  Run Number 
 RRUN.                    2300:  Rig Run Number 
 SAZI.deg           101.400002:  Azm, Start 
 SDEP.ft           9467.000000:  Start Depth 
 SIDD.                      No:  Serv Intrp, DD 
 SINC.deg            24.139999:  Inc, Start 
 STIM.      13.57.20 31-Mar-20:  Start Time 
 SVER.                9.200000:  Sperry Version 
 TDAT.ft            704.000000:  Tot Depth Attmp 
 TDDF.                      No:  Trip for DD 
 TDLG.ft            704.000000:  Tot Depth Loggd 
 TFF .                      No:  Trip for Fail 
 MRT .                     PWD:  Maximum Recorded Temperature 
 TTMX.degF          181.000000:  Max Tool Temp 
 VS01.           F1(8)90603244:  Virtual Str1 SN 
 VS02.     H2V5WGV2R(8)90604159:  Virtual Str2 SN 
 WITN.     Mohamed Sharaf el Din:  Customer Rep 
 YP  .lhf2           29.000000:  Yield Point 
~Curve Information Block
#MNEM.UNIT                 API CODE     Curve Description
#---------               -----------    ---------------------------
 DEPT.F                 00 000 000 000:  Depth
 RPTVD.ft               00 000 000 000:  ROP True Vertical Depth
 ROPA.fph               00 000 000 000:  Avg Rate of Penetration
 DGRCC.api              00 000 000 000:  DGR Comb Gamma Ray BCorr
 EWXT.hr                00 000 000 000:  EWR Formation Exp Time
 R15P.ohmm              00 000 000 000:  EWR Shallow Phase Res
 R15A.ohmm              00 000 000 000:  EWR Shallow Atten Res
 R27P.ohmm              00 000 000 000:  EWR Medium Phase Res
 R27A.ohmm              00 000 000 000:  EWR Medium Atten Res
 R39P.ohmm              00 000 000 000:  EWR Deep Phase Res
 R39A.ohmm              00 000 000 000:  EWR Deep Atten Res
 ABR .ohmm              00 000 000 000:  At-Bit Resistivity
 AFRSA.ohmm             00 000 000 000:  AFR Shallow Avg Res
 AFRDA.ohmm             00 000 000 000:  AFR Deep Avg Res
 AFXT.hr                00 000 000 000:  AFR Form Exp Time
#Other Information
#
#WARRANTY: Halliburton will use its best efforts to furnish customers with 
#accurate information and interpretations that are part of, and incident to, the services 
#provided.  However, Halliburton cannot and does not warrant the accuracy 
#or correctness of such information and interpretations.  Under no circumstances should any 
#such information or interpretation be relied upon as the sole basis for any drilling, 
#completion, production, or financial decision or any procedure involving any risk to the 
#safety of any drilling venture, drilling rig or its crew or any other third party.  The 
#Customer has full responsibility for all drilling, completion and production operation.  
#Halliburton makes no representations or warranties, either expressed or 
#implied, including, but not limited to, the implied warranties of merchantability or fitness 
#for a particular purpose, with respect to the services rendered.  In no event will 
#Halliburton be liable for failure to obtain any particular results or for 
#any damages, including, but not limited to, indirect, special or consequential damages, 
#resulting from the use of any information or interpretation provided by Halliburton.
#
~A    DEPT      RPTVD      ROPA      DGRCC     EWXT      R15P      R15A      R27P      R27A      R39P      R39A       ABR       AFRSA      AFRDA      AFXT    
# ...
   10800.5000  9822.4570   49.4726    9.3585    2.9432   45.4840   10.3731  171.5096  200.0000 2000.0000  200.0000   129.2990    67.1605   106.7957    2.5827
   10801.0000  9822.8945   49.4113   12.7239    2.9474   38.7330   10.5902  182.5772  200.0000 2000.0000  200.0000   128.5557    69.8350   114.1730    2.5855
   10801.5000  9823.3135   49.2637   12.3944    2.9514   39.1677   12.3289  179.6689  200.0000 1927.2999  200.0000   128.0046    65.6948   107.7260    2.5885
   10802.0000  9823.7666   49.3041    8.8686    2.9547   42.4122   14.0945  108.9727  200.0000 1409.4739  200.0000   127.6643    65.8071   109.2500    2.5916
   10802.5000  9824.1875   49.3213    9.5228    2.9580   41.1129   12.6502  142.7833  200.0000 1908.4493  200.0000   127.7021    61.0461   101.2325    2.5943
   10803.0000  9824.6309   49.3574   10.0701    2.9612   41.6028   10.8122  152.6658  200.0000 1903.8018  200.0000   127.9675    47.7174    75.2866    2.5973
   10803.5000  9825.0488   49.3562   10.3651    2.9645   39.3877   10.1515  160.0705  200.0000 1796.5297  200.0000   127.7394    42.5420    68.4909    2.6014
   10804.0000  9825.4961   49.3013   11.3691    2.9671   39.9667   10.8433  217.9338  200.0000 1995.8505  200.0000   126.6908    45.3889    81.3313    2.6066
   10804.5000  9825.9199   49.2833    9.9672    2.9692   40.8334   11.9969  233.3720  200.0000 2000.0000  200.0000   125.8795    47.2416    92.0903    2.6118
   10805.0000  9826.3594   49.3684   11.4528    2.9712   36.9790   10.8070  255.7772  200.0000 1972.5051  200.0000   125.8687    46.1416    93.8495    2.6171
   10805.5000  9826.7969   49.3627   11.0337    2.9732   35.5421    9.8224  192.8188  200.0000 1764.1885  200.0000   126.3673    43.6338    92.4267    2.6224
   10806.0000  9827.2354   49.3698   12.3521    2.9751   36.6368   10.7616  162.2092  200.0000 1322.4912  200.0000   126.7508    42.4291    94.1777    2.6277
   10806.5000  9827.6475   49.3293   10.4700    2.9771   36.2144   12.0161  168.7054  200.0000 1927.5632  200.0000   126.6210    39.4003    85.4313    2.6330
   10807.0000  9828.0889   49.2766   12.0140    2.9790   39.5584   11.3847  212.1256  200.0000 2000.0000  200.0000   125.5926    36.4943    71.9728    2.6383
   10807.5000  9828.5303   49.2927   11.0687    2.9805   39.7943   11.0427  235.1817  200.0000 2000.0000  200.0000   124.7501    36.0546    66.4043    2.6436
   10808.0000  9828.9561   49.3556    9.0632    2.9806   40.6521   10.4164  257.5371  200.0000 2000.0000  200.0000   124.1768    42.4370    76.6042    2.6480
   10808.5000  9829.4990   40.9511   10.4712    2.9768   44.9574   10.3002  319.2394  200.0000 2000.0000  200.0000   124.3583    49.7696    91.3436    2.6502
   10809.0000  9829.8408   26.1772   10.0242    2.9711   47.1315   10.5547  259.7092  200.0000 1841.5364  200.0000   125.3879    55.9986   105.2906    2.6504
   10809.5000  9830.0576   21.7966    9.4620    2.9637   36.7144    8.6477  163.0823  200.0000  847.8286  200.0000   126.3412    59.9140   112.7582    2.6464
   10810.0000  9830.8027   58.2873    9.8974    2.9580   31.0898    7.7599  119.7330  200.0000  425.7194  200.0000   127.5919    57.6932   107.1145    2.6425
   10810.5000  9831.1729   65.1431    9.9973    2.9574   31.7690    9.0173  118.4470  200.0000  881.1238  200.0000   128.6073    55.7017   103.1686    2.6429
   10811.0000  9831.6104   35.9500   10.2903    2.9566   33.8446   10.4383  167.3599  200.0000 1629.5419  200.0000   130.5382    57.2471   104.8486    2.6429
   10811.5000  9831.9639   23.2221   12.5344    2.9488  416.7437    9.3822  826.4225  200.0000 1611.4061  200.0000   132.2666    55.8929    96.7968    2.6343
   10812.0000  9832.5586   18.4123    9.7083    2.8093 1210.8893    8.0403 1841.6794  200.0000 2000.0000  200.0000   134.2164    55.7210    90.8174    2.4904
   10812.5000  9832.7861   14.8374    9.1800    2.1423  137.3226    7.9797  678.8205  200.0000 1672.5978  200.0000   133.8261    60.0794    95.1595    1.8302
   10813.0000  9833.0957    8.7881    8.1003    1.4807   39.6077    7.7071  195.9168  200.0000 1445.0664  200.0000   129.7097    65.3468   102.4221    1.1736
   10813.5000  9833.7432   43.5241   10.7782    1.3421   48.6451   11.8104  658.8354  200.0000 1982.3016  200.0000   125.7776    70.2782   109.4952    1.0426
   10814.0000  9834.2793   50.7879    8.6937    1.3385   66.8246   18.1143 1671.4893  200.0000 2000.0000  200.0000   126.9170    77.2659   120.3043    1.0419
   10814.5000  9834.6445   28.6268    9.0274    1.3236   52.9487   15.0029  576.0372  200.0000 2000.0000  200.0000   127.5728    83.9892   129.7319    1.0272
   10815.0000  9834.9863   18.6543   10.1260    1.3085   43.1203    9.4969  307.0459  200.0000 2000.0000  200.0000   127.7018    85.1375   130.3460    1.0103
   10815.5000  9835.3994   15.8613   10.1145    1.3005   47.2929    9.5119  222.4991  200.0000 2000.0000  200.0000   126.8573    78.8780   121.7866    1.0011
   10816.0000  9835.9023   24.6320    9.4498    1.2957   43.5388   10.8565  229.5542  200.0000 2000.0000  200.0000   124.3521    71.0592   113.6982    0.9949
   10816.5000  9836.3418   35.4120    9.3950    1.2964   49.6598   11.2089  188.1660  200.0000 2000.0000  200.0000   122.6787    61.9534   104.0457    0.9932
   10817.0000  9836.7637   40.0872   11.4721    1.2987   41.4224   10.2293  154.1482  200.0000 1982.7856  200.0000   120.8723    54.8396    93.5107    0.9930
   10817.5000  9837.2070   42.0619   10.9198    1.3018   39.8005   12.1393  147.0172  200.0000 1983.2053  200.0000   120.6474    54.6197    92.5792    0.9934
   10818.0000  9837.6211   44.0694   10.1500    1.3052   44.7301   12.0244  228.3260  200.0000 2000.0000  200.0000   121.6625    59.3712   101.2439    0.9944
   10818.5000  9838.0830   44.6237   10.5534    1.3089   51.0426   11.7205  214.8970  200.0000 2000.0000  200.0000   122.4710    70.8324   125.5363    0.9955
   10819.0000  9838.4971   44.6357    9.9798    1.3124   44.7652   10.5282  155.1748  200.0000 1981.5909  200.0000   122.4906    87.6758   164.9013    0.9963
   10819.5000  9838.9570   44.5325   12.1666    1.3155   35.5473   14.0516  108.6427  200.0000 1666.1185  200.0000   121.7766    80.2202   158.7865    0.9967
   10820.0000  9839.3857   43.2628   13.4111    1.3177   31.0404   13.3937   85.0870  200.0000  851.9097  200.0000   120.4660    53.3595   106.9996    0.9958
   10820.5000  9839.7920   38.5381   13.5687    1.3178   27.9157   11.9480   75.6785  200.0000  392.2413  200.0000   120.0828    36.6909    72.6183    0.9926
   10821.0000  9840.2324   36.5838    9.2686    1.3177   29.0913    9.8947  108.5929  200.0000  963.3653  200.0000   120.9897    28.6385    56.9960    0.9892
   10821.5000  9840.6836   39.1593   10.1186    1.3184   32.6495   10.0783  155.3238  200.0000 1928.7864  200.0000   121.2721    26.4597    53.4078    0.9877
   10822.0000  9841.1025   39.8736   10.3707    1.3186   32.7419   12.9659  132.7839  200.0000 2000.0000  200.0000   121.3380    29.8571    62.5614    0.9882
   10822.5000  9841.5488   40.3359    9.8774    1.3187   34.6309   11.6478  128.0913  200.0000 2000.0000  200.0000   121.6383    36.4827    79.9451    0.9905
   10823.0000  9841.9658   42.2100   11.3742    1.3183   40.0320   10.4665  156.8921  200.0000 2000.0000  200.0000   122.1908    42.4178    86.7481    0.9933
   10823.5000  9842.4160   44.2028   10.5731    1.3174   49.4322   10.9451  165.5668  200.0000 2000.0000  200.0000   122.7782    47.2275    86.2426    0.9967
   10824.0000  9842.8369   44.7421   10.9297    1.3163   38.8640   12.1575  187.2494  200.0000 2000.0000  200.0000   123.3456    55.5433   102.3871    0.9992
   10824.5000  9843.2803   45.7140    9.7776    1.3155   41.0530   11.5250  209.1820  200.0000 2000.0000  200.0000   124.7363    78.0131   155.8053    0.9992
   10825.0000  9843.7119   46.8932    9.5931    1.3147   53.8608   13.7853  171.5027  200.0000 2000.0000  200.0000   126.2710   129.9485   263.9339    0.9996
   10825.5000  9844.1514   47.3134    9.6289    1.3141   42.5360   11.1458  222.4273  200.0000 2000.0000  200.0000   127.7043   184.7456   324.9562    1.0000
