~Version Information
 VERS.                  2.0:   CWLS log ASCII Standard -VERSION 2.0
 WRAP.                   NO:   One line per depth step
~Well Information Block
#MNEM.UNIT     VALUE/NAME     DESCRIPTION
#---------     -----------    ---------------------------
 STRT.F             10112.0000: START DEPTH
 STOP.F             11135.0000: STOP DEPTH
 STEP.F                 0.5000: STEP DEPTH
 NULL.               -999.2500: NULL VALUE
 UNIT.                12318515:  LOGGING EQUIPMENT ID
 CNTY.             HAIR DALMAH:  COUNTY NAME
 JOBN.        AD-XX-0905995035:  JOB TICKET NUMB
 FLD .             HAIR DALMAH:  FIELD NAME
 PDAT.          Mean Sea Level:  PERMANENT DATUM
 RIG .                     PN8:  RIG NAME
 MWDS.                    ICAD:  MWD SHOP
 CTRY.     United Arab Emirates:  COUNTRY NAME
 REGN.     Middle East/North Africa:  REGION
 BASE.               Abu Dhabi:  LOGGING EQUIPMENT BASE LOCATION
 WTYP.                Deviated:  WELL TYPE
 XYGR.     UTM Zones, Northern Hemisphere, Meters:  XYGROUP
 LLGR.      Latitude/Longitude:  LLGROUP
 MDS .              Win MagUTM:  MAG DATA SOURCE
 MMDD.       05 December, 2019:  MAG DATA DATE
 MMDL.            bggm2019.dat:  MAGNETIC MODEL
 CREF.     Ellipsoid Clarke - 1880:  CART REFERENCE
 GREF.     Ellipsoid World Geodetic System :  GEO REFERENCE
 CGSY.               SS CLRK51:  CART GRID SYS
 GGSY.                      LL:  GEO GRID SYS
 CCDE.     UTM Clarke 1880 (CM 51), Meters:  CART COORD DESC
 GCDE.     Generic Lat/Long's, Degrees, -180 ==> +180:  GEO COORD DESC
 SON .        AD-XX-0905995035:  JOB NUMBER
 COMP.          ADNOC Offshore:  COMPANY
 WELL.               HD011-02D:  WELL NAME
 FTOP.          Formation Tops:  FORM TOPS DESC
 ILTD.               Lithology:  INTERP LTH DESC
 SVYD.                  Survey:  SURVEY DESC
 DMOD.             Drill Model:  DRILL MOD DESC
 HPTY.       Minimum Curvature:  HOLE POS TYPE
 NREF.                    Grid:  NORTH REFERENCE
 SPUD.               17-Feb-20:  SPUD DATE
 DATE.      06.00.00 09-Apr-20:  END TIME
 STIM.      11.40.00 06-Apr-20:  START TIME
 DMF .             Drill Floor:  DRILL MEAS FROM
 DFST.                        :  DIST FSL TEXT
 DFWT.                        :  DIST FWL TEXT
 PROV.               Abu Dhabi:  PROVINCE
 STAT.               Abu Dhabi:  STATE NAME
 API .                        :  API NUMBER
 SRVC.             Halliburton:  SERVICE COMPANY
 UWI .                        :  UNIQUE WELL IDENTIFIER
 LOC .                        :  LOCATION
 LMF .             Drill Floor:  LOG MEASURED FROM
 DEP .ft              0.000000:  DEPTH
 AGAP.ft            118.000000:  AIR GAP
 CMER.deg            51.000000:  CENTRL MERIDIAN
 MMDE.ft              0.000000:  MAGUTM CALC DEP
 APD .ft            118.000000:  DEPTH ABOVE PD
 WDMS.ft             65.000000:  WD ELEV
 EGL .ft              0.000000:  GROUND ELEVATION
 EPD .ft              0.000000:  ELEVATION
 AZTC.deg             1.750428:  AZM TOTAL CORR
 GRDC.deg             0.592532:  GRID CORRECTION
 MDEC.deg             2.342959:  MAGNETIC DECL
 MDIP.deg            38.394272:  MAGNETIC DIP
 MFLD.nT          43612.476563:  MAGNETIC FIELD
 GVFD.g               1.000000:  GRAVITY FIELD
 VSDR.deg            91.860001:  VERT SEC DIRECT
 TDD .ft          11135.000000:  TOTAL DEPTH (DRILLER)
 SDEP.ft          10171.000000:  START DEPTH
 DFSL.ft              0.000000:  DISTANCE FSL
 DFWL.ft              0.000000:  DISTANCE FWL
 UTMY.m         2710911.810000:  UTM Y
 UTMX.m          644702.250000:  UTM X
 WHEW.ft              0.000000:  WELL HEAD E/W
 WHNS.ft              0.000000:  WELL HEAD N/S
 LONG.deg            52.428197:  LONGITUDE
 LATI.deg            24.507246:  LATITUDE
 TVDS.ft            118.000000:  TVDSS CORRECTN
 EKB .ft            118.000000:  KB ELEVATION
 EDF .ft            118.000000:  DF ELEVATION
 MAGU.                 1512580:  MAGUTM CHECKSUM
 VSC .                       0:  VS TO CLOSURE
~Parameter Information Block
#MNEM.UNIT       Value        Description
#---------     -----------    ---------------------------
 AV  .fpm             1.000000:  Ann Velocity 
 AVMX.fpm             1.000000:  Max Ann Veloc 
 AZIF.deg            83.830002:  Azm, Final 
 BHAT.               Mud Motor:  BHA Type 
 BS  .in             14.500000:  Bit Size 
 BSZ .in             14.500000:  Bit Size 
 BTPL.psig            1.000000:  Bit Press Loss 
 CABU.                      No:  Customer Abuse 
 CGEO.             Carey Mills:  Customer Geo 
 COMM.                     t i:  Run Comments 1 
 TCS .hr             83.600342:  Time Ciculation Ended 
 CV  .fpm             1.000000:  Crit Velocity 
 CVMX.fpm             1.000000:  Max Crit Veloc 
 DD1 .          Devinder Kumar:  Direct Drillr 1 
 DD2 .     Mohamed Gayed Barakat:  Direct Drillr 2 
 DDSV.               Mud Motor:  DD Service 
 DEFF.%              90.000000:  % Det Eff 
 DRET.      06.15.00 04-Apr-20:  Drill End Time 
 DRST.      13.57.20 31-Mar-20:  Drill Start Tim 
 DTIM.hr             56.449772:  Time Drilling 
 EDEP.ft          10171.000000:  End Depth 
 ENG1.           Denis Sobolev:  Engineer 1 
 ENG2.            Imad Youssef:  Engineer 2 
 ETIM.      23.30.00 06-Apr-20:  End Time 
 FLOI.gpm           999.999939:  Flow In 
 FLON.gpm           964.999939:  Flow In Min 
 FLOS.mptm            2.600000:  Fluid Loss 
 FLOX.gpm          1100.000000:  Flow In Max 
 DFT .                 Polymer:  Mud Type 
 HFLO.                      No:  High Flow 
 HPRE.                      No:  High Pressure 
 HTEM.                      No:  High Temp 
 HYDO.ft              0.000000:  Hydro Offset 
 IFIN.deg            26.030001:  Inc, Final 
 IMAX.deg            26.559999:  Inc Max 
 IMIN.deg            24.139999:  Inc Min 
 IMND.ft           9477.000000:  Inc Min Depth 
 IMXD.ft           9942.000000:  Inc Max Depth 
 JARR.                      No:  Jarring 
 LETM.      23.30.00 06-Apr-20:  Log End Time 
 LOST.hr                     0:  Lost Rig Time 
 LSTM.      13.57.20 31-Mar-20:  Log Start Time 
 MDCL.ppm        150000.000000:  Mud Chlorides 
 MDES.             Fresh Water:  Mud Desc 
 DFD .ppg            12.000000:  Mud Density 
 MDMN.ppg            12.000000:  Dens Mud Min 
 MDMX.ppg            12.000000:  Dens Mud Max 
 PH  .pH             10.300000:  Mud pH 
 MOIL.                      19:  Run Mud Oil % 
 MOWR.                   19 81:  Run Mud OWR 
 MSND.                       0:  Run Mud Sand % 
 MSOL.                      19:  Run Mud Solids% 
 MTV .                GeoForce:  Motor Variant 
 DFV .spqt           51.000000:  Mud Viscosity 
 MWOD.in              8.150000:  MWD Tool OD 
 MWSI.                      No:  Serv Intrp, MWD 
 OTIM.hr            106.542305:  Time Operating 
 PMAX.psig         6850.255859:  Press Op, Max 
 PV  .cP             21.000000:  Mud PV 
 RMS .ohmm            0.039000:  Mud Resistivity 
 RMCS.ohmm            0.059000:  Mud Cake Resistivity 
 MCST.degF           80.000000:  Mud Cake Sample Temperature 
 RMFS.ohmm            0.030000:  Mud Filtrate Resistivity 
 RMFT.degF           80.000000:  Mud Filtrate Sample Temperature 
 RMMT.ohmm            0.018000:  Rm @ Max Temp 
 MST .degF           80.000000:  Mud Sample Temperature 
 RUN .                    2300:  Run Number 
 RRUN.                    2300:  Rig Run Number 
 SAZI.deg           101.400002:  Azm, Start 
 SDEP.ft           9467.000000:  Start Depth 
 SIDD.                      No:  Serv Intrp, DD 
 SINC.deg            24.139999:  Inc, Start 
 STIM.      13.57.20 31-Mar-20:  Start Time 
 SVER.                9.200000:  Sperry Version 
 TDAT.ft            704.000000:  Tot Depth Attmp 
 TDDF.                      No:  Trip for DD 
 TDLG.ft            704.000000:  Tot Depth Loggd 
 TFF .                      No:  Trip for Fail 
 MRT .                     PWD:  Maximum Recorded Temperature 
 TTMX.degF          181.000000:  Max Tool Temp 
 VS01.           F1(8)90603244:  Virtual Str1 SN 
 VS02.     H2V5WGV2R(8)90604159:  Virtual Str2 SN 
 WITN.     Mohamed Sharaf el Din:  Customer Rep 
 YP  .lhf2           29.000000:  Yield Point 
~Curve Information Block
#MNEM.UNIT                 API CODE     Curve Description
#---------               -----------    ---------------------------
 DEPT.F                 00 000 000 000:  Depth
 RPTVD.ft               00 000 000 000:  ROP True Vertical Depth
 ROPA.fph               00 000 000 000:  Avg Rate of Penetration
 DGRCC.api              00 000 000 000:  DGR Comb Gamma Ray BCorr
 EWXT.hr                00 000 000 000:  EWR Formation Exp Time
 R15P.ohmm              00 000 000 000:  EWR Shallow Phase Res
 R15A.ohmm              00 000 000 000:  EWR Shallow Atten Res
 R27P.ohmm              00 000 000 000:  EWR Medium Phase Res
 R27A.ohmm              00 000 000 000:  EWR Medium Atten Res
 R39P.ohmm              00 000 000 000:  EWR Deep Phase Res
 R39A.ohmm              00 000 000 000:  EWR Deep Atten Res
 ABR .ohmm              00 000 000 000:  At-Bit Resistivity
 AFRSA.ohmm             00 000 000 000:  AFR Shallow Avg Res
 AFRDA.ohmm             00 000 000 000:  AFR Deep Avg Res
 AFXT.hr                00 000 000 000:  AFR Form Exp Time
#Other Information
#
#WARRANTY: Halliburton will use its best efforts to furnish customers with 
#accurate information and interpretations that are part of, and incident to, the services 
#provided.  However, Halliburton cannot and does not warrant the accuracy 
#or correctness of such information and interpretations.  Under no circumstances should any 
#such information or interpretation be relied upon as the sole basis for any drilling, 
#completion, production, or financial decision or any procedure involving any risk to the 
#safety of any drilling venture, drilling rig or its crew or any other third party.  The 
#Customer has full responsibility for all drilling, completion and production operation.  
#Halliburton makes no representations or warranties, either expressed or 
#implied, including, but not limited to, the implied warranties of merchantability or fitness 
#for a particular purpose, with respect to the services rendered.  In no event will 
#Halliburton be liable for failure to obtain any particular results or for 
#any damages, including, but not limited to, indirect, special or consequential damages, 
#resulting from the use of any information or interpretation provided by Halliburton.
#
~A    DEPT      RPTVD      ROPA      DGRCC     EWXT      R15P      R15A      R27P      R27A      R39P      R39A       ABR       AFRSA      AFRDA      AFXT    
# ...
   10316.0000  9399.8008   17.9160   10.8802    3.0629   84.3701   10.6701 2000.0000  200.0000 2000.0000  200.0000   339.5533  9643.2705  9696.6074    2.6406
   10316.5000  9400.1982   12.3577   11.5796    3.0180   71.1354    9.8142 2000.0000  200.0000 2000.0000  200.0000   337.5044  1609.3832  1155.1295    2.6027
   10317.0000  9400.3945    9.8987   11.6379    2.9731   88.0260   10.6443 2000.0000  200.0000 2000.0000  200.0000   336.9523  1623.3729   752.6033    2.5678
   10317.5000  9401.0479   18.0437   10.3819    2.9687   88.6725   10.2330 1999.0857  200.0000 2000.0000  200.0000   336.6497  7532.4771  3636.5608    2.5686
   10318.0000  9401.5352   32.3710    9.2013    2.9680   97.3326    9.8174 1997.4846  200.0000 2000.0000  200.0000   336.6386 14459.0273 11226.9570    2.5754
   10318.5000  9401.9004   23.9938    7.9962    2.9594  105.7889    9.8345 2000.0000  200.0000 2000.0000  200.0000   336.6788 17229.5137 15613.4785    2.5740
   10319.0000  9402.3613   18.8938   11.5618    2.9494   95.4632   11.1296 2000.0000  200.0000 2000.0000  200.0000   336.4480 20000.0000 20000.0000    2.5689
   10319.5000  9402.8145   20.8610   11.8517    2.9407  106.0850   11.8720 2000.0000  200.0000 2000.0000  200.0000   336.1650 20000.0000 19982.0957    2.5617
   10320.0000  9403.2275   20.8558   10.6544    2.9316   88.4976   11.2802 1979.3733  200.0000 2000.0000  200.0000   335.9716 20000.0000 19950.1816    2.5540
   10320.5000  9403.6934   20.9779   10.4682    2.9273   80.1410   10.7839 1967.8425  200.0000 2000.0000  200.0000   335.8150 20000.0000 20000.0000    2.5474
   10321.0000  9404.1123   21.1346    9.7810    2.9248   85.0033   10.3915 2000.0000  200.0000 2000.0000  200.0000   335.7284 19899.7129 20000.0000    2.5405
   10321.5000  9404.5898   21.3615    8.6450    2.9196   77.4955    9.6325 2000.0000  200.0000 2000.0000  200.0000   336.0182 19799.4258 20000.0000    2.5326
   10322.0000  9405.0049   19.9488   11.2653    2.9158   68.8791   10.4622 2000.0000  200.0000 2000.0000  200.0000   335.8021 19699.1387 20000.0000    2.5248
   10322.5000  9405.4492   18.0196   10.3604    2.9109   57.5075   10.9123 1859.6326  200.0000 2000.0000  200.0000   335.6907 19598.8516 20000.0000    2.5160
   10323.0000  9405.8926   18.2040    9.7969    2.9043   74.9922   10.4636 1735.0769  200.0000 2000.0000  200.0000   335.6634 19498.5645 20000.0000    2.5075
   10323.5000  9406.3350   18.7220    8.9618    2.9015   86.9802    9.9254 1983.6033  200.0000 2000.0000  200.0000   335.6070 19398.2773 20000.0000    2.4989
   10324.0000  9406.7861   18.7306    9.8002    2.8975   69.3452    9.9147 2000.0000  200.0000 2000.0000  200.0000   335.5277 19297.9902 20000.0000    2.4900
   10324.5000  9407.2168   17.9615   10.6581    2.9533   72.8729    9.4147 2000.0000  200.0000 2000.0000  200.0000   335.4601 19197.7031 20000.0000    2.4793
   10325.0000  9407.6514   17.5253   10.3580    2.9773   73.8200    9.5540 1986.6992  200.0000 2000.0000  200.0000   335.3466 10473.8994  9775.0049    2.4670
   10325.5000  9408.1260   19.4338   11.1628    3.0096   45.6422    9.9723 1109.0676  200.0000 2000.0000  200.0000   334.9167   758.7685  1509.1002    2.4536
   10326.0000  9408.5879   17.7352   11.5504    2.9931   28.8348    9.8664  203.6900  200.0000 1532.2023  200.0000   324.4799    62.3270   277.7964    2.4366
   10326.5000  9408.9385   13.4264   14.8975    2.9689   22.5583    9.1389  122.4605  200.0000  723.5682  200.0000   312.8100    56.7656   204.3624    2.4117
   10327.0000  9409.3047   13.3183   17.4748    2.9566   27.3943    9.2615  842.7173  200.0000 1638.8240  200.0000   311.3640    58.2458   240.2518    2.3896
   10327.5000  9409.8672   31.5333   18.3290    2.9616   43.3157   10.4230 1936.8053  200.0000 2000.0000  200.0000   310.8142    48.2258   294.0663    2.3860
   10328.0000  9410.3076   43.4864   19.3236    2.9713   40.0054   10.3766 2000.0000  200.0000 2000.0000  200.0000   310.6974    51.0669   362.0879    2.3869
   10328.5000  9410.7695   43.5397   15.9501    2.9806   41.2494    8.3846 2000.0000  200.0000 2000.0000  200.0000   310.6372    85.8962   624.0600    2.3872
   10329.0000  9411.2080   39.2864   13.3006    2.9866   45.2124    8.6731 2000.0000  200.0000 2000.0000  200.0000   310.5477   183.2010  1858.7026    2.3862
   10329.5000  9411.6387   32.5742   11.8698    2.9861   62.6599   11.2184 1974.0431  200.0000 2000.0000  200.0000   310.4513   451.8121  6971.9370    2.3847
   10330.0000  9412.0996   26.9723   16.3387    2.9877   85.3100   12.3262 1672.8551  200.0000 2000.0000  200.0000   310.2859  1201.2155 16448.2441    2.3823
   10330.5000  9412.4834   23.1488   18.8009    2.9865   60.9671   10.4331 1384.2782  200.0000 2000.0000  200.0000   309.0141   715.5032 10783.7197    2.3764
   10331.0000  9412.9629   24.1719   21.5410    2.9853   45.9000    9.2879  400.9599  200.0000 1949.0658  200.0000   304.6390   196.3513  2239.5725    2.3710
   10331.5000  9413.3828   27.4383   20.6405    2.9887   34.3875   10.1977  240.0956  200.0000 1928.5745  200.0000   302.9699    86.6431   676.0674    2.3703
   10332.0000  9413.8301   29.7845   18.6309    2.9932   36.7423   16.6874  398.4475  200.0000 2000.0000  200.0000   311.1646    63.9313   468.4636    2.3702
   10332.5000  9414.2832   34.3354   21.1738    3.0017   30.1084   15.5372  150.9120  200.0000 1908.7676  200.0000   313.3485    50.6895   392.5277    2.3752
   10333.0000  9414.7256   36.3285   21.4172    3.0088   24.1707   10.8453   78.3188  200.0000  969.2739  200.0000   312.3014    39.4006   290.6865    2.3811
   10333.5000  9415.1660   36.0078   21.1274    3.0117   26.5704   10.6726   93.1105  200.0000 1794.3396  200.0000   311.4748    36.1124   219.5191    2.3875
   10334.0000  9415.6074   35.0797   16.7352    3.0121   40.4532   14.8164  143.2358  200.0000 2000.0000  200.0000   310.9993    42.7968   215.6797    2.3936
   10334.5000  9416.0449   34.5663   13.3132    3.0110   57.5702   13.8343  270.1078  200.0000 2000.0000  200.0000   310.6728    80.5363   289.6959    2.4024
   10335.0000  9416.4912   34.6068   10.8084    3.0077   51.2992   12.0912  114.1963  200.0000 2000.0000  200.0000   310.4154   448.9092   682.4691    2.4058
   10335.5000  9416.9824   32.9481    9.3383    3.0018   51.7355   12.8990   78.9680  200.0000 2000.0000  200.0000   310.5801  5650.7017  4692.5278    2.4085
   10336.0000  9417.3545   26.1104    9.9001    2.9970   46.3116   62.1493   57.9557  200.0000 2000.0000  200.0000   310.6358 17771.9609  -999.2500    2.4097
   10336.5000  9417.7959   21.1098   10.1165    2.9950   34.5382  137.5241   46.4227  200.0000 2000.0000  200.0000   310.3458 20000.0000  -999.2500    2.4225
   10337.0000  9418.2852   22.4070    8.7321    2.9928   40.9362   74.9348   46.3786  200.0000 2000.0000  200.0000   309.6549 20000.0000  -999.2500    2.5281
   10337.5000  9418.6816   20.3930    8.8448    2.9843   58.8833   28.5243   48.8229  200.0000 2000.0000  200.0000   305.1734 20000.0000  -999.2500    2.5424
   10338.0000  9419.2354   18.7407    8.8965    2.9707   49.1175   53.0661   42.5527  200.0000 2000.0000  200.0000   300.6223 20000.0000  -999.2500    2.5263
   10338.5000  9419.5762   14.7746    7.6443    2.9442   32.8586  107.6980   37.3624  200.0000 2000.0000  200.0000   299.6843 20000.0000  -999.2500    2.4962
   10339.0000  9419.9648   11.5875    8.0107    2.9184   38.2242   69.0021   41.5792  200.0000 2000.0000  200.0000   299.5239 20000.0000  -999.2500    2.4696
   10339.5000  9420.4668   13.6386    7.7970    2.8962   35.4760   36.8103   39.7786  200.0000 2000.0000  200.0000   299.3636 20000.0000  -999.2500    2.4555
   10340.0000  9420.8936   15.0504    8.4826    2.8785   48.5421  117.0079   43.8026  200.0000 2000.0000  200.0000   299.2704 20000.0000  -999.2500    2.4443
   10340.5000  9421.3037   14.7010    8.6028    2.8644   42.2876  105.2258   49.8220  200.0000 2000.0000  200.0000   299.1844 20000.0000  -999.2500    2.4377
   10341.0000  9421.7744   18.6269    7.8800    2.8526   44.5649  153.8506   52.3499  200.0000 2000.0000  200.0000   299.2122 20000.0000  -999.2500    2.4323
