~Version Information
 VERS.                  2.0:   CWLS log ASCII Standard -VERSION 2.0
 WRAP.                   NO:   One line per depth step
~Well Information Block
#MNEM.UNIT     VALUE/NAME     DESCRIPTION
#---------     -----------    ---------------------------
 STRT.M              5223.0528: START DEPTH
 STOP.M              5536.2348: STOP DEPTH
 STEP.M                 0.1524: STEP DEPTH
 NULL.               -999.2500: NULL VALUE
 DFWT.                        :  DIST FWL TEXT
 DFST.                        :  DIST FSL TEXT
 DMF .             Drill Floor:  DRILL MEAS FROM
 STIM.      11.30.00 09-Jul-16:  START TIME
 DATE.      11.29.04 14-Aug-16:  END TIME
 SPUD.               17-Aug-15:  SPUD DATE
 NREF.                    Grid:  NORTH REFERENCE
 HPTY.       Minimum Curvature:  HOLE POS TYPE
 DMOD.             Drill Model:  DRILL MOD DESC
 SVYD.                  Survey:  SURVEY DESC
 ILTD.               Lithology:  INTERP LTH DESC
 FTOP.          Formation Tops:  FORM TOPS DESC
 WELL.              AF011-3D-1:  WELL NAME
 COMP.               TOTAL-ABK:  COMPANY
 SON .        AD-XX-0902156848:  JOB NUMBER
 GCDE.     Generic Lat/Long's, Degrees, -180 ==> +180:  GEO COORD DESC
 CCDE.     UTM Clarke 1880 (CM 51), Meters:  CART COORD DESC
 GGSY.                      LL:  GEO GRID SYS
 CGSY.               SS CLRK51:  CART GRID SYS
 GREF.     Ellipsoid World Geodetic System :  GEO REFERENCE
 CREF.     Ellipsoid Clarke - 1880:  CART REFERENCE
 MMDL.            bggm2016.dat:  MAGNETIC MODEL
 MMDD.            20 May, 2016:  MAG DATA DATE
 MDS .              Win MagUTM:  MAG DATA SOURCE
 LLGR.      Latitude/Longitude:  LLGROUP
 XYGR.     UTM Zones, Northern Hemisphere, Meters:  XYGROUP
 PDAT.          Mean Sea Level:  PERMANENT DATUM
 WTYP.                Deviated:  WELL TYPE
 BASE.               Abu Dhabi:  LOGGING EQUIPMENT BASE LOCATION
 REGN.     Middle East/North Africa:  REGION
 PROV.               Abu Dhabi:  PROVINCE
 STAT.               Abu Dhabi:  STATE NAME
 CTRY.     United Arab Emirates:  COUNTRY NAME
 FLD .         Abu Al Bukhoosh:  FIELD NAME
 SRVC.                  SAIPEM:  CONTRACTOR
 MWDS.                Musaffah:  MWD SHOP
 RIG .           Perro Negro 8:  RIG NAME
 CNTY.               Abu Dhabi:  COUNTY NAME
 DCON.             HALLIBURTON:  DIRECTNL CONTR
 UNIT.                    9804:  LOGGING EQUIPMENT ID
 DOE .        AD-XX-0902156848:  DOE NUMBER
 API .                        :  API NUMBER
 UWI .                        :  UNIQUE WELL IDENTIFIER
 LOC .                        :  LOCATION
 LMF .             Drill Floor:  LOG MEASURED FROM
 TVDS.m              43.899999:  TVDSS CORRECTN
 LATI.deg            25.504513:  LATITUDE
 LONG.deg            53.120396:  LONGITUDE
 WHNS.m               0.000000:  WELL HEAD N/S
 WHEW.m               0.000000:  WELL HEAD E/W
 UTMX.m          713123.300043:  UTM X
 UTMY.m         2822281.299893:  UTM Y
 DFWL.m               0.000000:  DISTANCE FWL
 DFSL.m               0.000000:  DISTANCE FSL
 SDEP.m            5253.990000:  START DEPTH
 TDD .m            5543.669658:  TOTAL DEPTH (DRILLER)
 VSDR.deg           249.940002:  VERT SEC DIRECT
 GVFD.g               1.000000:  GRAVITY FIELD
 MFLD.nT          43940.839844:  MAGNETIC FIELD
 MDIP.deg            39.918472:  MAGNETIC DIP
 MDEC.deg             2.250056:  MAGNETIC DECL
 GRDC.deg             0.913350:  GRID CORRECTION
 AZTC.deg             1.336706:  AZM TOTAL CORR
 EPD .m               0.000000:  ELEVATION
 EGL .m             -45.400001:  GROUND ELEVATION
 WDMS.m              45.400001:  WD ELEV
 APD .m              43.899999:  DEPTH ABOVE PD
 MMDE.m               0.000000:  MAGUTM CALC DEP
 CMER.deg            51.000000:  CENTRL MERIDIAN
 AGAP.m              23.099999:  AIR GAP
 EKB .m              43.899999:  KB ELEVATION
 EDF .m              43.899999:  DF ELEVATION
 VSC .                       0:  VS TO CLOSURE
 MAGU.                 1527179:  MAGUTM CHECKSUM
~Parameter Information Block
#MNEM.UNIT       Value        Description
#---------     -----------    ---------------------------
 AV  .mps             1.500000:  Ann Velocity 
 AVMX.mps             2.400000:  Max Ann Veloc 
 AZIF.deg           257.739990:  Azm, Final 
 BHAT.                 Turbine:  BHA Type 
 BROT.°/100'          0.000000:  Build Rotating 
 BS  .in              8.500000:  Bit Size 
 BSZ .in              8.500000:  Bit Size 
 BTPL.psig           43.511005:  Bit Press Loss 
 CABU.                      No:  Customer Abuse 
 TCS .hr            149.515671:  Time Ciculation Ended 
 CV  .mps             3.000000:  Crit Velocity 
 CVMX.mps             4.000000:  Max Crit Veloc 
 DD1 .            Ahmed Bayoud:  Direct Drillr 1 
 DD2 .        Hany Abdel Hafez:  Direct Drillr 2 
 DDSV.                 Turbine:  DD Service 
 DEFF.%              98.000000:  % Det Eff 
 DLRX.°/100'          0.000000:  Dogleg Rot Max 
 DLSO.°/100'          0.000000:  Dogleg Oriented 
 DLSX.°/100'          0.000000:  Dogleg Str Max 
 DRET.      12.28.32 23-Jun-16:  Drill End Time 
 DRST.      14.30.00 17-Jun-16:  Drill Start Tim 
 DTIM.hr            102.349998:  Time Drilling 
 EDEP.m            5254.000000:  End Depth 
 ENG1.         Ahmed Montasser:  Engineer 1 
 ENG2.              Do Dang Sa:  Engineer 2 
 ENG3.           Khaled Khalaf:  Engineer 3 
 ENG4.         Muhammad Mubeen:  Engineer 4 
 ETIM.      05.40.54 26-Jun-16:  End Time 
 FLOI.lpm          1800.000122:  Flow In 
 FLON.lpm          1500.000000:  Flow In Min 
 FLOS.lpm             0.000000:  Fluid Loss 
 FLOX.lpm          1800.000122:  Flow In Max 
 DFT .                   Other:  Mud Type 
 HFLO.                      No:  High Flow 
 HPRE.                      No:  High Pressure 
 HTEM.                      No:  High Temp 
 HYDO.m               1.400000:  Hydro Offset 
 IFIN.deg            10.460000:  Inc, Final 
 IMAX.deg            32.367214:  Inc Max 
 IMIN.deg            11.447388:  Inc Min 
 IMND.m            5236.799805:  Inc Min Depth 
 IMXD.m            4790.299805:  Inc Max Depth 
 JARR.                      No:  Jarring 
 LETM.      12.28.32 23-Jun-16:  Log End Time 
 LOST.hr                     0:  Lost Rig Time 
 LSTM.      14.30.00 17-Jun-16:  Log Start Time 
 MDCL.ppm         23000.000000:  Mud Chlorides 
 MDES.             Fresh Water:  Mud Desc 
 DFD .g/c3            1.170004:  Mud Density 
 MDMN.g/c3            1.160004:  Dens Mud Min 
 MDMX.g/c3            1.170004:  Dens Mud Max 
 PH  .pH              9.400000:  Mud pH 
 MOIL.                       0:  Run Mud Oil % 
 MOWR.                    1 91:  Run Mud OWR 
 MSND.                     0.1:  Run Mud Sand % 
 MSOL.                     6.2:  Run Mud Solids% 
 DFV .spl            73.000000:  Mud Viscosity 
 MWOD.in              6.750000:  MWD Tool OD 
 MWSI.                      No:  Serv Intrp, MWD 
 OTIM.hr            238.111023:  Time Operating 
 PMAX.psig         4000.000000:  Press Op, Max 
 PV  .mPsec          36.000000:  Mud PV 
 RMS .ohmm            0.299000:  Mud Resistivity 
 RMCS.ohmm            0.397000:  Mud Cake Resistivity 
 MCST.degC           35.000000:  Mud Cake Sample Temperature 
 RMFS.ohmm            0.200000:  Mud Filtrate Resistivity 
 RMFT.degC           35.000000:  Mud Filtrate Sample Temperature 
 RMMT.ohmm            0.118100:  Rm @ Max Temp 
 MST .degC           35.000000:  Mud Sample Temperature 
 RUN .                    3300:  Run Number 
 ROPA.m/hr            4.450000:  ROP Avg 
 ROPN.m/hr            2.000000:  ROP Min 
 ROPX.m/hr            7.000000:  ROP Max 
 RPMA.rpm            78.000000:  RPM Surface Avg 
 RPMN.rpm            35.000000:  RPM Surface Min 
 RPMX.rpm            80.000000:  RPM Surface Max 
 RRUN.                    3300:  Rig Run Number 
 RTIM.hr              7.150000:  Time Reaming 
 SAZI.deg           249.699997:  Azm, Start 
 SDEP.m            4799.000000:  Start Depth 
 SIDD.                      No:  Serv Intrp, DD 
 SINC.deg            30.049999:  Inc, Start 
 SPPA.psig         4543.999023:  SPP Avg 
 SPPN.psig         4264.078613:  SPP Min 
 SPPX.psig         4641.173828:  SPP Max 
 STIM.      09.00.00 16-Jun-16:  Start Time 
 SVCS.                 DD, MWD:  Services 
 SVER.                8.300000:  Sperry Version 
 TDAT.m             455.000000:  Tot Depth Attmp 
 TDDF.                      No:  Trip for DD 
 TDLG.m             455.000000:  Tot Depth Loggd 
 TFF .                      No:  Trip for Fail 
 TQAA.f-p         37070.000000:  Torque Abs Avg 
 TQAN.f-p         35000.000000:  Torque Abs Min 
 TQAX.f-p         39000.000000:  Torque Abs Max 
 TRRT.°/100'          0.000000:  Turn Rotating 
 MRT .                     PWD:  Maximum Recorded Temperature 
 TTMX.degC          121.568352:  Max Tool Temp 
 VS01.     AD90473258H2V5WGV2COXF1(6):  Virtual Str1 SN 
 WBMN.klb             4.409245:  WOB Min 
 WITN.           Roger Butters:  Customer Rep 
 WOBA.klb             9.788525:  WOB Avg 
 WOBX.klb            13.227736:  WOB Max 
 YP  .pa             43.000000:  Yield Point 
~Curve Information Block
#MNEM.UNIT                 API CODE     Curve Description
#---------               -----------    ---------------------------
 DEPT.M                 00 000 000 000:  Depth
 DGRCC.api              00 000 000 000:  DGR Comb Gamma Ray BCorr
 ALHSI.in               00 000 000 000:  ALD Hole Size Indicator
 ABR .ohmm              00 000 000 000:  At-Bit Resistivity
 AFRSA.ohmm             00 000 000 000:  AFR Shallow Avg Res
 AFRMA.ohmm             00 000 000 000:  AFR Medium Avg Res
 AFRDA.ohmm             00 000 000 000:  AFR Deep Avg Res
 AFXT.hr                00 000 000 000:  AFR Form Exp Time
 ALCDLC.g/c3            00 000 000 000:  ALD LCRB Comp Density
 ALPELC.NONE            00 000 000 000:  ALD LCRB Pe Factor
 ALDCLC.g/c3            00 000 000 000:  ALD LCRB Den Correction
 TNPL.pu                00 000 000 000:  CTN Porosity Limestone
 DTC .uspf              00 000 000 000:  BAT DTC
 DTRS.uspf              00 000 000 000:  BAT Refracted Shear
 VPVS.NONE              00 000 000 000:  BAT VP/VS
#Other Information
#
#WARRANTY: Halliburton will use its best efforts to furnish customers with 
#accurate information and interpretations that are part of, and incident to, the services 
#provided.  However, Halliburton cannot and does not warrant the accuracy 
#or correctness of such information and interpretations.  Under no circumstances should any 
#such information or interpretation be relied upon as the sole basis for any drilling, 
#completion, production, or financial decision or any procedure involving any risk to the 
#safety of any drilling venture, drilling rig or its crew or any other third party.  The 
#Customer has full responsibility for all drilling, completion and production operation.  
#Halliburton makes no representations or warranties, either expressed or 
#implied, including, but not limited to, the implied warranties of merchantability or fitness 
#for a particular purpose, with respect to the services rendered.  In no event will 
#Halliburton be liable for failure to obtain any particular results or for 
#any damages, including, but not limited to, indirect, special or consequential damages, 
#resulting from the use of any information or interpretation provided by Halliburton.
#
~A   DEPT      DGRCC     ALHSI      ABR      AFRSA     AFRMA     AFRDA     AFXT     ALCDLC    ALPELC    ALDCLC     TNPL       DTC      DTRS      VPVS    
# ...
   5424.9828   12.7173    5.7500   34.2363   39.2984   39.1361   37.5022   40.6479    2.4735    2.5419   -0.0365    3.5733   56.1838   88.9112    1.5825
   5425.1352   15.3247    5.7508   33.9125   42.8934   42.5487   41.3899   40.6581    2.4830    2.9901   -0.0340    3.6043   56.0249   88.7059    1.5838
   5425.2876   18.2815    5.7594   33.6312   52.8061   51.3881   52.1320   40.6901    2.5234    3.7025   -0.0180    3.7174   56.1241   88.6374    1.5796
   5425.4400   30.3537    5.8173   33.4238   54.1816   50.4209   53.2323   40.7764    2.5747    3.8951    0.0081    3.8171   56.1532   88.6128    1.5785
   5425.5924   56.5416    5.9441   33.2602   57.1874   53.9940   57.5197   40.7138    2.5956    4.0793    0.0325    4.1909   56.5227   88.5028    1.5665
   5425.7448   70.2725    5.8832   32.9979   68.1366   70.8151   76.1611   40.7047    2.5661    3.9114    0.0135    4.9467   55.6496   88.6001    1.5938
   5425.8972   63.9024    5.8659   32.7016   62.1865   74.1772   84.3257   40.7313    2.5649    3.4161    0.0062    5.8501   54.5329   88.8506    1.6314
   5426.0496   54.7152    6.0924   32.4909   52.1824   68.0984   78.7434   40.8179    2.6011    4.0005    0.0542    6.1553   53.6436   88.3904    1.6519
   5426.2020   47.8576    6.2495   32.3816   48.2431   62.3480   68.1985   40.7610    2.5783    4.6023    0.0708    5.4718   54.5789   85.9360    1.5789
   5426.3544   39.3125    6.0933   32.3418   43.3398   54.3407   56.7416   40.7735    2.5062    4.2434    0.0272    4.4439   53.6276   85.9630    1.6125
   5426.5068   32.7969    5.9027   32.2668   38.7792   47.8499   50.4205   40.8347    2.4934    3.8194   -0.0046    4.2372   56.4352   90.0829    1.5981
   5426.6592   28.9795    5.7769   32.1808   40.9665   50.7840   53.9921   40.8023    2.5210    3.2402   -0.0223    4.6478   57.7855   91.9306    1.5881
   5426.8116   36.5812    5.7510   32.1883   44.5766   52.8415   56.5094   40.8405    2.5560    2.8618   -0.0264    4.5381   57.6158   90.6194    1.5714
   5426.9640   42.1349    5.7500   32.3263   42.4852   46.1007   50.9024   40.7940    2.5614    2.8962   -0.0160    4.4085   56.9747   88.6256    1.5556
   5427.1164   34.9890    5.7500   32.4576   46.6983   51.1103   57.8856   40.7875    2.5490    2.8276   -0.0140    5.0614   56.7358   87.4058    1.5407
   5427.2688   25.6185    5.7500   32.5773   61.3338   74.7613   84.2595   40.8075    2.5227    2.7418   -0.0196    6.9386   56.2475   86.8415    1.5437
   5427.4212   21.2454    5.7500   32.5726   72.2065   91.1759  103.1685   40.8713    2.5012    2.6406   -0.0255    4.6756   55.9319   86.9983    1.5534
   5427.5736   22.8065    5.7500   32.3577   73.4339   88.7366  100.8819   40.9348    2.5048    2.8365   -0.0193    5.4652   56.2814   87.3802    1.5500
   5427.7260   24.8713    5.7500   32.3029   72.1742   87.0607   96.1413   40.8659    2.5146    2.9127   -0.0128    5.4279   56.5360   86.4464    1.5258
   5427.8784   27.3355    5.7500   32.3810   71.7107   89.2143   92.8438   40.8900    2.5162    2.9256   -0.0138    4.4600   56.6135   84.0620    1.4845
   5428.0308   34.3574    5.7587   32.3386   74.4925   91.3718   93.2472   40.8694    2.5190    3.0656   -0.0185    4.6235   55.4725   82.8375    1.4958
   5428.1832   48.5856    5.8224   32.3379   80.2940   91.4561   95.9168   40.8792    2.5408    3.4679   -0.0037    5.7944   54.7587   83.6888    1.5303
   5428.3356   62.8517    6.0467   32.1149   79.6422   81.5337   87.4207   40.9505    2.5676    4.1063    0.0453    7.4793   57.3190   85.9600    1.5009
   5428.4880   50.5671    6.1545   31.9326   64.9247   64.1443   68.7582   40.9751    2.5303    4.2681    0.0578    7.8007   62.0383   93.9632    1.5108
   5428.6404   32.3849    5.9584   31.9190   52.1917   54.8323   56.8695   40.9580    2.4521    4.0163    0.0206    8.0704   64.4387  101.1754    1.5687
   5428.7928   36.3517    5.8478   32.1328   47.8206   51.9026   52.5258   40.9694    2.4237    4.0167    0.0022    8.8660   65.1951  103.1170    1.5837
   5428.9452   74.2281    5.7931   32.1502   40.7048   39.5292   42.1370   40.9831    2.4304    3.8535   -0.0213    9.8270   66.5763  105.5712    1.5872
   5429.0976  120.4430    5.7590   32.0257   31.3281   24.9186   30.2204   40.9539    2.4482    3.3127   -0.0405   11.9836   68.0624  107.2443    1.5773
   5429.2500  144.2165    5.7529   31.7992   33.2127   24.7103   32.3179   40.9605    2.4801    2.9643   -0.0254   14.9471   69.7237  110.2583    1.5854
   5429.4024  137.3715    5.7633   31.6746   45.7917   37.8167   48.2193   40.9791    2.4894    3.0955   -0.0124   16.1562   73.0917  111.9351    1.5359
   5429.5548  123.4251    5.8862   31.7984   55.4197   52.4783   62.0650   40.9596    2.4643    3.2846   -0.0023   16.2898   74.5024  115.9961    1.5595
   5429.7072  120.1634    6.3141   32.0845   62.3314   65.9863   70.6884   40.9637    2.4306    3.7399    0.0465   16.1531   75.0118  121.9000    1.6263
   5429.8596  122.9029    6.3074   32.2783   63.1864   71.5081   71.6938   40.9815    2.3141    4.2185    0.0260   17.9410   75.7829  122.6705    1.6190
   5430.0120  109.7731    5.9620   32.2862   65.9690   74.9187   73.2784   41.0018    2.2763    3.9389   -0.0405   22.8851   73.9684  117.2490    1.5843
   5430.1644  100.4560    6.0013   32.3715   54.5885   53.1440   54.7867   41.0246    2.3980    3.9261   -0.0009   20.6126   70.5963  107.7402    1.5250
   5430.3168  113.7909    5.8408   31.9748   37.6307   33.6593   34.3125   41.0749    2.3940    3.5624   -0.0261   16.7278   67.4045   98.5321    1.4630
   5430.4692  115.9352    5.7826   31.5460   34.9915   33.3944   31.1020   41.1199    2.4340    3.3591   -0.0310   15.2022   62.7037   95.2554    1.5217
   5430.6216   99.5516    5.8493   31.5185   44.7010   46.2852   40.5140   41.1735    2.5259    3.8118    0.0131   11.5480   60.2743   93.2673    1.5481
   5430.7740   86.3731    6.0755   31.5181   55.4637   59.0458   51.1392   41.3391    2.5580    4.4544    0.0516   10.3594   59.9977   91.3518    1.5228
   5430.9264   68.7035    6.4064   31.3790   62.1714   68.2462   57.9229   41.3277    2.5619    5.1074    0.0809   10.0780   60.2181   90.3943    1.5015
   5431.0788   64.9111    6.2638   31.1233   54.5757   55.7523   49.2717   41.2984    2.4979    4.9228    0.0276    7.7489   60.6610   89.6823    1.4786
   5431.2312   76.2267    5.8845   30.9481   39.3212   36.6450   34.8366   41.3687    2.4614    4.0718   -0.0225    7.4385   60.6464   89.2896    1.4727
   5431.3836   89.7465    5.8051   30.7090   37.9964   36.9517   37.1990   41.5422    2.5292    3.5948   -0.0127    8.1885   60.4429   89.0944    1.4762
   5431.5360   96.8061    6.0195   30.4352   53.6935   56.9845   59.8659   41.6412    2.5934    4.0110    0.0428    9.4932   57.6986   88.9564    1.5461
   5431.6884   81.1155    6.3674   30.1818   71.9721   75.6289   80.9170   41.6709    2.6111    5.1585    0.1018    7.3642   56.4355   89.6074    1.5898
   5431.8408   50.6822    6.3684   30.0942   73.4385   76.5438   81.7443   41.6817    2.5252    5.3657    0.0782    5.4090   57.5001   90.9127    1.5818
   5431.9932   29.9220    6.2796   30.1873   62.4884   68.3438   73.1061   41.6973    2.4728    5.0619    0.0451    5.1849   58.2941   91.5058    1.5701
   5432.1456   23.7199    6.1240   30.4222   51.8168   58.0559   61.9676   41.7320    2.4494    4.5159    0.0169    5.2691   57.6851   91.2777    1.5826
   5432.2980   19.1199    6.0357   30.7486   44.1621   46.0463   49.7869   41.7685    2.4650    4.3374    0.0168    5.0325   56.9850   90.5706    1.5896
   5432.4504   17.6077    5.8638   30.8026   37.5096   36.8982   40.7595   41.8008    2.4837    4.0663    0.0106    3.9951   57.0391   90.1481    1.5806
   5432.6028   17.5349    5.7649   30.8310   34.5578   35.1339   39.1836   41.8160    2.4941    3.3249   -0.0203    3.4400   56.9378   89.2790    1.5688
   5432.7552   19.3225    5.7501   30.9165   35.1863   38.5586   43.1842   41.8269    2.5146    2.6301   -0.0375    3.5106   56.8464   87.9702    1.5496
   5432.9076   20.2543    5.7500   30.7754   35.1709   40.3633   45.7648   41.8374    2.5335    2.4543   -0.0364    4.1355   56.8580   87.3759    1.5379
