~Version Information
 VERS.                  2.0:   CWLS log ASCII Standard -VERSION 2.0
 WRAP.                   NO:   One line per depth step
~Well Information Block
#MNEM.UNIT     VALUE/NAME     DESCRIPTION
#---------     -----------    ---------------------------
 STRT.F             14200.0000: START DEPTH
 STOP.F             16770.0000: STOP DEPTH
 STEP.F                 0.5000: STEP DEPTH
 NULL.               -999.2500: NULL VALUE
 UNIT.                12318515:  LOGGING EQUIPMENT ID
 CNTY.             HAIR DALMAH:  COUNTY NAME
 JOBN.        AD-XX-0905995035:  JOB TICKET NUMB
 FLD .             HAIR DALMAH:  FIELD NAME
 PDAT.          Mean Sea Level:  PERMANENT DATUM
 RIG .                     PN8:  RIG NAME
 MWDS.                    ICAD:  MWD SHOP
 CTRY.     United Arab Emirates:  COUNTRY NAME
 REGN.     Middle East/North Africa:  REGION
 BASE.               Abu Dhabi:  LOGGING EQUIPMENT BASE LOCATION
 WTYP.                Vertical:  WELL TYPE
 XYGR.     UTM Zones, Northern Hemisphere, Meters:  XYGROUP
 LLGR.      Latitude/Longitude:  LLGROUP
 MDS .              Win MagUTM:  MAG DATA SOURCE
 MMDD.       05 December, 2019:  MAG DATA DATE
 MMDL.            bggm2019.dat:  MAGNETIC MODEL
 CREF.     Ellipsoid Clarke - 1880:  CART REFERENCE
 GREF.     Ellipsoid World Geodetic System :  GEO REFERENCE
 CGSY.               SS CLRK51:  CART GRID SYS
 GGSY.                      LL:  GEO GRID SYS
 CCDE.     UTM Clarke 1880 (CM 51), Meters:  CART COORD DESC
 GCDE.     Generic Lat/Long's, Degrees, -180 ==> +180:  GEO COORD DESC
 SON .        AD-XX-0905995035:  JOB NUMBER
 COMP.          ADNOC Offshore:  COMPANY
 WELL.               HD011-02D:  WELL NAME
 FTOP.          Formation Tops:  FORM TOPS DESC
 ILTD.               Lithology:  INTERP LTH DESC
 SVYD.                  Survey:  SURVEY DESC
 DMOD.             Drill Model:  DRILL MOD DESC
 HPTY.       Minimum Curvature:  HOLE POS TYPE
 NREF.                    Grid:  NORTH REFERENCE
 SPUD.               17-Feb-20:  SPUD DATE
 DATE.      21.00.00 29-Aug-20:  END TIME
 STIM.      12.00.00 26-Jul-20:  START TIME
 DMF .             Drill Floor:  DRILL MEAS FROM
 DFST.                        :  DIST FSL TEXT
 DFWT.                        :  DIST FWL TEXT
 PROV.               Abu Dhabi:  PROVINCE
 STAT.               Abu Dhabi:  STATE NAME
 API .                        :  API NUMBER
 SRVC.             Halliburton:  SERVICE COMPANY
 UWI .                        :  UNIQUE WELL IDENTIFIER
 LOC .                        :  LOCATION
 LMF .             Drill Floor:  LOG MEASURED FROM
 DEP .ft              0.000000:  DEPTH
 AGAP.ft            118.000000:  AIR GAP
 CMER.deg            51.000000:  CENTRL MERIDIAN
 MMDE.ft              0.000000:  MAGUTM CALC DEP
 APD .ft            118.000000:  DEPTH ABOVE PD
 WDMS.ft             65.000000:  WD ELEV
 EGL .ft              0.000000:  GROUND ELEVATION
 EPD .ft              0.000000:  ELEVATION
 AZTC.deg             1.750428:  AZM TOTAL CORR
 GRDC.deg             0.592532:  GRID CORRECTION
 MDEC.deg             2.342959:  MAGNETIC DECL
 MDIP.deg            38.394272:  MAGNETIC DIP
 MFLD.nT          43612.476563:  MAGNETIC FIELD
 GVFD.g               1.000000:  GRAVITY FIELD
 VSDR.deg            91.860001:  VERT SEC DIRECT
 TDD .ft          16770.000000:  TOTAL DEPTH (DRILLER)
 SDEP.ft          14436.000000:  START DEPTH
 DFSL.ft              0.000000:  DISTANCE FSL
 DFWL.ft              0.000000:  DISTANCE FWL
 UTMY.m         2710911.810000:  UTM Y
 UTMX.m          644702.250000:  UTM X
 WHEW.ft              0.000000:  WELL HEAD E/W
 WHNS.ft              0.000000:  WELL HEAD N/S
 LONG.deg            52.428197:  LONGITUDE
 LATI.deg            24.507246:  LATITUDE
 TVDS.ft            118.000000:  TVDSS CORRECTN
 EKB .ft            118.000000:  KB ELEVATION
 EDF .ft            118.000000:  DF ELEVATION
 MAGU.                 1512580:  MAGUTM CHECKSUM
 VSC .                       0:  VS TO CLOSURE
~Parameter Information Block
#MNEM.UNIT       Value        Description
#---------     -----------    ---------------------------
 AV  .fpm           484.999969:  Ann Velocity 
 AVMX.fpm           969.999939:  Max Ann Veloc 
 AZIF.deg           166.490005:  Azm, Final 
 BHAT.               Mud Motor:  BHA Type 
 BROT.°/100'          0.030000:  Build Rotating 
 BS  .in              8.375000:  Bit Size 
 BSZ .in              8.375000:  Bit Size 
 BTPL.psig          415.000000:  Bit Press Loss 
 CABU.                      No:  Customer Abuse 
 CGEO.             Carey Mills:  Customer Geo 
 COMM.                     ÜhT:  Run Comments 1 
 TCS .hr             21.141129:  Time Ciculation Ended 
 CV  .fpm           564.000000:  Crit Velocity 
 CVMX.fpm           702.000000:  Max Crit Veloc 
 DD1 .     Mohamed Gayed Barakat:  Direct Drillr 1 
 DDSV.               Mud Motor:  DD Service 
 DEFF.%              98.000000:  % Det Eff 
 DLRX.°/100'          0.100000:  Dogleg Rot Max 
 DLSO.°/100'          0.070000:  Dogleg Oriented 
 DLSX.°/100'          0.100000:  Dogleg Str Max 
 DRET.      23.59.00 10-Aug-20:  Drill End Time 
 DRST.      15.30.00 10-Aug-20:  Drill Start Tim 
 DTIM.hr              4.412436:  Time Drilling 
 EDEP.ft          15118.000000:  End Depth 
 ENG1.             Ahmed Aleem:  Engineer 1 
 ETIM.      16.00.00 11-Aug-20:  End Time 
 FLOI.gpm           550.000000:  Flow In 
 FLON.gpm           499.999969:  Flow In Min 
 FLOS.mptm            3.000000:  Fluid Loss 
 FLOX.gpm           550.000000:  Flow In Max 
 DFT .                 Polymer:  Mud Type 
 HFLO.                      No:  High Flow 
 HPRE.                      No:  High Pressure 
 HTEM.                      No:  High Temp 
 HYDO.ft              0.000000:  Hydro Offset 
 IFIN.deg             1.530000:  Inc, Final 
 IMAX.deg             1.590000:  Inc Max 
 IMIN.deg             1.560000:  Inc Min 
 IMND.ft          14992.000000:  Inc Min Depth 
 IMXD.ft          14895.000000:  Inc Max Depth 
 JARR.                      No:  Jarring 
 LETM.      23.59.00 10-Aug-20:  Log End Time 
 LOST.hr                    42:  Lost Rig Time 
 LSTM.      11.00.00 10-Aug-20:  Log Start Time 
 MDCL.ppm        140000.000000:  Mud Chlorides 
 MDES.             Fresh Water:  Mud Desc 
 DFD .ppg            12.000000:  Mud Density 
 MDMN.ppg            12.000000:  Dens Mud Min 
 MDMX.ppg            12.000000:  Dens Mud Max 
 PH  .pH             10.000000:  Mud pH 
 MOWR.                    0 83:  Run Mud OWR 
 MSND.                       0:  Run Mud Sand % 
 MSOL.                      17:  Run Mud Solids% 
 MTV .                GeoForce:  Motor Variant 
 DFV .spqt           50.000000:  Mud Viscosity 
 MWOD.in              6.900000:  MWD Tool OD 
 MWSI.                     Yes:  Serv Intrp, MWD 
 OTIM.hr             49.000000:  Time Operating 
 PMAX.psig        10491.233398:  Press Op, Max 
 PV  .cP             22.000000:  Mud PV 
 RMS .ohmm            0.022000:  Mud Resistivity 
 RMCS.ohmm            0.033000:  Mud Cake Resistivity 
 MCST.degF          212.000000:  Mud Cake Sample Temperature 
 RMFS.ohmm            0.020000:  Mud Filtrate Resistivity 
 RMFT.degF          212.000000:  Mud Filtrate Sample Temperature 
 RMMT.ohmm            0.018000:  Rm @ Max Temp 
 MST .degF          212.000000:  Mud Sample Temperature 
 RUN .                    4200:  Run Number 
 ROPA.fph            20.629999:  ROP Avg 
 ROPN.fph            20.000000:  ROP Min 
 ROPX.fph            31.250002:  ROP Max 
 RPMA.rpm            90.000000:  RPM Surface Avg 
 RPMN.rpm            90.000000:  RPM Surface Min 
 RPMX.rpm            90.000000:  RPM Surface Max 
 RRUN.                    4200:  Rig Run Number 
 RTIM.hr              8.500000:  Time Reaming 
 SAZI.deg           168.300003:  Azm, Start 
 SDEP.ft          14972.500000:  Start Depth 
 SIDD.                      No:  Serv Intrp, DD 
 SINC.deg             1.570000:  Inc, Start 
 SPPA.psig         3000.000000:  SPP Avg 
 SPPN.psig         3000.000000:  SPP Min 
 SPPX.psig         3000.000000:  SPP Max 
 STIM.      21.30.00 09-Aug-20:  Start Time 
 SVCS.                 DD, MWD:  Services 
 SVER.                9.200000:  Sperry Version 
 TDAT.ft            348.000000:  Tot Depth Attmp 
 TDDF.                      No:  Trip for DD 
 TDLG.ft            145.500000:  Tot Depth Loggd 
 TFF .                     Yes:  Trip for Fail 
 TQAA.f-p            22.000000:  Torque Abs Avg 
 TQAN.f-p            22.000000:  Torque Abs Min 
 TQAX.f-p            22.000000:  Torque Abs Max 
 TRRT.°/100'          1.010000:  Turn Rotating 
 MRT .                     AFR:  Maximum Recorded Temperature 
 TTMX.degF          260.000000:  Max Tool Temp 
 VS01.     AD90608221 H7V5WCOF1 (6):  Virtual Str1 SN 
 VS02.     90608207 R11GV2CO (6):  Virtual Str2 SN 
 WBMN.klb            15.000000:  WOB Min 
 WITN.         Ricardo Vasquez:  Customer Rep 
 WOBA.klb            17.500000:  WOB Avg 
 WOBX.klb            20.000000:  WOB Max 
 YP  .lhf2           35.000000:  Yield Point 
~Curve Information Block
#MNEM.UNIT                 API CODE     Curve Description
#---------               -----------    ---------------------------
 DEPT.F                 00 000 000 000:  Depth
 RPTVD.ft               00 000 000 000:  ROP True Vertical Depth
 ROPA.fph               00 000 000 000:  Avg Rate of Penetration
 DGRCC.api              00 000 000 000:  DGR Comb Gamma Ray BCorr
 ALHSI.in               00 000 000 000:  ALD Hole Size Indicator
 ABR .ohmm              00 000 000 000:  At-Bit Resistivity
 AFXT.hr                00 000 000 000:  AFR Form Exp Time
 RM  .ohmm              00 000 000 000:  AFR Medium Avg Res
 RS  .ohmm              00 000 000 000:  AFR Shallow Avg Res
 RD  .ohmm              00 000 000 000:  AFR Deep Avg Res
 TNPL.pu                00 000 000 000:  CTN Porosity Limestone
 ALCDLC.g/cc            00 000 000 000:  ALD LCRB Comp Density
 ALDCLC.g/cc            00 000 000 000:  ALD LCRB Den Correction
 ALPELC.                00 000 000 000:  ALD LCRB Pe Factor
#Other Information
#
#WARRANTY: Halliburton will use its best efforts to furnish customers with 
#accurate information and interpretations that are part of, and incident to, the services 
#provided.  However, Halliburton cannot and does not warrant the accuracy 
#or correctness of such information and interpretations.  Under no circumstances should any 
#such information or interpretation be relied upon as the sole basis for any drilling, 
#completion, production, or financial decision or any procedure involving any risk to the 
#safety of any drilling venture, drilling rig or its crew or any other third party.  The 
#Customer has full responsibility for all drilling, completion and production operation.  
#Halliburton makes no representations or warranties, either expressed or 
#implied, including, but not limited to, the implied warranties of merchantability or fitness 
#for a particular purpose, with respect to the services rendered.  In no event will 
#Halliburton be liable for failure to obtain any particular results or for 
#any damages, including, but not limited to, indirect, special or consequential damages, 
#resulting from the use of any information or interpretation provided by Halliburton.
#
~A    DEPT      RPTVD      ROPA      DGRCC     ALHSI      ABR      AFXT        RM        RS         RD       TNPL     ALCDLC    ALDCLC    ALPELC   
# ...
   14640.0000  -999.2500 -999.2500   52.7971 -999.2500    0.2685  622.6067  -999.2500    0.0062  -999.2500   26.0006 -999.2500 -999.2500 -999.2500
   14640.5000  -999.2500 -999.2500   50.3075 -999.2500    0.2685  622.6095  -999.2500    0.0062  -999.2500   24.5995 -999.2500 -999.2500 -999.2500
   14641.0000  -999.2500 -999.2500   52.5803 -999.2500    0.2678  622.6127  -999.2500    0.0062  -999.2500   23.3721 -999.2500 -999.2500 -999.2500
   14641.5000  -999.2500 -999.2500   50.6850 -999.2500    0.2671  622.6161  -999.2500    0.0062  -999.2500   21.3059 -999.2500 -999.2500 -999.2500
   14642.0000  -999.2500 -999.2500   51.6886 -999.2500    0.2671  622.6196  -999.2500    0.0062  -999.2500   19.0023 -999.2500 -999.2500 -999.2500
   14642.5000  -999.2500 -999.2500   37.0706 -999.2500    0.2671  622.6228  -999.2500    0.0062  -999.2500   16.6872 -999.2500 -999.2500 -999.2500
   14643.0000  -999.2500 -999.2500   41.6496 -999.2500    0.2610  622.6262  -999.2500    0.0062  -999.2500   16.6075 -999.2500 -999.2500 -999.2500
   14643.5000  -999.2500 -999.2500   24.7670 -999.2500    0.2610  622.6318  -999.2500    0.0061  -999.2500   17.5241 -999.2500 -999.2500 -999.2500
   14644.0000  -999.2500 -999.2500   24.2116 -999.2500    0.2610  622.6365  -999.2500    0.0061  -999.2500   17.0594 -999.2500 -999.2500 -999.2500
   14644.5000  -999.2500 -999.2500   22.1042 -999.2500    0.2576  622.6396  -999.2500    0.0061  -999.2500   16.3868 -999.2500 -999.2500 -999.2500
   14645.0000  -999.2500 -999.2500   17.8087 -999.2500    0.2543  622.6429  -999.2500    0.0061  -999.2500   16.1341 -999.2500 -999.2500 -999.2500
   14645.5000  -999.2500 -999.2500   16.1529 -999.2500    0.2543  622.6493  -999.2500    0.0061  -999.2500   17.1402 -999.2500 -999.2500 -999.2500
   14646.0000  -999.2500 -999.2500   15.4843 -999.2500    0.2513  622.7225  -999.2500    0.0062  -999.2500   17.9178 -999.2500 -999.2500 -999.2500
   14646.5000  -999.2500 -999.2500   18.1966 -999.2500    0.2483  622.8087  -999.2500    0.0062  -999.2500   18.2207 -999.2500 -999.2500 -999.2500
   14647.0000  -999.2500 -999.2500   20.2050 -999.2500    0.2483  622.7549  -999.2500    0.0064  -999.2500   19.7773 -999.2500 -999.2500 -999.2500
   14647.5000  -999.2500 -999.2500   19.2465 -999.2500    0.2604  622.9398  -999.2500    0.0065  -999.2500   20.2026 -999.2500 -999.2500 -999.2500
   14648.0000  -999.2500 -999.2500   23.2177 -999.2500    0.2726  622.9669  -999.2500    0.0063  -999.2500   20.8579 -999.2500 -999.2500 -999.2500
   14648.5000  -999.2500 -999.2500   31.6267 -999.2500    0.2726  622.9648  -999.2500    0.0065  -999.2500   19.9168 -999.2500 -999.2500 -999.2500
   14649.0000  -999.2500 -999.2500   37.4185 -999.2500    0.2536  622.9566  -999.2500    0.0078  -999.2500   16.7506 -999.2500 -999.2500 -999.2500
   14649.5000  -999.2500 -999.2500   25.8223 -999.2500    0.2413  622.9292  -999.2500    0.0092  -999.2500   15.5456 -999.2500 -999.2500 -999.2500
   14650.0000  -999.2500 -999.2500   15.1919 -999.2500    0.2402  622.9026  -999.2500    0.0096  -999.2500   16.5014 -999.2500 -999.2500 -999.2500
   14650.5000  -999.2500 -999.2500   15.3132    8.3750    0.2153  622.9030  -999.2500    0.0156  -999.2500   17.1411    0.5956   -3.4996   74.1746
   14651.0000  -999.2500 -999.2500   18.9519    8.3750    0.2161  622.9143  -999.2500    0.0528  -999.2500   16.8985    1.8060   -2.1818   24.1330
   14651.5000  -999.2500 -999.2500   20.5185    8.8220    0.2244  622.9191  -999.2500    0.1193  -999.2500   16.9085    3.3680   -0.1842   10.4754
   14652.0000  -999.2500 -999.2500   21.3831   10.0824    0.2139  622.9227  -999.2500    0.1583  -999.2500   16.8960    3.4484    0.3510    7.4657
   14652.5000  -999.2500 -999.2500   22.9984   10.0611    0.2114  622.9263  -999.2500    1.4918  -999.2500   14.8209    2.8059    0.2108    8.9302
   14653.0000  -999.2500 -999.2500   24.1414    9.8745    0.2152  622.9298  -999.2500   26.8437  -999.2500   15.3597    2.6213    0.1607    9.2546
   14653.5000  -999.2500 -999.2500   26.4554    9.7178    0.2102  622.9332   218.7127   53.8550  -999.2500   16.0394    2.6160    0.1438    8.6115
   14654.0000  -999.2500 -999.2500   21.8190    9.6916    0.2101  622.9368    97.9156   51.4150   984.6100   16.3197    2.6301    0.1394    8.4795
   14654.5000  -999.2500 -999.2500   21.0372    9.7968    0.2123  622.9404    86.0070   48.8886  1892.3121   14.9732    2.6473    0.1541    9.2122
   14655.0000  -999.2500 -999.2500   23.3607    9.9734    0.2175  622.9161   170.7459   43.6062  9543.3936   14.3740    2.6681    0.1818   10.2821
   14655.5000  -999.2500 -999.2500   19.3541   10.6848    0.2131  622.7808   354.3024   18.4546  2882.9194   14.3800    2.6682    0.2618   12.1196
   14656.0000  -999.2500 -999.2500   16.5735   11.7632    0.2148  622.6393   226.4380    4.7610   650.9479   15.1827    2.6048    0.2803   12.4579
   14656.5000  -999.2500 -999.2500   16.5013   12.0626    0.2163  622.5853   105.7650    2.8939   155.2176   16.7817    2.5556    0.2604   12.9637
   14657.0000  -999.2500 -999.2500   20.1809   11.3556    0.2251  622.5530    51.2353    2.8878    81.0381   17.8062    2.4870    0.1247   11.4923
   14657.5000  -999.2500 -999.2500   22.1249    8.8727    0.2234  622.5155    44.4888    4.2563    73.8000   18.7428    2.5452   -0.0377    6.9025
   14658.0000  -999.2500 -999.2500   27.2350    8.4297    0.2214  622.4799    52.2914   13.6002    81.4266   12.7266    2.7457   -0.0126    5.3594
   14658.5000  -999.2500 -999.2500   27.7849    8.5409    0.2203  622.4569    34.4443   24.3089    46.9305    8.3181    2.8560    0.0339    5.4305
   14659.0000  -999.2500 -999.2500   29.5997    8.4746    0.2247  622.4365    10.5601    9.3754    12.7996   10.2328    2.7924    0.0199    5.4307
   14659.5000  -999.2500 -999.2500   42.3042    8.3907    0.2173  622.4147     7.4603    6.8883     8.6432   13.1263    2.7498   -0.0046    4.9436
   14660.0000  -999.2500 -999.2500   64.0966    8.4877    0.2169  622.3922     9.3743    7.8447    10.7412   12.3321    2.7794    0.0201    5.3483
   14660.5000  -999.2500 -999.2500   90.0402    8.3946    0.2177  622.3678    12.3565    8.8036    14.2397   10.8641    2.7739    0.0027    4.9636
   14661.0000  -999.2500 -999.2500   87.7384    8.4283    0.2202  622.3426    18.3941   11.4008    22.0202    8.7560    2.7992    0.0085    5.3063
   14661.5000  -999.2500 -999.2500   78.3240    8.4422    0.2183  622.3170    24.9990   15.1760    33.6639    6.3129    2.8421    0.0029    5.7752
   14662.0000  -999.2500 -999.2500   72.0195    8.4106    0.2182  622.2941    34.5229   23.5394    55.1180    4.4177    2.8771   -0.0031    6.3266
   14662.5000  -999.2500 -999.2500   65.6722    8.3767    0.2188  622.2829    45.9665   40.3547    89.8329    2.4667    2.8954   -0.0091    6.0696
   14663.0000  -999.2500 -999.2500   40.0662    8.3964    0.2211  622.2728    84.0651   83.7151   182.3389    1.2166    2.9396    0.0023    6.2171
   14663.5000  -999.2500 -999.2500   27.1470    8.4113    0.2151  622.2543   467.5285  569.1978  1195.5692    0.2534    2.9661    0.0084    6.2846
   14664.0000  -999.2500 -999.2500   16.9389    8.4309    0.2146  622.2349  1183.7230 1441.5273  4148.3159   -0.0241    2.9618    0.0129    6.4508
   14664.5000  -999.2500 -999.2500   12.9489    8.4508    0.2147  622.2216  2906.8682 3057.5044  9005.0674    0.3429    2.9638    0.0175    6.6258
   14665.0000  -999.2500 -999.2500   11.7634    8.4384    0.2143  622.1656  4224.0693 3846.8708 11168.4316    1.0584    2.9598    0.0147    6.0123
   14665.5000  -999.2500 -999.2500   13.6603    8.3846    0.2122  621.9366  1788.8043 1751.8817  4085.6714    2.4253    2.9154    0.0012    5.3570
   14666.0000  -999.2500 -999.2500   16.6819    8.4008    0.2122  621.7078   247.3549  288.9275   399.4300    3.7486    2.8733    0.0049    4.8079
   14666.5000  -999.2500 -999.2500   16.7443    8.4240    0.2161  621.6528    33.3414   54.2139    37.5465    4.2783    2.8332    0.0100    4.9796
   14667.0000  -999.2500 -999.2500   30.3199    8.4302    0.2135  621.6426    31.1334   50.8773    35.2448    4.1422    2.8634    0.0116    6.5140
