~Version Information
 VERS.                  2.0:   CWLS log ASCII Standard -VERSION 2.0
 WRAP.                   NO:   One line per depth step
~Well Information Block
#MNEM.UNIT     VALUE/NAME     DESCRIPTION
#---------     -----------    ---------------------------
 STRT.F             10112.0000: START DEPTH
 STOP.F             11135.0000: STOP DEPTH
 STEP.F                 0.5000: STEP DEPTH
 NULL.               -999.2500: NULL VALUE
 UNIT.                12318515:  LOGGING EQUIPMENT ID
 CNTY.             HAIR DALMAH:  COUNTY NAME
 JOBN.        AD-XX-0905995035:  JOB TICKET NUMB
 FLD .             HAIR DALMAH:  FIELD NAME
 PDAT.          Mean Sea Level:  PERMANENT DATUM
 RIG .                     PN8:  RIG NAME
 MWDS.                    ICAD:  MWD SHOP
 CTRY.     United Arab Emirates:  COUNTRY NAME
 REGN.     Middle East/North Africa:  REGION
 BASE.               Abu Dhabi:  LOGGING EQUIPMENT BASE LOCATION
 WTYP.                Deviated:  WELL TYPE
 XYGR.     UTM Zones, Northern Hemisphere, Meters:  XYGROUP
 LLGR.      Latitude/Longitude:  LLGROUP
 MDS .              Win MagUTM:  MAG DATA SOURCE
 MMDD.       05 December, 2019:  MAG DATA DATE
 MMDL.            bggm2019.dat:  MAGNETIC MODEL
 CREF.     Ellipsoid Clarke - 1880:  CART REFERENCE
 GREF.     Ellipsoid World Geodetic System :  GEO REFERENCE
 CGSY.               SS CLRK51:  CART GRID SYS
 GGSY.                      LL:  GEO GRID SYS
 CCDE.     UTM Clarke 1880 (CM 51), Meters:  CART COORD DESC
 GCDE.     Generic Lat/Long's, Degrees, -180 ==> +180:  GEO COORD DESC
 SON .        AD-XX-0905995035:  JOB NUMBER
 COMP.          ADNOC Offshore:  COMPANY
 WELL.               HD011-02D:  WELL NAME
 FTOP.          Formation Tops:  FORM TOPS DESC
 ILTD.               Lithology:  INTERP LTH DESC
 SVYD.                  Survey:  SURVEY DESC
 DMOD.             Drill Model:  DRILL MOD DESC
 HPTY.       Minimum Curvature:  HOLE POS TYPE
 NREF.                    Grid:  NORTH REFERENCE
 SPUD.               17-Feb-20:  SPUD DATE
 DATE.      06.00.00 09-Apr-20:  END TIME
 STIM.      11.40.00 06-Apr-20:  START TIME
 DMF .             Drill Floor:  DRILL MEAS FROM
 DFST.                        :  DIST FSL TEXT
 DFWT.                        :  DIST FWL TEXT
 PROV.               Abu Dhabi:  PROVINCE
 STAT.               Abu Dhabi:  STATE NAME
 API .                        :  API NUMBER
 SRVC.             Halliburton:  SERVICE COMPANY
 UWI .                        :  UNIQUE WELL IDENTIFIER
 LOC .                        :  LOCATION
 LMF .             Drill Floor:  LOG MEASURED FROM
 DEP .ft              0.000000:  DEPTH
 AGAP.ft            118.000000:  AIR GAP
 CMER.deg            51.000000:  CENTRL MERIDIAN
 MMDE.ft              0.000000:  MAGUTM CALC DEP
 APD .ft            118.000000:  DEPTH ABOVE PD
 WDMS.ft             65.000000:  WD ELEV
 EGL .ft              0.000000:  GROUND ELEVATION
 EPD .ft              0.000000:  ELEVATION
 AZTC.deg             1.750428:  AZM TOTAL CORR
 GRDC.deg             0.592532:  GRID CORRECTION
 MDEC.deg             2.342959:  MAGNETIC DECL
 MDIP.deg            38.394272:  MAGNETIC DIP
 MFLD.nT          43612.476563:  MAGNETIC FIELD
 GVFD.g               1.000000:  GRAVITY FIELD
 VSDR.deg            91.860001:  VERT SEC DIRECT
 TDD .ft          11135.000000:  TOTAL DEPTH (DRILLER)
 SDEP.ft          10171.000000:  START DEPTH
 DFSL.ft              0.000000:  DISTANCE FSL
 DFWL.ft              0.000000:  DISTANCE FWL
 UTMY.m         2710911.810000:  UTM Y
 UTMX.m          644702.250000:  UTM X
 WHEW.ft              0.000000:  WELL HEAD E/W
 WHNS.ft              0.000000:  WELL HEAD N/S
 LONG.deg            52.428197:  LONGITUDE
 LATI.deg            24.507246:  LATITUDE
 TVDS.ft            118.000000:  TVDSS CORRECTN
 EKB .ft            118.000000:  KB ELEVATION
 EDF .ft            118.000000:  DF ELEVATION
 MAGU.                 1512580:  MAGUTM CHECKSUM
 VSC .                       0:  VS TO CLOSURE
~Parameter Information Block
#MNEM.UNIT       Value        Description
#---------     -----------    ---------------------------
 AV  .fpm             1.000000:  Ann Velocity 
 AVMX.fpm             1.000000:  Max Ann Veloc 
 AZIF.deg            83.830002:  Azm, Final 
 BHAT.               Mud Motor:  BHA Type 
 BS  .in             14.500000:  Bit Size 
 BSZ .in             14.500000:  Bit Size 
 BTPL.psig            1.000000:  Bit Press Loss 
 CABU.                      No:  Customer Abuse 
 CGEO.             Carey Mills:  Customer Geo 
 COMM.                     t i:  Run Comments 1 
 TCS .hr             83.600342:  Time Ciculation Ended 
 CV  .fpm             1.000000:  Crit Velocity 
 CVMX.fpm             1.000000:  Max Crit Veloc 
 DD1 .          Devinder Kumar:  Direct Drillr 1 
 DD2 .     Mohamed Gayed Barakat:  Direct Drillr 2 
 DDSV.               Mud Motor:  DD Service 
 DEFF.%              90.000000:  % Det Eff 
 DRET.      06.15.00 04-Apr-20:  Drill End Time 
 DRST.      13.57.20 31-Mar-20:  Drill Start Tim 
 DTIM.hr             56.449772:  Time Drilling 
 EDEP.ft          10171.000000:  End Depth 
 ENG1.           Denis Sobolev:  Engineer 1 
 ENG2.            Imad Youssef:  Engineer 2 
 ETIM.      23.30.00 06-Apr-20:  End Time 
 FLOI.gpm           999.999939:  Flow In 
 FLON.gpm           964.999939:  Flow In Min 
 FLOS.mptm            2.600000:  Fluid Loss 
 FLOX.gpm          1100.000000:  Flow In Max 
 DFT .                 Polymer:  Mud Type 
 HFLO.                      No:  High Flow 
 HPRE.                      No:  High Pressure 
 HTEM.                      No:  High Temp 
 HYDO.ft              0.000000:  Hydro Offset 
 IFIN.deg            26.030001:  Inc, Final 
 IMAX.deg            26.559999:  Inc Max 
 IMIN.deg            24.139999:  Inc Min 
 IMND.ft           9477.000000:  Inc Min Depth 
 IMXD.ft           9942.000000:  Inc Max Depth 
 JARR.                      No:  Jarring 
 LETM.      23.30.00 06-Apr-20:  Log End Time 
 LOST.hr                     0:  Lost Rig Time 
 LSTM.      13.57.20 31-Mar-20:  Log Start Time 
 MDCL.ppm        150000.000000:  Mud Chlorides 
 MDES.             Fresh Water:  Mud Desc 
 DFD .ppg            12.000000:  Mud Density 
 MDMN.ppg            12.000000:  Dens Mud Min 
 MDMX.ppg            12.000000:  Dens Mud Max 
 PH  .pH             10.300000:  Mud pH 
 MOIL.                      19:  Run Mud Oil % 
 MOWR.                   19 81:  Run Mud OWR 
 MSND.                       0:  Run Mud Sand % 
 MSOL.                      19:  Run Mud Solids% 
 MTV .                GeoForce:  Motor Variant 
 DFV .spqt           51.000000:  Mud Viscosity 
 MWOD.in              8.150000:  MWD Tool OD 
 MWSI.                      No:  Serv Intrp, MWD 
 OTIM.hr            106.542305:  Time Operating 
 PMAX.psig         6850.255859:  Press Op, Max 
 PV  .cP             21.000000:  Mud PV 
 RMS .ohmm            0.039000:  Mud Resistivity 
 RMCS.ohmm            0.059000:  Mud Cake Resistivity 
 MCST.degF           80.000000:  Mud Cake Sample Temperature 
 RMFS.ohmm            0.030000:  Mud Filtrate Resistivity 
 RMFT.degF           80.000000:  Mud Filtrate Sample Temperature 
 RMMT.ohmm            0.018000:  Rm @ Max Temp 
 MST .degF           80.000000:  Mud Sample Temperature 
 RUN .                    2300:  Run Number 
 RRUN.                    2300:  Rig Run Number 
 SAZI.deg           101.400002:  Azm, Start 
 SDEP.ft           9467.000000:  Start Depth 
 SIDD.                      No:  Serv Intrp, DD 
 SINC.deg            24.139999:  Inc, Start 
 STIM.      13.57.20 31-Mar-20:  Start Time 
 SVER.                9.200000:  Sperry Version 
 TDAT.ft            704.000000:  Tot Depth Attmp 
 TDDF.                      No:  Trip for DD 
 TDLG.ft            704.000000:  Tot Depth Loggd 
 TFF .                      No:  Trip for Fail 
 MRT .                     PWD:  Maximum Recorded Temperature 
 TTMX.degF          181.000000:  Max Tool Temp 
 VS01.           F1(8)90603244:  Virtual Str1 SN 
 VS02.     H2V5WGV2R(8)90604159:  Virtual Str2 SN 
 WITN.     Mohamed Sharaf el Din:  Customer Rep 
 YP  .lhf2           29.000000:  Yield Point 
~Curve Information Block
#MNEM.UNIT                 API CODE     Curve Description
#---------               -----------    ---------------------------
 DEPT.F                 00 000 000 000:  Depth
 RPTVD.ft               00 000 000 000:  ROP True Vertical Depth
 ROPA.fph               00 000 000 000:  Avg Rate of Penetration
 DGRCC.api              00 000 000 000:  DGR Comb Gamma Ray BCorr
 EWXT.hr                00 000 000 000:  EWR Formation Exp Time
 R15P.ohmm              00 000 000 000:  EWR Shallow Phase Res
 R15A.ohmm              00 000 000 000:  EWR Shallow Atten Res
 R27P.ohmm              00 000 000 000:  EWR Medium Phase Res
 R27A.ohmm              00 000 000 000:  EWR Medium Atten Res
 R39P.ohmm              00 000 000 000:  EWR Deep Phase Res
 R39A.ohmm              00 000 000 000:  EWR Deep Atten Res
 ABR .ohmm              00 000 000 000:  At-Bit Resistivity
 AFRSA.ohmm             00 000 000 000:  AFR Shallow Avg Res
 AFRDA.ohmm             00 000 000 000:  AFR Deep Avg Res
 AFXT.hr                00 000 000 000:  AFR Form Exp Time
#Other Information
#
#WARRANTY: Halliburton will use its best efforts to furnish customers with 
#accurate information and interpretations that are part of, and incident to, the services 
#provided.  However, Halliburton cannot and does not warrant the accuracy 
#or correctness of such information and interpretations.  Under no circumstances should any 
#such information or interpretation be relied upon as the sole basis for any drilling, 
#completion, production, or financial decision or any procedure involving any risk to the 
#safety of any drilling venture, drilling rig or its crew or any other third party.  The 
#Customer has full responsibility for all drilling, completion and production operation.  
#Halliburton makes no representations or warranties, either expressed or 
#implied, including, but not limited to, the implied warranties of merchantability or fitness 
#for a particular purpose, with respect to the services rendered.  In no event will 
#Halliburton be liable for failure to obtain any particular results or for 
#any damages, including, but not limited to, indirect, special or consequential damages, 
#resulting from the use of any information or interpretation provided by Halliburton.
#
~A    DEPT      RPTVD      ROPA      DGRCC     EWXT      R15P      R15A      R27P      R27A      R39P      R39A       ABR       AFRSA      AFRDA      AFXT    
# ...
   11004.5000  9999.7676   30.6762   15.6029    1.4072   65.6293   11.7375 1063.1389  200.0000 2000.0000  200.0000   283.2481   292.4974   395.7984    1.0571
   11005.0000 10000.2344   34.0135   13.3737    1.4075   59.5187   13.5716  963.6839  200.0000 2000.0000  200.0000   286.7601   258.1508   351.4650    1.0566
   11005.5000 10000.6660   34.6692   14.5331    1.4077   54.8712   15.5824  812.2864  200.0000 2000.0000  200.0000   290.0079   251.8842   351.2516    1.0559
   11006.0000 10001.0889   34.7210   15.8338    1.4080   65.5343   12.5985 1150.4424  200.0000 2000.0000  200.0000   292.8365   268.4652   386.5543    1.0553
   11006.5000 10001.5400   34.6100   14.9067    1.4080   62.5173   10.8889  769.5975  200.0000 2000.0000  200.0000   295.3734   270.6891   393.9588    1.0541
   11007.0000 10001.9639   34.2399   15.4464    1.4080   59.9315   11.7427  684.4552  200.0000 2000.0000  200.0000   303.0867   244.8428   348.4034    1.0532
   11007.5000 10002.3877   34.2831   17.4064    1.4083   49.4583   12.3454  569.0381  200.0000 2000.0000  200.0000   309.5527   224.6112   315.2814    1.0526
   11008.0000 10002.8389   34.6956   15.6473    1.4087   54.2147   12.5764  880.6871  200.0000 2000.0000  200.0000   308.1459   216.4422   303.6525    1.0529
   11008.5000 10003.2725   34.7210   13.4507    1.4089   57.0586   11.6429  991.2581  200.0000 2000.0000  200.0000   302.9444   192.9725   265.3593    1.0531
   11009.0000 10003.6816   34.8315   13.8284    1.4093   54.4849   11.0675  972.7974  200.0000 2000.0000  200.0000   297.8441   163.5446   217.3025    1.0535
   11009.5000 10004.1455   35.2999   14.5100    1.4101   55.9382   10.9115  830.8948  200.0000 2000.0000  200.0000   295.2059   162.9334   214.9754    1.0542
   11010.0000 10004.5684   36.1076   13.7762    1.4110   54.2966   11.6787  859.5062  200.0000 2000.0000  200.0000   294.9642   171.8025   236.5207    1.0552
   11010.5000 10005.0186   36.7850   15.6745    1.4119   51.0798   12.6163  716.2629  200.0000 2000.0000  200.0000   296.9467   180.2017   264.8580    1.0563
   11011.0000 10005.4443   36.9006   14.6659    1.4130   63.9095   12.7195 1290.7209  200.0000 2000.0000  200.0000   301.1530   206.9369   325.1276    1.0573
   11011.5000 10005.8799   36.9539   16.1249    1.4142   66.5469   11.9243 1394.1359  200.0000 2000.0000  200.0000   306.2323   262.9272   432.5811    1.0584
   11012.0000 10006.3223   36.8665   15.2887    1.4153   58.7901   12.0760 1121.4294  200.0000 2000.0000  200.0000   309.8541   310.0903   505.5307    1.0595
   11012.5000 10006.7422   36.8386   14.1135    1.4162   60.2501   11.8871 1343.7368  200.0000 2000.0000  200.0000   313.5656   296.0910   458.9138    1.0603
   11013.0000 10007.1826   36.2989   12.6194    1.4169   71.0668   11.5399 1968.1807  200.0000 2000.0000  200.0000   319.8645   266.7486   402.7354    1.0612
   11013.5000 10007.6221   35.1896   13.2797    1.4172   73.6061   11.0012 2000.0000  200.0000 2000.0000  200.0000   330.1651   261.1523   405.6696    1.0615
   11014.0000 10008.0479   34.5216   15.1535    1.4174   74.5505   10.4416 2000.0000  200.0000 2000.0000  200.0000   344.5895   275.2659   451.0981    1.0616
   11014.5000 10008.4932   34.4132   14.6680    1.4175   65.6373   10.4728 2000.0000  200.0000 2000.0000  200.0000   355.3047   262.6188   459.3285    1.0617
   11015.0000 10008.9248   34.4547   15.3854    1.4178   63.8290   10.5739 2000.0000  200.0000 2000.0000  200.0000   359.4550   230.6814   409.7987    1.0619
   11015.5000 10009.3701   34.4912   16.8452    1.4178   78.1662   10.7005 2000.0000  200.0000 2000.0000  200.0000   358.8416   225.7312   387.1314    1.0621
   11016.0000 10009.7891   34.5281   15.7333    1.4180   83.5581   10.7043 2000.0000  200.0000 2000.0000  200.0000   359.4513   272.4485   455.3524    1.0621
   11016.5000 10010.2373   34.4739   17.1060    1.4182   71.0222   10.3562 2000.0000  200.0000 2000.0000  200.0000   368.0804   349.1248   574.9009    1.0623
   11017.0000 10010.6582   34.4894   16.4179    1.4184   65.4596   10.5468 2000.0000  200.0000 2000.0000  200.0000   376.3548   380.5389   610.5779    1.0626
   11017.5000 10011.0996   34.5699   19.7013    1.4185   68.7951   11.1224 2000.0000  200.0000 2000.0000  200.0000   380.0324   348.5950   562.0892    1.0626
   11018.0000 10011.5371   34.5209   23.0903    1.4186   72.5310   11.0205 2000.0000  200.0000 2000.0000  200.0000   385.5311   251.2778   436.4899    1.0628
   11018.5000 10011.9629   34.4820   20.5023    1.4188   68.2194   10.6573 2000.0000  200.0000 2000.0000  200.0000   388.2464   171.7896   325.2075    1.0631
   11019.0000 10012.4072   34.4594   19.0064    1.4189   62.2866   10.8210 1931.8058  200.0000 2000.0000  200.0000   386.2774   135.6196   271.8803    1.0633
   11019.5000 10012.8350   34.4582   19.9238    1.4191   59.6815   11.0109 1602.9021  200.0000 2000.0000  200.0000   384.1859   115.3746   231.4192    1.0633
   11020.0000 10013.2773   34.4638   17.6642    1.4192   61.0939   10.8589 1669.7107  200.0000 2000.0000  200.0000   385.6115   104.2474   206.1560    1.0635
   11020.5000 10013.7061   34.4986   14.5366    1.4194   62.3844   10.3501 1890.6049  200.0000 2000.0000  200.0000   391.8531   103.6760   210.9112    1.0636
   11021.0000 10014.1387   34.5505   14.4052    1.4197   63.3505   10.6959 1724.7811  200.0000 2000.0000  200.0000   396.7721   116.4952   245.2189    1.0638
   11021.5000 10014.5771   34.5291   15.4948    1.4199   61.2245   10.8617 1812.0238  200.0000 2000.0000  200.0000   398.7317   129.5851   273.2258    1.0639
   11022.0000 10015.0322   34.4934   16.4309    1.4200   60.7106   10.9733 1448.4457  200.0000 2000.0000  200.0000   400.3704   126.4061   263.4346    1.0642
   11022.5000 10015.4424   34.4992   17.7163    1.4199   61.5188   10.5257 1415.5255  200.0000 2000.0000  200.0000   402.7504   119.2555   243.6402    1.0645
   11023.0000 10015.8799   34.5260   17.4264    1.4192   63.5033   10.8784 1659.6168  200.0000 2000.0000  200.0000   402.3289   119.2090   234.1711    1.0646
   11023.5000 10016.3242   34.4637   18.3146    1.4184   60.7483   10.6106 1329.6189  200.0000 2000.0000  200.0000   397.3368   122.4062   225.9854    1.0648
   11024.0000 10016.7490   34.4654   16.5786    1.4176   57.3842   10.9021 1054.7813  200.0000 2000.0000  200.0000   392.8723   129.6014   223.3945    1.0648
   11024.5000 10017.1953   34.5118   17.5252    1.4169   56.6232   12.5692  900.0343  200.0000 2000.0000  200.0000   388.6159   142.1302   228.1705    1.0650
   11025.0000 10017.6299   34.5472   15.5708    1.4164   56.5198   13.3048  683.4838  200.0000 2000.0000  200.0000   384.1298   156.7144   240.6258    1.0651
   11025.5000 10018.0439   34.5188   15.3959    1.4164   62.9788   12.2898 1029.3246  200.0000 2000.0000  200.0000   380.2239   162.5907   247.2523    1.0655
   11026.0000 10018.5088   34.5057   16.8937    1.4164   67.9961   11.6883  850.3983  200.0000 2000.0000  200.0000   376.3085   158.7775   236.3925    1.0657
   11026.5000 10018.9297   34.5069   20.9927    1.4163   70.0452   11.6963 1131.6467  200.0000 2000.0000  200.0000   374.2443   162.3502   224.9398    1.0657
   11027.0000 10019.3730   34.4465   22.8927    1.4162   72.7342   11.4882  941.5790  200.0000 2000.0000  200.0000   371.0341   188.1814   246.2524    1.0658
   11027.5000 10019.8047   34.4448   21.7193    1.4162   69.8958   12.2305 1369.7275  200.0000 2000.0000  200.0000   369.6848   258.8854   346.3762    1.0658
   11028.0000 10020.2354   34.5495   18.5317    1.4164   73.5334   13.1161 1674.2186  200.0000 2000.0000  200.0000   369.6411   397.1614   575.8938    1.0662
   11028.5000 10020.6709   34.5194   20.9812    1.4164   73.2575   12.5694 1617.6765  200.0000 2000.0000  200.0000   370.5660   631.7927   991.2180    1.0665
   11029.0000 10021.1074   34.5723   24.2145    1.4164   70.4088   11.9268 1460.8213  200.0000 2000.0000  200.0000   372.5574   922.5670  1428.4432    1.0667
   11029.5000 10021.5293   34.5233   26.7608    1.4163   77.0031   11.4487 1905.6385  200.0000 2000.0000  200.0000   373.9774  1028.8430  1472.6588    1.0668
