~Version Information
 VERS.                  2.0:   CWLS log ASCII Standard -VERSION 2.0
 WRAP.                   NO:   One line per depth step
~Well Information Block
#MNEM.UNIT     VALUE/NAME     DESCRIPTION
#---------     -----------    ---------------------------
 STRT.F             14200.0000: START DEPTH
 STOP.F             16770.0000: STOP DEPTH
 STEP.F                 0.5000: STEP DEPTH
 NULL.               -999.2500: NULL VALUE
 UNIT.                12318515:  LOGGING EQUIPMENT ID
 CNTY.             HAIR DALMAH:  COUNTY NAME
 JOBN.        AD-XX-0905995035:  JOB TICKET NUMB
 FLD .             HAIR DALMAH:  FIELD NAME
 PDAT.          Mean Sea Level:  PERMANENT DATUM
 RIG .                     PN8:  RIG NAME
 MWDS.                    ICAD:  MWD SHOP
 CTRY.     United Arab Emirates:  COUNTRY NAME
 REGN.     Middle East/North Africa:  REGION
 BASE.               Abu Dhabi:  LOGGING EQUIPMENT BASE LOCATION
 WTYP.                Vertical:  WELL TYPE
 XYGR.     UTM Zones, Northern Hemisphere, Meters:  XYGROUP
 LLGR.      Latitude/Longitude:  LLGROUP
 MDS .              Win MagUTM:  MAG DATA SOURCE
 MMDD.       05 December, 2019:  MAG DATA DATE
 MMDL.            bggm2019.dat:  MAGNETIC MODEL
 CREF.     Ellipsoid Clarke - 1880:  CART REFERENCE
 GREF.     Ellipsoid World Geodetic System :  GEO REFERENCE
 CGSY.               SS CLRK51:  CART GRID SYS
 GGSY.                      LL:  GEO GRID SYS
 CCDE.     UTM Clarke 1880 (CM 51), Meters:  CART COORD DESC
 GCDE.     Generic Lat/Long's, Degrees, -180 ==> +180:  GEO COORD DESC
 SON .        AD-XX-0905995035:  JOB NUMBER
 COMP.          ADNOC Offshore:  COMPANY
 WELL.               HD011-02D:  WELL NAME
 FTOP.          Formation Tops:  FORM TOPS DESC
 ILTD.               Lithology:  INTERP LTH DESC
 SVYD.                  Survey:  SURVEY DESC
 DMOD.             Drill Model:  DRILL MOD DESC
 HPTY.       Minimum Curvature:  HOLE POS TYPE
 NREF.                    Grid:  NORTH REFERENCE
 SPUD.               17-Feb-20:  SPUD DATE
 DATE.      21.00.00 29-Aug-20:  END TIME
 STIM.      12.00.00 26-Jul-20:  START TIME
 DMF .             Drill Floor:  DRILL MEAS FROM
 DFST.                        :  DIST FSL TEXT
 DFWT.                        :  DIST FWL TEXT
 PROV.               Abu Dhabi:  PROVINCE
 STAT.               Abu Dhabi:  STATE NAME
 API .                        :  API NUMBER
 SRVC.             Halliburton:  SERVICE COMPANY
 UWI .                        :  UNIQUE WELL IDENTIFIER
 LOC .                        :  LOCATION
 LMF .             Drill Floor:  LOG MEASURED FROM
 DEP .ft              0.000000:  DEPTH
 AGAP.ft            118.000000:  AIR GAP
 CMER.deg            51.000000:  CENTRL MERIDIAN
 MMDE.ft              0.000000:  MAGUTM CALC DEP
 APD .ft            118.000000:  DEPTH ABOVE PD
 WDMS.ft             65.000000:  WD ELEV
 EGL .ft              0.000000:  GROUND ELEVATION
 EPD .ft              0.000000:  ELEVATION
 AZTC.deg             1.750428:  AZM TOTAL CORR
 GRDC.deg             0.592532:  GRID CORRECTION
 MDEC.deg             2.342959:  MAGNETIC DECL
 MDIP.deg            38.394272:  MAGNETIC DIP
 MFLD.nT          43612.476563:  MAGNETIC FIELD
 GVFD.g               1.000000:  GRAVITY FIELD
 VSDR.deg            91.860001:  VERT SEC DIRECT
 TDD .ft          16770.000000:  TOTAL DEPTH (DRILLER)
 SDEP.ft          14436.000000:  START DEPTH
 DFSL.ft              0.000000:  DISTANCE FSL
 DFWL.ft              0.000000:  DISTANCE FWL
 UTMY.m         2710911.810000:  UTM Y
 UTMX.m          644702.250000:  UTM X
 WHEW.ft              0.000000:  WELL HEAD E/W
 WHNS.ft              0.000000:  WELL HEAD N/S
 LONG.deg            52.428197:  LONGITUDE
 LATI.deg            24.507246:  LATITUDE
 TVDS.ft            118.000000:  TVDSS CORRECTN
 EKB .ft            118.000000:  KB ELEVATION
 EDF .ft            118.000000:  DF ELEVATION
 MAGU.                 1512580:  MAGUTM CHECKSUM
 VSC .                       0:  VS TO CLOSURE
~Parameter Information Block
#MNEM.UNIT       Value        Description
#---------     -----------    ---------------------------
 AV  .fpm           484.999969:  Ann Velocity 
 AVMX.fpm           969.999939:  Max Ann Veloc 
 AZIF.deg           166.490005:  Azm, Final 
 BHAT.               Mud Motor:  BHA Type 
 BROT.°/100'          0.030000:  Build Rotating 
 BS  .in              8.375000:  Bit Size 
 BSZ .in              8.375000:  Bit Size 
 BTPL.psig          415.000000:  Bit Press Loss 
 CABU.                      No:  Customer Abuse 
 CGEO.             Carey Mills:  Customer Geo 
 COMM.                     ÜhT:  Run Comments 1 
 TCS .hr             21.141129:  Time Ciculation Ended 
 CV  .fpm           564.000000:  Crit Velocity 
 CVMX.fpm           702.000000:  Max Crit Veloc 
 DD1 .     Mohamed Gayed Barakat:  Direct Drillr 1 
 DDSV.               Mud Motor:  DD Service 
 DEFF.%              98.000000:  % Det Eff 
 DLRX.°/100'          0.100000:  Dogleg Rot Max 
 DLSO.°/100'          0.070000:  Dogleg Oriented 
 DLSX.°/100'          0.100000:  Dogleg Str Max 
 DRET.      23.59.00 10-Aug-20:  Drill End Time 
 DRST.      15.30.00 10-Aug-20:  Drill Start Tim 
 DTIM.hr              4.412436:  Time Drilling 
 EDEP.ft          15118.000000:  End Depth 
 ENG1.             Ahmed Aleem:  Engineer 1 
 ETIM.      16.00.00 11-Aug-20:  End Time 
 FLOI.gpm           550.000000:  Flow In 
 FLON.gpm           499.999969:  Flow In Min 
 FLOS.mptm            3.000000:  Fluid Loss 
 FLOX.gpm           550.000000:  Flow In Max 
 DFT .                 Polymer:  Mud Type 
 HFLO.                      No:  High Flow 
 HPRE.                      No:  High Pressure 
 HTEM.                      No:  High Temp 
 HYDO.ft              0.000000:  Hydro Offset 
 IFIN.deg             1.530000:  Inc, Final 
 IMAX.deg             1.590000:  Inc Max 
 IMIN.deg             1.560000:  Inc Min 
 IMND.ft          14992.000000:  Inc Min Depth 
 IMXD.ft          14895.000000:  Inc Max Depth 
 JARR.                      No:  Jarring 
 LETM.      23.59.00 10-Aug-20:  Log End Time 
 LOST.hr                    42:  Lost Rig Time 
 LSTM.      11.00.00 10-Aug-20:  Log Start Time 
 MDCL.ppm        140000.000000:  Mud Chlorides 
 MDES.             Fresh Water:  Mud Desc 
 DFD .ppg            12.000000:  Mud Density 
 MDMN.ppg            12.000000:  Dens Mud Min 
 MDMX.ppg            12.000000:  Dens Mud Max 
 PH  .pH             10.000000:  Mud pH 
 MOWR.                    0 83:  Run Mud OWR 
 MSND.                       0:  Run Mud Sand % 
 MSOL.                      17:  Run Mud Solids% 
 MTV .                GeoForce:  Motor Variant 
 DFV .spqt           50.000000:  Mud Viscosity 
 MWOD.in              6.900000:  MWD Tool OD 
 MWSI.                     Yes:  Serv Intrp, MWD 
 OTIM.hr             49.000000:  Time Operating 
 PMAX.psig        10491.233398:  Press Op, Max 
 PV  .cP             22.000000:  Mud PV 
 RMS .ohmm            0.022000:  Mud Resistivity 
 RMCS.ohmm            0.033000:  Mud Cake Resistivity 
 MCST.degF          212.000000:  Mud Cake Sample Temperature 
 RMFS.ohmm            0.020000:  Mud Filtrate Resistivity 
 RMFT.degF          212.000000:  Mud Filtrate Sample Temperature 
 RMMT.ohmm            0.018000:  Rm @ Max Temp 
 MST .degF          212.000000:  Mud Sample Temperature 
 RUN .                    4200:  Run Number 
 ROPA.fph            20.629999:  ROP Avg 
 ROPN.fph            20.000000:  ROP Min 
 ROPX.fph            31.250002:  ROP Max 
 RPMA.rpm            90.000000:  RPM Surface Avg 
 RPMN.rpm            90.000000:  RPM Surface Min 
 RPMX.rpm            90.000000:  RPM Surface Max 
 RRUN.                    4200:  Rig Run Number 
 RTIM.hr              8.500000:  Time Reaming 
 SAZI.deg           168.300003:  Azm, Start 
 SDEP.ft          14972.500000:  Start Depth 
 SIDD.                      No:  Serv Intrp, DD 
 SINC.deg             1.570000:  Inc, Start 
 SPPA.psig         3000.000000:  SPP Avg 
 SPPN.psig         3000.000000:  SPP Min 
 SPPX.psig         3000.000000:  SPP Max 
 STIM.      21.30.00 09-Aug-20:  Start Time 
 SVCS.                 DD, MWD:  Services 
 SVER.                9.200000:  Sperry Version 
 TDAT.ft            348.000000:  Tot Depth Attmp 
 TDDF.                      No:  Trip for DD 
 TDLG.ft            145.500000:  Tot Depth Loggd 
 TFF .                     Yes:  Trip for Fail 
 TQAA.f-p            22.000000:  Torque Abs Avg 
 TQAN.f-p            22.000000:  Torque Abs Min 
 TQAX.f-p            22.000000:  Torque Abs Max 
 TRRT.°/100'          1.010000:  Turn Rotating 
 MRT .                     AFR:  Maximum Recorded Temperature 
 TTMX.degF          260.000000:  Max Tool Temp 
 VS01.     AD90608221 H7V5WCOF1 (6):  Virtual Str1 SN 
 VS02.     90608207 R11GV2CO (6):  Virtual Str2 SN 
 WBMN.klb            15.000000:  WOB Min 
 WITN.         Ricardo Vasquez:  Customer Rep 
 WOBA.klb            17.500000:  WOB Avg 
 WOBX.klb            20.000000:  WOB Max 
 YP  .lhf2           35.000000:  Yield Point 
~Curve Information Block
#MNEM.UNIT                 API CODE     Curve Description
#---------               -----------    ---------------------------
 DEPT.F                 00 000 000 000:  Depth
 RPTVD.ft               00 000 000 000:  ROP True Vertical Depth
 ROPA.fph               00 000 000 000:  Avg Rate of Penetration
 DGRCC.api              00 000 000 000:  DGR Comb Gamma Ray BCorr
 ALHSI.in               00 000 000 000:  ALD Hole Size Indicator
 ABR .ohmm              00 000 000 000:  At-Bit Resistivity
 AFXT.hr                00 000 000 000:  AFR Form Exp Time
 RM  .ohmm              00 000 000 000:  AFR Medium Avg Res
 RS  .ohmm              00 000 000 000:  AFR Shallow Avg Res
 RD  .ohmm              00 000 000 000:  AFR Deep Avg Res
 TNPL.pu                00 000 000 000:  CTN Porosity Limestone
 ALCDLC.g/cc            00 000 000 000:  ALD LCRB Comp Density
 ALDCLC.g/cc            00 000 000 000:  ALD LCRB Den Correction
 ALPELC.                00 000 000 000:  ALD LCRB Pe Factor
#Other Information
#
#WARRANTY: Halliburton will use its best efforts to furnish customers with 
#accurate information and interpretations that are part of, and incident to, the services 
#provided.  However, Halliburton cannot and does not warrant the accuracy 
#or correctness of such information and interpretations.  Under no circumstances should any 
#such information or interpretation be relied upon as the sole basis for any drilling, 
#completion, production, or financial decision or any procedure involving any risk to the 
#safety of any drilling venture, drilling rig or its crew or any other third party.  The 
#Customer has full responsibility for all drilling, completion and production operation.  
#Halliburton makes no representations or warranties, either expressed or 
#implied, including, but not limited to, the implied warranties of merchantability or fitness 
#for a particular purpose, with respect to the services rendered.  In no event will 
#Halliburton be liable for failure to obtain any particular results or for 
#any damages, including, but not limited to, indirect, special or consequential damages, 
#resulting from the use of any information or interpretation provided by Halliburton.
#
~A    DEPT      RPTVD      ROPA      DGRCC     ALHSI      ABR      AFXT        RM        RS         RD       TNPL     ALCDLC    ALDCLC    ALPELC   
# ...
   16125.0000 14990.4902   15.7513   17.7578    8.3750 2126.4116    4.3050    72.6453   21.1322   146.7436    3.9096    2.8160   -0.0164    4.6169
   16125.5000 14990.9795   14.3581   16.5094    8.3756 2097.6548    4.3081    66.3229   19.3636   123.8767    3.5721    2.8293   -0.0124    4.7393
   16126.0000 14991.4385   12.8668   17.6111    8.3816 2076.3379    4.3087    48.8961   16.6690    84.9640    3.0761    2.8424   -0.0050    5.0456
   16126.5000 14991.9834   14.3060   16.8514    8.3804 2073.9177    4.3111    39.0844   15.6000    66.2460    3.0362    2.8620   -0.0042    4.9639
   16127.0000 14992.4785   15.5192   16.6140    8.3771 2071.2988    4.3114    36.8184   15.3820    65.3290    2.9731    2.8582   -0.0052    4.7178
   16127.5000 14992.9824   13.8936   16.0011    8.3750 2060.8865    4.3051    42.3698   16.8222    79.9029    3.0859    2.8588   -0.0073    4.5630
   16128.0000 14993.4834   11.9861   16.6071    8.3774 2039.3140    4.2952    57.4341   21.0890   110.7117    3.2461    2.8591   -0.0068    4.3915
   16128.5000 14994.0137    9.9690   19.4741    8.3780 1997.8778    4.2799    72.6039   25.1453   138.5045    3.2555    2.8512   -0.0080    4.3846
   16129.0000 14994.4717    7.2377   24.4468    8.3781 1951.8098    4.2128    75.9513   26.3418   144.0018    3.4351    2.8512   -0.0046    4.5026
   16129.5000 14994.8701    1.8901   26.2602    8.3875 1897.2848    3.9543    70.1273   25.8448   135.9885    3.5720    2.8521    0.0014    4.4834
   16130.0000 14995.4697    7.0001   22.8451    8.3954 1879.3651    3.6983    60.9068   24.7301   121.5736    3.8104    2.8501    0.0041    4.5028
   16130.5000 14995.9688   15.5288   21.4527    8.3823 1878.5109    3.6448    51.4736   24.3727   100.6467    3.8998    2.8426    0.0002    4.4613
   16131.0000 14996.4668   15.8775   19.8400    8.3760 1882.1174    3.6433    43.6287   22.2083    77.3639    3.6449    2.8403   -0.0041    4.3995
   16131.5000 14996.9668   15.8980   18.5982    8.3750 1885.5111    3.6435    52.5787   23.4561    85.3211    3.4524    2.8333   -0.0143    4.2507
   16132.0000 14997.5713   14.3208   20.6274    8.3751 1890.3152    3.6388    82.2215   29.8602   141.1290    3.3833    2.8440   -0.0110    4.4266
   16132.5000 14997.8965   10.8841   20.1062    8.3866 1891.8445    3.6143    83.0852   29.8755   166.6089    3.4416    2.8502   -0.0028    4.6817
   16133.0000 14998.4658    8.4484   17.7826    8.4012 1884.7239    3.5884    62.8001   24.9596   135.4797    3.6359    2.8529    0.0035    4.5841
   16133.5000 14998.9658   13.0559   18.3009    8.3773 1841.8839    3.5787    55.0875   23.4312   121.6465    3.6440    2.8375   -0.0103    4.5267
   16134.0000 14999.4639   14.9419   16.5274    8.3817 1778.8597    3.5734    52.5960   20.9763   104.2589    3.7734    2.8400   -0.0054    4.6818
   16134.5000 14999.9668   14.9369   18.0586    8.4000 1684.8478    3.5683    51.9774   18.8116    86.8762    3.8002    2.8402    0.0046    4.6395
   16135.0000 15000.4668   14.9736   19.8612    8.4017 1595.1000    3.5613    45.3679   16.0952    65.7360    3.8164    2.8358    0.0053    4.7915
   16135.5000 15000.9648   14.9401   19.6773    8.3926 1508.6139    3.5534    33.2645   13.0339    46.6596    3.6201    2.8440    0.0034    5.0517
   16136.0000 15001.4668   14.9541   17.9838    8.3946 1456.6376    3.5454    27.6889   12.3796    40.4385    3.5523    2.8523    0.0035    5.0937
   16136.5000 15001.9648   14.9178   17.2758    8.3797 1427.6483    3.5370    27.3037   12.7123    42.2900    3.6020    2.8466   -0.0020    4.6410
   16137.0000 15002.4648   14.9016   19.7285    8.3750 1396.8694    3.5296    38.5028   16.7515    61.5030    3.8124    2.8321   -0.0093    4.4042
   16137.5000 15002.9648   14.9403   17.3366    8.3750 1365.6223    3.5242    64.1028   26.0940   113.0536    3.7328    2.8282   -0.0134    4.2650
   16138.0000 15003.4629   14.9246   16.7019    8.3750 1340.2432    3.4979    79.9266   33.9549   164.5491    3.7787    2.8310   -0.0205    4.1562
   16138.5000 15003.9082   12.9577   15.4158    8.3750 1314.4384    3.3899    80.1528   38.9686   180.0998    3.6677    2.8381   -0.0185    4.2234
   16139.0000 15004.3975    2.2114   15.9124    8.3750 1262.2626    3.2839    68.3670   38.3604   155.1123    3.6186    2.8403   -0.0133    4.3007
   16139.5000 15005.0693   14.8537   17.2712    8.3751 1250.5991    3.2682    58.8090   35.7592   124.1543    3.7723    2.8307   -0.0109    4.4669
   16140.0000 15005.4727   23.8283   16.4414    8.3756 1247.8331    3.2741    58.2043   35.8299   111.0847    3.7281    2.8371   -0.0064    4.4758
   16140.5000 15005.9629   16.2599   16.3047    8.3760 1245.1217    3.2712    68.3372   39.9796   118.3912    3.6673    2.8355   -0.0056    4.6528
   16141.0000 15006.4629   14.9817   18.0029    8.3801 1243.6058    3.2659    76.1930   43.4317   126.3357    3.4142    2.8414   -0.0036    4.6166
   16141.5000 15006.9619   14.9678   16.2343    8.3756 1241.5432    3.2623    57.7820   34.1056    91.0653    3.2548    2.8439   -0.0147    4.6523
   16142.0000 15007.4600   14.9490   15.2621    8.3752 1237.6418    3.2623    57.5910   31.0035    82.9713    3.0116    2.8634   -0.0143    4.6497
   16142.5000 15007.9639   14.9726   14.8866    8.3761 1234.3282    3.2628    85.3700   36.6023   127.6482    3.2778    2.8669   -0.0115    4.4960
   16143.0000 15008.4619   14.9385   15.7084    8.3779 1231.4834    3.2624    93.7249   37.2993   167.6937    3.5590    2.8593   -0.0076    4.3623
   16143.5000 15008.9619   14.9378   17.5524    8.3774 1225.1450    3.2609    87.5600   34.5268   160.9424    3.7721    2.8464   -0.0061    4.4421
   16144.0000 15009.4600   14.9550   19.3455    8.3772 1215.7260    3.2562    89.0365   33.8624   163.0810    4.0203    2.8408   -0.0081    4.5648
   16144.5000 15009.9590   14.9368   19.4005    8.3797 1206.8666    3.2506    92.3790   31.8494   165.2128    3.8308    2.8459   -0.0047    4.5746
   16145.0000 15010.4609   14.9594   18.0285    8.3754 1201.3979    3.2442    87.5571   29.2401   151.7313    3.4506    2.8534   -0.0082    4.9545
   16145.5000 15010.9609   14.9423   17.8726    8.3827 1199.8634    3.2397    77.5428   28.8426   141.1309    3.1500    2.8764   -0.0033    4.9869
   16146.0000 15011.4609   14.9351   17.1210    8.3911 1198.8695    3.2434    70.3204   28.6741   125.6920    2.7557    2.8807    0.0011    4.6208
   16146.5000 15011.9590   14.9619   15.7147    8.3807 1200.5387    3.2500    75.6495   29.7435   127.6623    2.6394    2.8720   -0.0039    4.2476
   16147.0000 15012.4570   15.0684   17.0911    8.3772 1200.9517    3.2537    94.4144   33.9719   168.5038    2.9455    2.8603   -0.0033    4.3822
   16147.5000 15012.9521   15.4369   18.7286    8.3751 1202.6372    3.2567   110.0291   37.4017   221.8385    3.2958    2.8463   -0.0105    4.3070
   16148.0000 15013.4639   16.1299   17.8671    8.3750 1201.8981    3.2579   117.4911   37.3821   238.8031    3.2182    2.8491   -0.0124    4.5348
   16148.5000 15013.9600   16.3420   19.0316    8.3750 1198.6626    3.2570   117.6083   35.3337   226.7649    3.1289    2.8516   -0.0166    4.3917
   16149.0000 15014.4600   15.9749   18.2762    8.3750 1193.8538    3.2545   114.2451   32.7121   205.4452    3.1848    2.8551   -0.0149    4.2527
   16149.5000 15014.9590   15.7372   20.2397    8.3750 1189.4872    3.2509   108.6146   30.5868   176.6646    3.2657    2.8559   -0.0125    4.6189
   16150.0000 15015.4580   15.6678   20.4592    8.3754 1186.9329    3.2476    99.0379   29.2673   152.7613    3.2527    2.8574   -0.0069    4.5239
   16150.5000 15015.9590   15.7273   17.8422    8.3753 1195.6240    3.2471    95.4620   29.8053   148.3274    2.9973    2.8601   -0.0067    4.5795
   16151.0000 15016.4590   15.7546   17.7156    8.3750 1215.9150    3.2494   100.4061   33.4428   160.2705    2.8610    2.8606   -0.0120    4.5709
   16151.5000 15016.9580   15.7373   18.7320    8.3750 1225.1262    3.2519   109.6288   40.6537   185.5884    2.8225    2.8622   -0.0133    4.3196
   16152.0000 15017.4590   15.7788   17.0123    8.3750 1228.6018    3.2541   136.3118   54.6396   259.9426    2.7540    2.8663   -0.0066    4.4924
