~Version Information
 VERS.                  2.0:   CWLS log ASCII Standard -VERSION 2.0
 WRAP.                   NO:   One line per depth step
~Well Information Block
#MNEM.UNIT     VALUE/NAME     DESCRIPTION
#---------     -----------    ---------------------------
 STRT.F             10112.0000: START DEPTH
 STOP.F             11135.0000: STOP DEPTH
 STEP.F                 0.5000: STEP DEPTH
 NULL.               -999.2500: NULL VALUE
 UNIT.                12318515:  LOGGING EQUIPMENT ID
 CNTY.             HAIR DALMAH:  COUNTY NAME
 JOBN.        AD-XX-0905995035:  JOB TICKET NUMB
 FLD .             HAIR DALMAH:  FIELD NAME
 PDAT.          Mean Sea Level:  PERMANENT DATUM
 RIG .                     PN8:  RIG NAME
 MWDS.                    ICAD:  MWD SHOP
 CTRY.     United Arab Emirates:  COUNTRY NAME
 REGN.     Middle East/North Africa:  REGION
 BASE.               Abu Dhabi:  LOGGING EQUIPMENT BASE LOCATION
 WTYP.                Deviated:  WELL TYPE
 XYGR.     UTM Zones, Northern Hemisphere, Meters:  XYGROUP
 LLGR.      Latitude/Longitude:  LLGROUP
 MDS .              Win MagUTM:  MAG DATA SOURCE
 MMDD.       05 December, 2019:  MAG DATA DATE
 MMDL.            bggm2019.dat:  MAGNETIC MODEL
 CREF.     Ellipsoid Clarke - 1880:  CART REFERENCE
 GREF.     Ellipsoid World Geodetic System :  GEO REFERENCE
 CGSY.               SS CLRK51:  CART GRID SYS
 GGSY.                      LL:  GEO GRID SYS
 CCDE.     UTM Clarke 1880 (CM 51), Meters:  CART COORD DESC
 GCDE.     Generic Lat/Long's, Degrees, -180 ==> +180:  GEO COORD DESC
 SON .        AD-XX-0905995035:  JOB NUMBER
 COMP.          ADNOC Offshore:  COMPANY
 WELL.               HD011-02D:  WELL NAME
 FTOP.          Formation Tops:  FORM TOPS DESC
 ILTD.               Lithology:  INTERP LTH DESC
 SVYD.                  Survey:  SURVEY DESC
 DMOD.             Drill Model:  DRILL MOD DESC
 HPTY.       Minimum Curvature:  HOLE POS TYPE
 NREF.                    Grid:  NORTH REFERENCE
 SPUD.               17-Feb-20:  SPUD DATE
 DATE.      06.00.00 09-Apr-20:  END TIME
 STIM.      11.40.00 06-Apr-20:  START TIME
 DMF .             Drill Floor:  DRILL MEAS FROM
 DFST.                        :  DIST FSL TEXT
 DFWT.                        :  DIST FWL TEXT
 PROV.               Abu Dhabi:  PROVINCE
 STAT.               Abu Dhabi:  STATE NAME
 API .                        :  API NUMBER
 SRVC.             Halliburton:  SERVICE COMPANY
 UWI .                        :  UNIQUE WELL IDENTIFIER
 LOC .                        :  LOCATION
 LMF .             Drill Floor:  LOG MEASURED FROM
 DEP .ft              0.000000:  DEPTH
 AGAP.ft            118.000000:  AIR GAP
 CMER.deg            51.000000:  CENTRL MERIDIAN
 MMDE.ft              0.000000:  MAGUTM CALC DEP
 APD .ft            118.000000:  DEPTH ABOVE PD
 WDMS.ft             65.000000:  WD ELEV
 EGL .ft              0.000000:  GROUND ELEVATION
 EPD .ft              0.000000:  ELEVATION
 AZTC.deg             1.750428:  AZM TOTAL CORR
 GRDC.deg             0.592532:  GRID CORRECTION
 MDEC.deg             2.342959:  MAGNETIC DECL
 MDIP.deg            38.394272:  MAGNETIC DIP
 MFLD.nT          43612.476563:  MAGNETIC FIELD
 GVFD.g               1.000000:  GRAVITY FIELD
 VSDR.deg            91.860001:  VERT SEC DIRECT
 TDD .ft          11135.000000:  TOTAL DEPTH (DRILLER)
 SDEP.ft          10171.000000:  START DEPTH
 DFSL.ft              0.000000:  DISTANCE FSL
 DFWL.ft              0.000000:  DISTANCE FWL
 UTMY.m         2710911.810000:  UTM Y
 UTMX.m          644702.250000:  UTM X
 WHEW.ft              0.000000:  WELL HEAD E/W
 WHNS.ft              0.000000:  WELL HEAD N/S
 LONG.deg            52.428197:  LONGITUDE
 LATI.deg            24.507246:  LATITUDE
 TVDS.ft            118.000000:  TVDSS CORRECTN
 EKB .ft            118.000000:  KB ELEVATION
 EDF .ft            118.000000:  DF ELEVATION
 MAGU.                 1512580:  MAGUTM CHECKSUM
 VSC .                       0:  VS TO CLOSURE
~Parameter Information Block
#MNEM.UNIT       Value        Description
#---------     -----------    ---------------------------
 AV  .fpm             1.000000:  Ann Velocity 
 AVMX.fpm             1.000000:  Max Ann Veloc 
 AZIF.deg            83.830002:  Azm, Final 
 BHAT.               Mud Motor:  BHA Type 
 BS  .in             14.500000:  Bit Size 
 BSZ .in             14.500000:  Bit Size 
 BTPL.psig            1.000000:  Bit Press Loss 
 CABU.                      No:  Customer Abuse 
 CGEO.             Carey Mills:  Customer Geo 
 COMM.                     t i:  Run Comments 1 
 TCS .hr             83.600342:  Time Ciculation Ended 
 CV  .fpm             1.000000:  Crit Velocity 
 CVMX.fpm             1.000000:  Max Crit Veloc 
 DD1 .          Devinder Kumar:  Direct Drillr 1 
 DD2 .     Mohamed Gayed Barakat:  Direct Drillr 2 
 DDSV.               Mud Motor:  DD Service 
 DEFF.%              90.000000:  % Det Eff 
 DRET.      06.15.00 04-Apr-20:  Drill End Time 
 DRST.      13.57.20 31-Mar-20:  Drill Start Tim 
 DTIM.hr             56.449772:  Time Drilling 
 EDEP.ft          10171.000000:  End Depth 
 ENG1.           Denis Sobolev:  Engineer 1 
 ENG2.            Imad Youssef:  Engineer 2 
 ETIM.      23.30.00 06-Apr-20:  End Time 
 FLOI.gpm           999.999939:  Flow In 
 FLON.gpm           964.999939:  Flow In Min 
 FLOS.mptm            2.600000:  Fluid Loss 
 FLOX.gpm          1100.000000:  Flow In Max 
 DFT .                 Polymer:  Mud Type 
 HFLO.                      No:  High Flow 
 HPRE.                      No:  High Pressure 
 HTEM.                      No:  High Temp 
 HYDO.ft              0.000000:  Hydro Offset 
 IFIN.deg            26.030001:  Inc, Final 
 IMAX.deg            26.559999:  Inc Max 
 IMIN.deg            24.139999:  Inc Min 
 IMND.ft           9477.000000:  Inc Min Depth 
 IMXD.ft           9942.000000:  Inc Max Depth 
 JARR.                      No:  Jarring 
 LETM.      23.30.00 06-Apr-20:  Log End Time 
 LOST.hr                     0:  Lost Rig Time 
 LSTM.      13.57.20 31-Mar-20:  Log Start Time 
 MDCL.ppm        150000.000000:  Mud Chlorides 
 MDES.             Fresh Water:  Mud Desc 
 DFD .ppg            12.000000:  Mud Density 
 MDMN.ppg            12.000000:  Dens Mud Min 
 MDMX.ppg            12.000000:  Dens Mud Max 
 PH  .pH             10.300000:  Mud pH 
 MOIL.                      19:  Run Mud Oil % 
 MOWR.                   19 81:  Run Mud OWR 
 MSND.                       0:  Run Mud Sand % 
 MSOL.                      19:  Run Mud Solids% 
 MTV .                GeoForce:  Motor Variant 
 DFV .spqt           51.000000:  Mud Viscosity 
 MWOD.in              8.150000:  MWD Tool OD 
 MWSI.                      No:  Serv Intrp, MWD 
 OTIM.hr            106.542305:  Time Operating 
 PMAX.psig         6850.255859:  Press Op, Max 
 PV  .cP             21.000000:  Mud PV 
 RMS .ohmm            0.039000:  Mud Resistivity 
 RMCS.ohmm            0.059000:  Mud Cake Resistivity 
 MCST.degF           80.000000:  Mud Cake Sample Temperature 
 RMFS.ohmm            0.030000:  Mud Filtrate Resistivity 
 RMFT.degF           80.000000:  Mud Filtrate Sample Temperature 
 RMMT.ohmm            0.018000:  Rm @ Max Temp 
 MST .degF           80.000000:  Mud Sample Temperature 
 RUN .                    2300:  Run Number 
 RRUN.                    2300:  Rig Run Number 
 SAZI.deg           101.400002:  Azm, Start 
 SDEP.ft           9467.000000:  Start Depth 
 SIDD.                      No:  Serv Intrp, DD 
 SINC.deg            24.139999:  Inc, Start 
 STIM.      13.57.20 31-Mar-20:  Start Time 
 SVER.                9.200000:  Sperry Version 
 TDAT.ft            704.000000:  Tot Depth Attmp 
 TDDF.                      No:  Trip for DD 
 TDLG.ft            704.000000:  Tot Depth Loggd 
 TFF .                      No:  Trip for Fail 
 MRT .                     PWD:  Maximum Recorded Temperature 
 TTMX.degF          181.000000:  Max Tool Temp 
 VS01.           F1(8)90603244:  Virtual Str1 SN 
 VS02.     H2V5WGV2R(8)90604159:  Virtual Str2 SN 
 WITN.     Mohamed Sharaf el Din:  Customer Rep 
 YP  .lhf2           29.000000:  Yield Point 
~Curve Information Block
#MNEM.UNIT                 API CODE     Curve Description
#---------               -----------    ---------------------------
 DEPT.F                 00 000 000 000:  Depth
 RPTVD.ft               00 000 000 000:  ROP True Vertical Depth
 ROPA.fph               00 000 000 000:  Avg Rate of Penetration
 DGRCC.api              00 000 000 000:  DGR Comb Gamma Ray BCorr
 EWXT.hr                00 000 000 000:  EWR Formation Exp Time
 R15P.ohmm              00 000 000 000:  EWR Shallow Phase Res
 R15A.ohmm              00 000 000 000:  EWR Shallow Atten Res
 R27P.ohmm              00 000 000 000:  EWR Medium Phase Res
 R27A.ohmm              00 000 000 000:  EWR Medium Atten Res
 R39P.ohmm              00 000 000 000:  EWR Deep Phase Res
 R39A.ohmm              00 000 000 000:  EWR Deep Atten Res
 ABR .ohmm              00 000 000 000:  At-Bit Resistivity
 AFRSA.ohmm             00 000 000 000:  AFR Shallow Avg Res
 AFRDA.ohmm             00 000 000 000:  AFR Deep Avg Res
 AFXT.hr                00 000 000 000:  AFR Form Exp Time
#Other Information
#
#WARRANTY: Halliburton will use its best efforts to furnish customers with 
#accurate information and interpretations that are part of, and incident to, the services 
#provided.  However, Halliburton cannot and does not warrant the accuracy 
#or correctness of such information and interpretations.  Under no circumstances should any 
#such information or interpretation be relied upon as the sole basis for any drilling, 
#completion, production, or financial decision or any procedure involving any risk to the 
#safety of any drilling venture, drilling rig or its crew or any other third party.  The 
#Customer has full responsibility for all drilling, completion and production operation.  
#Halliburton makes no representations or warranties, either expressed or 
#implied, including, but not limited to, the implied warranties of merchantability or fitness 
#for a particular purpose, with respect to the services rendered.  In no event will 
#Halliburton be liable for failure to obtain any particular results or for 
#any damages, including, but not limited to, indirect, special or consequential damages, 
#resulting from the use of any information or interpretation provided by Halliburton.
#
~A    DEPT      RPTVD      ROPA      DGRCC     EWXT      R15P      R15A      R27P      R27A      R39P      R39A       ABR       AFRSA      AFRDA      AFXT    
# ...
   10877.0000  9888.9170   40.8207   11.8608    1.7729   25.2860   15.5779   61.1490  200.0000  309.6666  200.0000   131.5910    46.4740    62.4386    1.5387
   10877.5000  9889.3691   43.2115   12.7733    1.7747   26.9377   15.4464   73.1361  200.0000  848.2079  200.0000   130.2741    78.6538   105.9976    1.5367
   10878.0000  9889.8027   43.8851   12.5604    1.7768   33.5083   11.7404  122.0214  200.0000 1785.1638  200.0000   129.2507   128.3487   190.0824    1.5348
   10878.5000  9890.2461   43.9237   12.3593    1.7777   37.7642   12.7815  132.1598  200.0000 1783.8660  200.0000   128.4039   183.1032   299.9590    1.5327
   10879.0000  9890.6621   43.9093   12.6601    1.7795   33.4404   14.1875  103.5025  200.0000 1254.1028  200.0000   127.6944   169.5845   329.6728    1.5302
   10879.5000  9891.1055   43.8823   11.0213    1.7806   36.3265   11.7683  116.6488  200.0000 1262.6539  200.0000   127.2425   100.4859   225.9104    1.5272
   10880.0000  9891.5420   43.8540   11.9030    1.7805   42.8196   10.3526  151.6039  200.0000 1792.0305  200.0000   126.9609    67.6714   157.4297    1.5236
   10880.5000  9892.0010   42.7873   11.8887    1.7774   37.0931   11.6051  131.1324  200.0000 2000.0000  200.0000   127.0639    55.2659   123.0416    1.5184
   10881.0000  9892.4004   37.2972   13.5263    1.7735   31.4960   14.3930  111.7079  200.0000 2000.0000  200.0000   127.4131    48.6837   102.0480    1.5125
   10881.5000  9892.8408   34.6637   12.9450    1.7696   38.8009   14.2790  137.7445  200.0000 1963.4395  200.0000   127.7705    43.6993    86.6695    1.5072
   10882.0000  9893.2930   38.1634   13.1623    1.7660   36.3689   11.7376  119.8053  200.0000 1520.5088  200.0000   128.0896    39.2236    73.7785    1.5022
   10882.5000  9893.7119   39.0295   11.3304    1.7625   31.7169   10.1474  109.6744  200.0000 1679.8215  200.0000   127.8258    38.3001    70.0104    1.4974
   10883.0000  9894.1523   39.0625   11.1570    1.7589   28.6664   11.0549   87.5757  200.0000 1143.3428  200.0000   127.8125    39.7382    75.1436    1.4921
   10883.5000  9894.5947   38.9992   10.7863    1.7555   31.7046   10.0298  119.5892  200.0000 1770.3690  200.0000   130.0118    41.3085    88.1092    1.4868
   10884.0000  9895.0107   39.1230   11.7360    1.7525   33.7468   10.5286  125.4020  200.0000 2000.0000  200.0000   133.6416    46.1602   111.5047    1.4823
   10884.5000  9895.4473   41.7373   12.0139    1.7527   32.7717   12.5706  135.5553  200.0000 2000.0000  200.0000   135.9416    52.8159   134.2484    1.4800
   10885.0000  9895.8838   46.8695   10.8939    1.7539   40.6021   11.2688  177.0056  200.0000 2000.0000  200.0000   136.4908    56.3228   140.6795    1.4806
   10885.5000  9896.3330   50.3092   10.9805    1.7580   37.4487   12.4749  142.2297  200.0000 1954.1564  200.0000   136.1541    56.3767   133.3211    1.4827
   10886.0000  9896.7646   50.9918   11.6014    1.7632   33.4726   14.8207  100.0428  200.0000 1699.4706  200.0000   135.6082    55.5525   125.4082    1.4849
   10886.5000  9897.1973   52.3532   11.4240    1.7683   32.2980   12.8725  103.6166  200.0000 1958.4551  200.0000   135.8065    50.7475   112.9276    1.4868
   10887.0000  9897.6396   53.6206   10.2801    1.7725   35.9083   11.8211  102.1009  200.0000 1870.6898  200.0000   136.2632    43.4074    97.5435    1.4884
   10887.5000  9898.0605   52.1643   12.5586    1.7753   31.1348   11.6950   81.3600  200.0000  926.4318  200.0000   137.9053    37.7481    86.6299    1.4895
   10888.0000  9898.5059   48.8313   10.7242    1.7776   27.1504   13.0128   76.6336  200.0000  714.4772  200.0000   138.8618    33.5352    75.6025    1.4912
   10888.5000  9898.9443   47.3528    8.8814    1.7801   26.7598   19.4755   73.2070  200.0000 1105.4531  200.0000   137.3747    31.4401    69.1140    1.4928
   10889.0000  9899.3809   48.2741   10.8559    1.7825   27.2088   12.8462   69.6177  200.0000  666.8483  200.0000   134.5138    30.6897    68.9561    1.4955
   10889.5000  9899.8037   49.1910    9.1824    1.7853   26.2841   11.5359   68.4436  200.0000  391.4883  200.0000   132.4682    29.0031    68.7439    1.4981
   10890.0000  9900.2373   49.3991   12.2129    1.7881   25.0585   12.3659   62.5363  200.0000  309.3796  200.0000   132.8792    26.1638    63.7641    1.5023
   10890.5000  9900.6826   49.5097    9.4338    1.7908   22.7232   13.3598   52.9098  200.0000  197.7648  200.0000   134.1295    23.2476    58.4433    1.5043
   10891.0000  9901.1025   51.0721   10.3369    1.7937   21.1684   15.0471   53.5734  200.0000  234.1183  200.0000   135.0898    20.4648    53.1486    1.5080
   10891.5000  9901.5449   54.6975   10.1299    1.7974   21.1124   11.7956   59.3433  200.0000  286.6359  200.0000   133.4045    18.5608    47.8141    1.5118
   10892.0000  9901.9873   57.2073   11.2851    1.8013   21.8778    9.9869   65.7137  200.0000  297.2653  200.0000   130.1063    18.4111    45.2011    1.5153
   10892.5000  9902.4189   57.3852   11.9592    1.8056   19.9713   11.4934   57.9406  200.0000  258.2785  200.0000   128.0137    19.2289    42.9183    1.5173
   10893.0000  9902.8535   58.4850   11.8030    1.8099   19.5669   13.3671   48.6760  200.0000  202.9032  200.0000   127.5806    18.9192    37.6663    1.5190
   10893.5000  9903.2793   61.4799   12.0153    1.8147   19.5933   11.2145   50.5729  200.0000  165.5618  200.0000   127.4682    18.9116    36.0065    1.5205
   10894.0000  9903.7285   63.9080   10.2169    1.8196   23.3364    8.3021   71.7384  200.0000  296.1389  200.0000   127.0755    19.9923    39.5204    1.5220
   10894.5000  9904.1729   64.2041   12.7047    1.8245   25.8853    8.6533   86.7883  200.0000  625.3902  200.0000   126.5408    22.7212    48.2399    1.5235
   10895.0000  9904.6025   64.1601   12.0406    1.8292   25.2990   10.8303   85.5748  200.0000 1350.8267  200.0000   126.2148    29.4737    66.7895    1.5248
   10895.5000  9905.0420   63.8380   10.8891    1.8337   27.1911   12.5946   74.3907  200.0000  646.3766  200.0000   125.9807    36.6604    84.8277    1.5258
   10896.0000  9905.4922   59.7740   11.1782    1.8377   29.1733   10.4138   65.4109  200.0000  234.0043  200.0000   125.6261    36.4515    82.2418    1.5264
   10896.5000  9905.8887   51.5169   12.8071    1.8400   29.3316   10.6419   55.0859  200.0000  171.6881  200.0000   125.3797    34.5827    75.1196    1.5266
   10897.0000  9906.3408   47.6400   11.7611    1.8421   25.2053   12.8234   48.9771  200.0000  159.0165  200.0000   124.3738    35.2299    75.8820    1.5272
   10897.5000  9906.7783   48.9242   10.2228    1.8445   22.8991   13.3964   46.0360  200.0000  134.0578  200.0000   122.7027    32.1964    67.6050    1.5303
   10898.0000  9907.2012   49.3233   10.6179    1.8471   22.7265   10.3345   47.4216  200.0000  112.6020  200.0000   121.0263    25.1087    48.1163    1.5356
   10898.5000  9907.6475   49.3423   10.6284    1.8496   22.8341    8.8716   49.8585  200.0000  129.3213  200.0000   119.6955    20.4937    34.9477    1.5399
   10899.0000  9908.0752   49.3767   11.4915    1.8521   21.6998   10.4880   50.8712  200.0000  168.0509  200.0000   118.9930    19.5473    31.4155    1.5439
   10899.5000  9908.5049   49.2566   13.5833    1.8547   24.1787   11.7123   53.5919  200.0000  205.3156  200.0000   118.5593    23.7852    39.6056    1.5467
   10900.0000  9908.9375   49.5906   11.0249    1.8572   27.4247    9.6631   60.7465  200.0000  226.6152  200.0000   117.6319    32.1898    58.8667    1.5495
   10900.5000  9909.3877   52.4051   10.3545    1.8604   28.0626    9.7358   62.9373  200.0000  229.9202  200.0000   116.5202    36.1354    67.8341    1.5533
   10901.0000  9909.8477   50.6049   12.4584    1.8630   28.2032   11.4774   58.0498  200.0000  215.4861  200.0000   115.4161    36.8383    65.3917    1.5564
   10901.5000  9910.2480   42.1195   11.7518    1.8622   26.1679   11.3252   52.1974  200.0000  168.3136  200.0000   114.5809    38.9595    65.5030    1.5566
   10902.0000  9910.6631   41.6082    9.4502    1.8610   21.1681   11.0121   39.2042  200.0000  102.3623  200.0000   114.0459    40.0308    65.6498    1.5566
