~Version Information
 VERS.                  2.0:   CWLS log ASCII Standard -VERSION 2.0
 WRAP.                   NO:   One line per depth step
~Well Information Block
#MNEM.UNIT     VALUE/NAME     DESCRIPTION
#---------     -----------    ---------------------------
 STRT.F             14200.0000: START DEPTH
 STOP.F             16770.0000: STOP DEPTH
 STEP.F                 0.5000: STEP DEPTH
 NULL.               -999.2500: NULL VALUE
 UNIT.                12318515:  LOGGING EQUIPMENT ID
 CNTY.             HAIR DALMAH:  COUNTY NAME
 JOBN.        AD-XX-0905995035:  JOB TICKET NUMB
 FLD .             HAIR DALMAH:  FIELD NAME
 PDAT.          Mean Sea Level:  PERMANENT DATUM
 RIG .                     PN8:  RIG NAME
 MWDS.                    ICAD:  MWD SHOP
 CTRY.     United Arab Emirates:  COUNTRY NAME
 REGN.     Middle East/North Africa:  REGION
 BASE.               Abu Dhabi:  LOGGING EQUIPMENT BASE LOCATION
 WTYP.                Vertical:  WELL TYPE
 XYGR.     UTM Zones, Northern Hemisphere, Meters:  XYGROUP
 LLGR.      Latitude/Longitude:  LLGROUP
 MDS .              Win MagUTM:  MAG DATA SOURCE
 MMDD.       05 December, 2019:  MAG DATA DATE
 MMDL.            bggm2019.dat:  MAGNETIC MODEL
 CREF.     Ellipsoid Clarke - 1880:  CART REFERENCE
 GREF.     Ellipsoid World Geodetic System :  GEO REFERENCE
 CGSY.               SS CLRK51:  CART GRID SYS
 GGSY.                      LL:  GEO GRID SYS
 CCDE.     UTM Clarke 1880 (CM 51), Meters:  CART COORD DESC
 GCDE.     Generic Lat/Long's, Degrees, -180 ==> +180:  GEO COORD DESC
 SON .        AD-XX-0905995035:  JOB NUMBER
 COMP.          ADNOC Offshore:  COMPANY
 WELL.               HD011-02D:  WELL NAME
 FTOP.          Formation Tops:  FORM TOPS DESC
 ILTD.               Lithology:  INTERP LTH DESC
 SVYD.                  Survey:  SURVEY DESC
 DMOD.             Drill Model:  DRILL MOD DESC
 HPTY.       Minimum Curvature:  HOLE POS TYPE
 NREF.                    Grid:  NORTH REFERENCE
 SPUD.               17-Feb-20:  SPUD DATE
 DATE.      21.00.00 29-Aug-20:  END TIME
 STIM.      12.00.00 26-Jul-20:  START TIME
 DMF .             Drill Floor:  DRILL MEAS FROM
 DFST.                        :  DIST FSL TEXT
 DFWT.                        :  DIST FWL TEXT
 PROV.               Abu Dhabi:  PROVINCE
 STAT.               Abu Dhabi:  STATE NAME
 API .                        :  API NUMBER
 SRVC.             Halliburton:  SERVICE COMPANY
 UWI .                        :  UNIQUE WELL IDENTIFIER
 LOC .                        :  LOCATION
 LMF .             Drill Floor:  LOG MEASURED FROM
 DEP .ft              0.000000:  DEPTH
 AGAP.ft            118.000000:  AIR GAP
 CMER.deg            51.000000:  CENTRL MERIDIAN
 MMDE.ft              0.000000:  MAGUTM CALC DEP
 APD .ft            118.000000:  DEPTH ABOVE PD
 WDMS.ft             65.000000:  WD ELEV
 EGL .ft              0.000000:  GROUND ELEVATION
 EPD .ft              0.000000:  ELEVATION
 AZTC.deg             1.750428:  AZM TOTAL CORR
 GRDC.deg             0.592532:  GRID CORRECTION
 MDEC.deg             2.342959:  MAGNETIC DECL
 MDIP.deg            38.394272:  MAGNETIC DIP
 MFLD.nT          43612.476563:  MAGNETIC FIELD
 GVFD.g               1.000000:  GRAVITY FIELD
 VSDR.deg            91.860001:  VERT SEC DIRECT
 TDD .ft          16770.000000:  TOTAL DEPTH (DRILLER)
 SDEP.ft          14436.000000:  START DEPTH
 DFSL.ft              0.000000:  DISTANCE FSL
 DFWL.ft              0.000000:  DISTANCE FWL
 UTMY.m         2710911.810000:  UTM Y
 UTMX.m          644702.250000:  UTM X
 WHEW.ft              0.000000:  WELL HEAD E/W
 WHNS.ft              0.000000:  WELL HEAD N/S
 LONG.deg            52.428197:  LONGITUDE
 LATI.deg            24.507246:  LATITUDE
 TVDS.ft            118.000000:  TVDSS CORRECTN
 EKB .ft            118.000000:  KB ELEVATION
 EDF .ft            118.000000:  DF ELEVATION
 MAGU.                 1512580:  MAGUTM CHECKSUM
 VSC .                       0:  VS TO CLOSURE
~Parameter Information Block
#MNEM.UNIT       Value        Description
#---------     -----------    ---------------------------
 AV  .fpm           484.999969:  Ann Velocity 
 AVMX.fpm           969.999939:  Max Ann Veloc 
 AZIF.deg           166.490005:  Azm, Final 
 BHAT.               Mud Motor:  BHA Type 
 BROT.°/100'          0.030000:  Build Rotating 
 BS  .in              8.375000:  Bit Size 
 BSZ .in              8.375000:  Bit Size 
 BTPL.psig          415.000000:  Bit Press Loss 
 CABU.                      No:  Customer Abuse 
 CGEO.             Carey Mills:  Customer Geo 
 COMM.                     ÜhT:  Run Comments 1 
 TCS .hr             21.141129:  Time Ciculation Ended 
 CV  .fpm           564.000000:  Crit Velocity 
 CVMX.fpm           702.000000:  Max Crit Veloc 
 DD1 .     Mohamed Gayed Barakat:  Direct Drillr 1 
 DDSV.               Mud Motor:  DD Service 
 DEFF.%              98.000000:  % Det Eff 
 DLRX.°/100'          0.100000:  Dogleg Rot Max 
 DLSO.°/100'          0.070000:  Dogleg Oriented 
 DLSX.°/100'          0.100000:  Dogleg Str Max 
 DRET.      23.59.00 10-Aug-20:  Drill End Time 
 DRST.      15.30.00 10-Aug-20:  Drill Start Tim 
 DTIM.hr              4.412436:  Time Drilling 
 EDEP.ft          15118.000000:  End Depth 
 ENG1.             Ahmed Aleem:  Engineer 1 
 ETIM.      16.00.00 11-Aug-20:  End Time 
 FLOI.gpm           550.000000:  Flow In 
 FLON.gpm           499.999969:  Flow In Min 
 FLOS.mptm            3.000000:  Fluid Loss 
 FLOX.gpm           550.000000:  Flow In Max 
 DFT .                 Polymer:  Mud Type 
 HFLO.                      No:  High Flow 
 HPRE.                      No:  High Pressure 
 HTEM.                      No:  High Temp 
 HYDO.ft              0.000000:  Hydro Offset 
 IFIN.deg             1.530000:  Inc, Final 
 IMAX.deg             1.590000:  Inc Max 
 IMIN.deg             1.560000:  Inc Min 
 IMND.ft          14992.000000:  Inc Min Depth 
 IMXD.ft          14895.000000:  Inc Max Depth 
 JARR.                      No:  Jarring 
 LETM.      23.59.00 10-Aug-20:  Log End Time 
 LOST.hr                    42:  Lost Rig Time 
 LSTM.      11.00.00 10-Aug-20:  Log Start Time 
 MDCL.ppm        140000.000000:  Mud Chlorides 
 MDES.             Fresh Water:  Mud Desc 
 DFD .ppg            12.000000:  Mud Density 
 MDMN.ppg            12.000000:  Dens Mud Min 
 MDMX.ppg            12.000000:  Dens Mud Max 
 PH  .pH             10.000000:  Mud pH 
 MOWR.                    0 83:  Run Mud OWR 
 MSND.                       0:  Run Mud Sand % 
 MSOL.                      17:  Run Mud Solids% 
 MTV .                GeoForce:  Motor Variant 
 DFV .spqt           50.000000:  Mud Viscosity 
 MWOD.in              6.900000:  MWD Tool OD 
 MWSI.                     Yes:  Serv Intrp, MWD 
 OTIM.hr             49.000000:  Time Operating 
 PMAX.psig        10491.233398:  Press Op, Max 
 PV  .cP             22.000000:  Mud PV 
 RMS .ohmm            0.022000:  Mud Resistivity 
 RMCS.ohmm            0.033000:  Mud Cake Resistivity 
 MCST.degF          212.000000:  Mud Cake Sample Temperature 
 RMFS.ohmm            0.020000:  Mud Filtrate Resistivity 
 RMFT.degF          212.000000:  Mud Filtrate Sample Temperature 
 RMMT.ohmm            0.018000:  Rm @ Max Temp 
 MST .degF          212.000000:  Mud Sample Temperature 
 RUN .                    4200:  Run Number 
 ROPA.fph            20.629999:  ROP Avg 
 ROPN.fph            20.000000:  ROP Min 
 ROPX.fph            31.250002:  ROP Max 
 RPMA.rpm            90.000000:  RPM Surface Avg 
 RPMN.rpm            90.000000:  RPM Surface Min 
 RPMX.rpm            90.000000:  RPM Surface Max 
 RRUN.                    4200:  Rig Run Number 
 RTIM.hr              8.500000:  Time Reaming 
 SAZI.deg           168.300003:  Azm, Start 
 SDEP.ft          14972.500000:  Start Depth 
 SIDD.                      No:  Serv Intrp, DD 
 SINC.deg             1.570000:  Inc, Start 
 SPPA.psig         3000.000000:  SPP Avg 
 SPPN.psig         3000.000000:  SPP Min 
 SPPX.psig         3000.000000:  SPP Max 
 STIM.      21.30.00 09-Aug-20:  Start Time 
 SVCS.                 DD, MWD:  Services 
 SVER.                9.200000:  Sperry Version 
 TDAT.ft            348.000000:  Tot Depth Attmp 
 TDDF.                      No:  Trip for DD 
 TDLG.ft            145.500000:  Tot Depth Loggd 
 TFF .                     Yes:  Trip for Fail 
 TQAA.f-p            22.000000:  Torque Abs Avg 
 TQAN.f-p            22.000000:  Torque Abs Min 
 TQAX.f-p            22.000000:  Torque Abs Max 
 TRRT.°/100'          1.010000:  Turn Rotating 
 MRT .                     AFR:  Maximum Recorded Temperature 
 TTMX.degF          260.000000:  Max Tool Temp 
 VS01.     AD90608221 H7V5WCOF1 (6):  Virtual Str1 SN 
 VS02.     90608207 R11GV2CO (6):  Virtual Str2 SN 
 WBMN.klb            15.000000:  WOB Min 
 WITN.         Ricardo Vasquez:  Customer Rep 
 WOBA.klb            17.500000:  WOB Avg 
 WOBX.klb            20.000000:  WOB Max 
 YP  .lhf2           35.000000:  Yield Point 
~Curve Information Block
#MNEM.UNIT                 API CODE     Curve Description
#---------               -----------    ---------------------------
 DEPT.F                 00 000 000 000:  Depth
 RPTVD.ft               00 000 000 000:  ROP True Vertical Depth
 ROPA.fph               00 000 000 000:  Avg Rate of Penetration
 DGRCC.api              00 000 000 000:  DGR Comb Gamma Ray BCorr
 ALHSI.in               00 000 000 000:  ALD Hole Size Indicator
 ABR .ohmm              00 000 000 000:  At-Bit Resistivity
 AFXT.hr                00 000 000 000:  AFR Form Exp Time
 RM  .ohmm              00 000 000 000:  AFR Medium Avg Res
 RS  .ohmm              00 000 000 000:  AFR Shallow Avg Res
 RD  .ohmm              00 000 000 000:  AFR Deep Avg Res
 TNPL.pu                00 000 000 000:  CTN Porosity Limestone
 ALCDLC.g/cc            00 000 000 000:  ALD LCRB Comp Density
 ALDCLC.g/cc            00 000 000 000:  ALD LCRB Den Correction
 ALPELC.                00 000 000 000:  ALD LCRB Pe Factor
#Other Information
#
#WARRANTY: Halliburton will use its best efforts to furnish customers with 
#accurate information and interpretations that are part of, and incident to, the services 
#provided.  However, Halliburton cannot and does not warrant the accuracy 
#or correctness of such information and interpretations.  Under no circumstances should any 
#such information or interpretation be relied upon as the sole basis for any drilling, 
#completion, production, or financial decision or any procedure involving any risk to the 
#safety of any drilling venture, drilling rig or its crew or any other third party.  The 
#Customer has full responsibility for all drilling, completion and production operation.  
#Halliburton makes no representations or warranties, either expressed or 
#implied, including, but not limited to, the implied warranties of merchantability or fitness 
#for a particular purpose, with respect to the services rendered.  In no event will 
#Halliburton be liable for failure to obtain any particular results or for 
#any damages, including, but not limited to, indirect, special or consequential damages, 
#resulting from the use of any information or interpretation provided by Halliburton.
#
~A    DEPT      RPTVD      ROPA      DGRCC     ALHSI      ABR      AFXT        RM        RS         RD       TNPL     ALCDLC    ALDCLC    ALPELC   
# ...
   15465.0000 14330.7695    9.1219   18.6842    8.4973  477.3127    2.6311    63.6795   13.6343   128.2512    6.6719    2.8081    0.0236    6.5341
   15465.5000 14331.2803   19.6521   18.7029    8.3855  494.0112    2.6411    66.2794   15.3576   111.7687    7.2894    2.7929   -0.0019    6.0546
   15466.0000 14331.7988   26.7566   18.7915    8.3775  507.3897    2.6709    75.6592   17.1233   148.3842    6.8382    2.7991   -0.0043    5.8992
   15466.5000 14332.2979   29.5186   23.7989    8.3760  510.6539    2.6826   111.1225   20.2792   380.0084    5.8921    2.8095   -0.0104    5.0027
   15467.0000 14332.8008   29.8409   33.7703    8.4003  506.4357    2.6910   239.2854   37.3095  2795.7454    6.2556    2.8345    0.0013    4.7355
   15467.5000 14333.3135   29.2101   35.8852    8.4461  496.9866    2.6977   730.5311   71.0144 10928.7588    6.1327    2.8246    0.0142    5.3318
   15468.0000 14333.7969   26.9692   26.8355    8.3864  488.7692    2.7014   880.1514   65.8552  6571.7422    5.7804    2.8004    0.0008    5.2027
   15468.5000 14334.2998   25.0972   21.5504    8.4007  488.2977    2.7037   471.0399   50.3518  2122.3782    5.2861    2.8035    0.0045    5.3051
   15469.0000 14334.7959   24.8050   21.9416    8.4057  490.3552    2.7067   274.7409   46.2626   673.4033    5.1246    2.8165    0.0053    5.3886
   15469.5000 14335.2988   24.8160   19.3833    8.3839  487.6071    2.7119   251.8574   49.0565   536.4227    5.4389    2.8187   -0.0003    5.2349
   15470.0000 14335.7939   24.7891   19.2915    8.3777  481.2709    2.7155   310.8233   56.7620   607.1318    5.8303    2.8111   -0.0037    5.0000
   15470.5000 14336.2969   24.7921   26.3837    8.3830  473.5440    2.7186   547.6674   81.6205  1254.7434    5.8470    2.8166   -0.0048    4.8415
   15471.0000 14336.7959   24.8001   30.2285    8.3897  463.8179    2.7219  1321.0973  170.9007  4761.5142    5.6223    2.8278    0.0010    4.9005
   15471.5000 14337.2959   24.8147   24.0378    8.3758  457.9925    2.7259  1033.6764  182.3969  9485.9053    5.5450    2.8032   -0.0084    4.6790
   15472.0000 14337.7979   24.7947   21.6829    8.3774  457.6871    2.7332   527.1435  103.4692  2404.7156    5.3901    2.7826   -0.0126    4.7884
   15472.5000 14338.2939   24.7919   23.7702    8.3905  460.3364    2.7392   327.0408   66.7078   744.7901    5.6090    2.7780   -0.0012    5.1257
   15473.0000 14338.7959   24.8370   23.9668    8.3876  463.3601    2.7445   244.9959   54.3277   556.5647    5.8943    2.7481   -0.0003    4.9535
   15473.5000 14339.2930   24.8748   20.6497    8.3886  463.4846    2.7498   250.8057   54.7635   770.9904    6.1184    2.7257   -0.0005    4.9133
   15474.0000 14339.7959   24.4012   19.2175    8.3968  463.5534    2.7514   308.4042   69.2921  1223.3622    6.4681    2.7489   -0.0016    5.1232
   15474.5000 14340.2900   11.7261   16.8196    8.3777  466.7520    2.7377   225.1819   74.2817  1095.6984    6.6347    2.7782   -0.0049    5.1911
   15475.0000 14340.7949    0.9837   16.1621    8.3828  473.8678    2.7240   127.5686   45.1771   606.3668    6.4770    2.8111    0.0003    5.0980
   15475.5000 14341.2930   13.6344   15.4171    8.4169  480.4546    2.7255    96.9157   26.9402   336.3810    6.2870    2.8106    0.0081    5.3813
   15476.0000 14341.7959   24.5163   15.2561    8.4345  473.3880    2.7345    91.1730   20.3015   220.7379    6.0662    2.8091    0.0117    5.5609
   15476.5000 14342.3057   24.6521   16.3533    8.4064  458.4333    2.7435    90.1233   17.5155   177.1213    5.8659    2.8006    0.0055    5.3149
   15477.0000 14342.8008   23.0921   15.3348    8.3838  448.5376    2.7498    75.2354   16.2974   136.0854    5.9275    2.7926   -0.0039    5.0658
   15477.5000 14343.2920   20.8961   15.0653    8.3750  445.5417    2.7536    57.9463   16.3791   106.2005    6.0928    2.7872   -0.0109    4.8109
   15478.0000 14343.7910   20.0065   15.0438    8.3750  462.9328    2.7573    52.3690   17.3789   107.8105    6.1947    2.7857   -0.0079    5.0615
   15478.5000 14344.2900   20.2397   20.3583    8.3756  476.4896    2.7616    71.2836   22.8020   176.4734    6.2526    2.7924   -0.0095    4.7310
   15479.0000 14344.7949   20.7305   29.6199    8.3858  473.8744    2.7708   128.3916   37.0704   394.6875    5.7797    2.8000   -0.0010    4.9406
   15479.5000 14345.2939   20.7069   35.4639    8.3866  465.0623    2.7805   172.0274   50.0038   538.3054    5.2382    2.7895   -0.0008    4.8879
   15480.0000 14345.7842   20.1545   32.6791    8.3955  450.6923    2.7903   126.4725   46.5938   323.0427    5.0334    2.7861    0.0025    5.1649
   15480.5000 14346.2813   20.8505   25.6977    8.4018  430.2514    2.8023    83.6497   37.9602   195.6845    5.0801    2.7891    0.0050    5.7486
   15481.0000 14346.7900   23.0435   25.2725    8.4327  430.8852    2.8150    91.8904   44.4432   224.9881    5.1302    2.8058    0.0114    6.0237
   15481.5000 14347.2910   24.4792   23.0737    8.4129  436.7139    2.8283   111.5078   50.1160   227.5955    5.3013    2.8030    0.0070    5.5651
   15482.0000 14347.7988   24.5582   21.0029    8.3824  438.4690    2.8512    95.8536   43.5655   154.8539    5.4009    2.7977   -0.0019    4.9134
   15482.5000 14348.3037   23.5727   34.2131    8.3757  435.5189    2.9037    90.1946   45.3139   133.0285    5.1618    2.7534   -0.0084    4.7455
   15483.0000 14348.7930   21.4828   55.0706    8.3750  436.3224    2.9193    99.7145   54.5202   164.5212    5.1238    2.7314   -0.0146    4.9370
   15483.5000 14349.2900   20.0815   57.7684    8.3832  426.5968    2.9277   126.3908   67.8282   256.2263    4.9271    2.7888   -0.0061    4.9912
   15484.0000 14349.7881   19.8156   49.5173    8.4234  413.2298    2.9302   164.4796   81.3203   355.0223    4.3154    2.8363    0.0093    5.1610
   15484.5000 14350.2891   19.8104   47.2500    8.4067  407.8696    2.9291   186.3210   80.9671   259.1407    4.1472    2.8418    0.0044    5.0161
   15485.0000 14350.7891   19.8057   60.5112    8.4164  411.9808    2.9336   118.5283   59.1114   114.3882    4.1281    2.8489    0.0080    5.0813
   15485.5000 14351.2832   19.9479   52.7379    8.3982  417.8460    2.9397    53.2089   35.3768    53.6181    4.0128    2.8456    0.0041    4.9475
   15486.0000 14351.7959   20.4964   31.8424    8.3890  412.3969    2.9482    17.9710   21.7693    21.0513    4.1703    2.8242    0.0005    4.7450
   15486.5000 14352.2891   20.4163   25.9733    8.3855  410.9099    2.9604     8.5741   11.2782    11.0288    4.5066    2.7938   -0.0045    4.7434
   15487.0000 14352.7891   19.9161   23.7506    8.4628  398.4140    2.9728     7.8401    7.6289     9.6646    4.7699    2.8131    0.0159    5.5202
   15487.5000 14353.2832   19.8766   25.2341    8.5542  368.9430    2.9928    10.6897    7.7750    11.8614    4.8365    2.8320    0.0362    6.0251
   15488.0000 14353.7744   20.4052   27.1805    8.4763  368.7522    3.0191    14.5268    8.6944    16.1511    5.3937    2.7928    0.0187    5.6799
   15488.5000 14354.2910   22.2845   27.4630    8.4430  367.0045    3.0423    17.4906    8.7595    21.4368    5.9061    2.7768    0.0130    5.6831
   15489.0000 14354.8213   23.2041   30.9333    8.4173  361.7892    3.0543    17.4029    7.6122    22.8906    5.4160    2.7654    0.0068    5.3500
   15489.5000 14355.2900   19.8197   29.1964    8.3888  354.6469    3.0536    11.0703    5.7123    17.5767    5.3532    2.7619   -0.0058    5.0036
   15490.0000 14355.7744   16.8812   25.9782    8.4044  349.8681    3.0480     6.4306    4.4082    11.4865    5.2229    2.7913    0.0045    5.0522
   15490.5000 14356.2969   17.3778   25.0600    8.4920  348.9656    3.0498     5.0132    3.9144     8.9322    5.1531    2.8064    0.0232    5.2223
   15491.0000 14356.7998   17.6247   22.5873    8.6444  342.6473    3.0604     5.3431    4.0230     9.2000    5.2476    2.7949    0.0466    5.7971
   15491.5000 14357.2793   16.0239   26.3925    8.8168  333.9855    3.0585     8.0959    5.1617    13.6337    5.5296    2.7788    0.0501    6.2406
   15492.0000 14357.7646   15.6830   32.1920    8.6985  326.7985    3.0532    11.5993    5.9505    18.7407    5.6879    2.7566    0.0321    6.5200
