~Version Information
 VERS.                  2.0:   CWLS log ASCII Standard -VERSION 2.0
 WRAP.                   NO:   One line per depth step
~Well Information Block
#MNEM.UNIT     VALUE/NAME     DESCRIPTION
#---------     -----------    ---------------------------
 STRT.F             14200.0000: START DEPTH
 STOP.F             16770.0000: STOP DEPTH
 STEP.F                 0.5000: STEP DEPTH
 NULL.               -999.2500: NULL VALUE
 UNIT.                12318515:  LOGGING EQUIPMENT ID
 CNTY.             HAIR DALMAH:  COUNTY NAME
 JOBN.        AD-XX-0905995035:  JOB TICKET NUMB
 FLD .             HAIR DALMAH:  FIELD NAME
 PDAT.          Mean Sea Level:  PERMANENT DATUM
 RIG .                     PN8:  RIG NAME
 MWDS.                    ICAD:  MWD SHOP
 CTRY.     United Arab Emirates:  COUNTRY NAME
 REGN.     Middle East/North Africa:  REGION
 BASE.               Abu Dhabi:  LOGGING EQUIPMENT BASE LOCATION
 WTYP.                Vertical:  WELL TYPE
 XYGR.     UTM Zones, Northern Hemisphere, Meters:  XYGROUP
 LLGR.      Latitude/Longitude:  LLGROUP
 MDS .              Win MagUTM:  MAG DATA SOURCE
 MMDD.       05 December, 2019:  MAG DATA DATE
 MMDL.            bggm2019.dat:  MAGNETIC MODEL
 CREF.     Ellipsoid Clarke - 1880:  CART REFERENCE
 GREF.     Ellipsoid World Geodetic System :  GEO REFERENCE
 CGSY.               SS CLRK51:  CART GRID SYS
 GGSY.                      LL:  GEO GRID SYS
 CCDE.     UTM Clarke 1880 (CM 51), Meters:  CART COORD DESC
 GCDE.     Generic Lat/Long's, Degrees, -180 ==> +180:  GEO COORD DESC
 SON .        AD-XX-0905995035:  JOB NUMBER
 COMP.          ADNOC Offshore:  COMPANY
 WELL.               HD011-02D:  WELL NAME
 FTOP.          Formation Tops:  FORM TOPS DESC
 ILTD.               Lithology:  INTERP LTH DESC
 SVYD.                  Survey:  SURVEY DESC
 DMOD.             Drill Model:  DRILL MOD DESC
 HPTY.       Minimum Curvature:  HOLE POS TYPE
 NREF.                    Grid:  NORTH REFERENCE
 SPUD.               17-Feb-20:  SPUD DATE
 DATE.      21.00.00 29-Aug-20:  END TIME
 STIM.      12.00.00 26-Jul-20:  START TIME
 DMF .             Drill Floor:  DRILL MEAS FROM
 DFST.                        :  DIST FSL TEXT
 DFWT.                        :  DIST FWL TEXT
 PROV.               Abu Dhabi:  PROVINCE
 STAT.               Abu Dhabi:  STATE NAME
 API .                        :  API NUMBER
 SRVC.             Halliburton:  SERVICE COMPANY
 UWI .                        :  UNIQUE WELL IDENTIFIER
 LOC .                        :  LOCATION
 LMF .             Drill Floor:  LOG MEASURED FROM
 DEP .ft              0.000000:  DEPTH
 AGAP.ft            118.000000:  AIR GAP
 CMER.deg            51.000000:  CENTRL MERIDIAN
 MMDE.ft              0.000000:  MAGUTM CALC DEP
 APD .ft            118.000000:  DEPTH ABOVE PD
 WDMS.ft             65.000000:  WD ELEV
 EGL .ft              0.000000:  GROUND ELEVATION
 EPD .ft              0.000000:  ELEVATION
 AZTC.deg             1.750428:  AZM TOTAL CORR
 GRDC.deg             0.592532:  GRID CORRECTION
 MDEC.deg             2.342959:  MAGNETIC DECL
 MDIP.deg            38.394272:  MAGNETIC DIP
 MFLD.nT          43612.476563:  MAGNETIC FIELD
 GVFD.g               1.000000:  GRAVITY FIELD
 VSDR.deg            91.860001:  VERT SEC DIRECT
 TDD .ft          16770.000000:  TOTAL DEPTH (DRILLER)
 SDEP.ft          14436.000000:  START DEPTH
 DFSL.ft              0.000000:  DISTANCE FSL
 DFWL.ft              0.000000:  DISTANCE FWL
 UTMY.m         2710911.810000:  UTM Y
 UTMX.m          644702.250000:  UTM X
 WHEW.ft              0.000000:  WELL HEAD E/W
 WHNS.ft              0.000000:  WELL HEAD N/S
 LONG.deg            52.428197:  LONGITUDE
 LATI.deg            24.507246:  LATITUDE
 TVDS.ft            118.000000:  TVDSS CORRECTN
 EKB .ft            118.000000:  KB ELEVATION
 EDF .ft            118.000000:  DF ELEVATION
 MAGU.                 1512580:  MAGUTM CHECKSUM
 VSC .                       0:  VS TO CLOSURE
~Parameter Information Block
#MNEM.UNIT       Value        Description
#---------     -----------    ---------------------------
 AV  .fpm           484.999969:  Ann Velocity 
 AVMX.fpm           969.999939:  Max Ann Veloc 
 AZIF.deg           166.490005:  Azm, Final 
 BHAT.               Mud Motor:  BHA Type 
 BROT.°/100'          0.030000:  Build Rotating 
 BS  .in              8.375000:  Bit Size 
 BSZ .in              8.375000:  Bit Size 
 BTPL.psig          415.000000:  Bit Press Loss 
 CABU.                      No:  Customer Abuse 
 CGEO.             Carey Mills:  Customer Geo 
 COMM.                     ÜhT:  Run Comments 1 
 TCS .hr             21.141129:  Time Ciculation Ended 
 CV  .fpm           564.000000:  Crit Velocity 
 CVMX.fpm           702.000000:  Max Crit Veloc 
 DD1 .     Mohamed Gayed Barakat:  Direct Drillr 1 
 DDSV.               Mud Motor:  DD Service 
 DEFF.%              98.000000:  % Det Eff 
 DLRX.°/100'          0.100000:  Dogleg Rot Max 
 DLSO.°/100'          0.070000:  Dogleg Oriented 
 DLSX.°/100'          0.100000:  Dogleg Str Max 
 DRET.      23.59.00 10-Aug-20:  Drill End Time 
 DRST.      15.30.00 10-Aug-20:  Drill Start Tim 
 DTIM.hr              4.412436:  Time Drilling 
 EDEP.ft          15118.000000:  End Depth 
 ENG1.             Ahmed Aleem:  Engineer 1 
 ETIM.      16.00.00 11-Aug-20:  End Time 
 FLOI.gpm           550.000000:  Flow In 
 FLON.gpm           499.999969:  Flow In Min 
 FLOS.mptm            3.000000:  Fluid Loss 
 FLOX.gpm           550.000000:  Flow In Max 
 DFT .                 Polymer:  Mud Type 
 HFLO.                      No:  High Flow 
 HPRE.                      No:  High Pressure 
 HTEM.                      No:  High Temp 
 HYDO.ft              0.000000:  Hydro Offset 
 IFIN.deg             1.530000:  Inc, Final 
 IMAX.deg             1.590000:  Inc Max 
 IMIN.deg             1.560000:  Inc Min 
 IMND.ft          14992.000000:  Inc Min Depth 
 IMXD.ft          14895.000000:  Inc Max Depth 
 JARR.                      No:  Jarring 
 LETM.      23.59.00 10-Aug-20:  Log End Time 
 LOST.hr                    42:  Lost Rig Time 
 LSTM.      11.00.00 10-Aug-20:  Log Start Time 
 MDCL.ppm        140000.000000:  Mud Chlorides 
 MDES.             Fresh Water:  Mud Desc 
 DFD .ppg            12.000000:  Mud Density 
 MDMN.ppg            12.000000:  Dens Mud Min 
 MDMX.ppg            12.000000:  Dens Mud Max 
 PH  .pH             10.000000:  Mud pH 
 MOWR.                    0 83:  Run Mud OWR 
 MSND.                       0:  Run Mud Sand % 
 MSOL.                      17:  Run Mud Solids% 
 MTV .                GeoForce:  Motor Variant 
 DFV .spqt           50.000000:  Mud Viscosity 
 MWOD.in              6.900000:  MWD Tool OD 
 MWSI.                     Yes:  Serv Intrp, MWD 
 OTIM.hr             49.000000:  Time Operating 
 PMAX.psig        10491.233398:  Press Op, Max 
 PV  .cP             22.000000:  Mud PV 
 RMS .ohmm            0.022000:  Mud Resistivity 
 RMCS.ohmm            0.033000:  Mud Cake Resistivity 
 MCST.degF          212.000000:  Mud Cake Sample Temperature 
 RMFS.ohmm            0.020000:  Mud Filtrate Resistivity 
 RMFT.degF          212.000000:  Mud Filtrate Sample Temperature 
 RMMT.ohmm            0.018000:  Rm @ Max Temp 
 MST .degF          212.000000:  Mud Sample Temperature 
 RUN .                    4200:  Run Number 
 ROPA.fph            20.629999:  ROP Avg 
 ROPN.fph            20.000000:  ROP Min 
 ROPX.fph            31.250002:  ROP Max 
 RPMA.rpm            90.000000:  RPM Surface Avg 
 RPMN.rpm            90.000000:  RPM Surface Min 
 RPMX.rpm            90.000000:  RPM Surface Max 
 RRUN.                    4200:  Rig Run Number 
 RTIM.hr              8.500000:  Time Reaming 
 SAZI.deg           168.300003:  Azm, Start 
 SDEP.ft          14972.500000:  Start Depth 
 SIDD.                      No:  Serv Intrp, DD 
 SINC.deg             1.570000:  Inc, Start 
 SPPA.psig         3000.000000:  SPP Avg 
 SPPN.psig         3000.000000:  SPP Min 
 SPPX.psig         3000.000000:  SPP Max 
 STIM.      21.30.00 09-Aug-20:  Start Time 
 SVCS.                 DD, MWD:  Services 
 SVER.                9.200000:  Sperry Version 
 TDAT.ft            348.000000:  Tot Depth Attmp 
 TDDF.                      No:  Trip for DD 
 TDLG.ft            145.500000:  Tot Depth Loggd 
 TFF .                     Yes:  Trip for Fail 
 TQAA.f-p            22.000000:  Torque Abs Avg 
 TQAN.f-p            22.000000:  Torque Abs Min 
 TQAX.f-p            22.000000:  Torque Abs Max 
 TRRT.°/100'          1.010000:  Turn Rotating 
 MRT .                     AFR:  Maximum Recorded Temperature 
 TTMX.degF          260.000000:  Max Tool Temp 
 VS01.     AD90608221 H7V5WCOF1 (6):  Virtual Str1 SN 
 VS02.     90608207 R11GV2CO (6):  Virtual Str2 SN 
 WBMN.klb            15.000000:  WOB Min 
 WITN.         Ricardo Vasquez:  Customer Rep 
 WOBA.klb            17.500000:  WOB Avg 
 WOBX.klb            20.000000:  WOB Max 
 YP  .lhf2           35.000000:  Yield Point 
~Curve Information Block
#MNEM.UNIT                 API CODE     Curve Description
#---------               -----------    ---------------------------
 DEPT.F                 00 000 000 000:  Depth
 RPTVD.ft               00 000 000 000:  ROP True Vertical Depth
 ROPA.fph               00 000 000 000:  Avg Rate of Penetration
 DGRCC.api              00 000 000 000:  DGR Comb Gamma Ray BCorr
 ALHSI.in               00 000 000 000:  ALD Hole Size Indicator
 ABR .ohmm              00 000 000 000:  At-Bit Resistivity
 AFXT.hr                00 000 000 000:  AFR Form Exp Time
 RM  .ohmm              00 000 000 000:  AFR Medium Avg Res
 RS  .ohmm              00 000 000 000:  AFR Shallow Avg Res
 RD  .ohmm              00 000 000 000:  AFR Deep Avg Res
 TNPL.pu                00 000 000 000:  CTN Porosity Limestone
 ALCDLC.g/cc            00 000 000 000:  ALD LCRB Comp Density
 ALDCLC.g/cc            00 000 000 000:  ALD LCRB Den Correction
 ALPELC.                00 000 000 000:  ALD LCRB Pe Factor
#Other Information
#
#WARRANTY: Halliburton will use its best efforts to furnish customers with 
#accurate information and interpretations that are part of, and incident to, the services 
#provided.  However, Halliburton cannot and does not warrant the accuracy 
#or correctness of such information and interpretations.  Under no circumstances should any 
#such information or interpretation be relied upon as the sole basis for any drilling, 
#completion, production, or financial decision or any procedure involving any risk to the 
#safety of any drilling venture, drilling rig or its crew or any other third party.  The 
#Customer has full responsibility for all drilling, completion and production operation.  
#Halliburton makes no representations or warranties, either expressed or 
#implied, including, but not limited to, the implied warranties of merchantability or fitness 
#for a particular purpose, with respect to the services rendered.  In no event will 
#Halliburton be liable for failure to obtain any particular results or for 
#any damages, including, but not limited to, indirect, special or consequential damages, 
#resulting from the use of any information or interpretation provided by Halliburton.
#
~A    DEPT      RPTVD      ROPA      DGRCC     ALHSI      ABR      AFXT        RM        RS         RD       TNPL     ALCDLC    ALDCLC    ALPELC   
# ...
   15850.0000 14715.6191   15.8561   36.6157    8.3781  340.5801    3.1028   243.3061   77.2545   484.0902    3.6641    2.8347   -0.0073    4.5155
   15850.5000 14716.1211   15.8782   35.4361    8.3762  343.2279    3.1033   204.4638   62.2044   342.3196    3.7714    2.8255   -0.0059    4.4995
   15851.0000 14716.6172   15.8281   32.8495    8.3835  345.6304    3.1036   126.4973   46.5757   207.3907    3.9995    2.7989   -0.0029    4.5490
   15851.5000 14717.1230   15.8571   29.9893    8.3801  353.5387    3.1041   120.1198   42.7934   200.8469    4.1927    2.7840   -0.0048    4.7986
   15852.0000 14717.6494   15.2134   34.5140    8.3818  365.6783    3.1026   175.8796   50.6283   362.6343    4.2671    2.8001   -0.0034    4.8515
   15852.5000 14718.1123   13.0910   35.7666    8.4377  368.3353    3.0930   128.8552   36.3553   369.6805    4.6836    2.7987    0.0117    4.7786
   15853.0000 14718.6191   11.8137   26.8147    8.4283  366.8677    3.0826    70.8374   20.6705   181.1220    4.9944    2.7323    0.0094    4.6292
   15853.5000 14719.1182   11.9848   25.8667    8.3799  363.0292    3.0735    51.8172   15.3995   107.7316    5.2376    2.6735   -0.0047    4.7481
   15854.0000 14719.6182   12.0379   23.5241    8.3750  358.0575    3.0642    52.2350   15.4910   111.5282    5.6863    2.6724   -0.0156    4.8192
   15854.5000 14720.1172   12.0471   24.5984    8.3750  353.1651    3.0546    66.5619   17.1610   138.2687    6.5049    2.7179   -0.0134    4.9026
   15855.0000 14720.6035    8.8793   27.2434    8.3764  348.2097    3.0408    69.0648   16.8519   126.3187    7.7924    2.7565   -0.0047    4.7055
   15855.5000 14721.0957    0.6925   24.8268    8.3756  342.6964    3.0112    68.2313   17.7849   129.4012    8.3178    2.7612   -0.0065    4.8000
   15856.0000 14721.6113    4.8746   25.3765    8.3831  340.2765    2.9842    74.1907   21.1994   159.3767    7.6476    2.7780   -0.0027    4.7961
   15856.5000 14722.1162   16.7787   26.8259    8.4308  336.7057    2.9851    52.8723   20.2268   153.5459    6.2079    2.7806    0.0102    4.7281
   15857.0000 14722.6211   17.9294   25.4900    8.3920  333.8901    2.9932    40.4981   17.6217   125.5641    5.6714    2.7420   -0.0036    4.8648
   15857.5000 14723.1221   17.3988   27.8911    8.3778  332.8742    2.9986    55.8657   19.1660   122.9280    5.4569    2.7586   -0.0087    4.8455
   15858.0000 14723.6172   16.4366   27.4924    8.3784  332.7709    3.0022    84.3375   24.9396   142.9731    5.2093    2.7705   -0.0078    4.6934
   15858.5000 14724.1162   15.8556   23.8939    8.3754  332.8778    3.0054    56.0060   34.6995   179.0739    5.5382    2.7929   -0.0088    4.6776
   15859.0000 14724.6152   15.7536   29.0045    8.3845  332.8711    3.0158    28.4104   30.4684   113.3776    5.5888    2.8009   -0.0005    4.6243
   15859.5000 14725.1152   15.7945   32.0992    8.4064  331.1823    3.0350    23.0525   22.6153    55.5689    4.9858    2.7776    0.0034    4.5485
   15860.0000 14725.6084   15.9446   26.1437    8.4192  327.4840    3.0519    34.7605   23.0300    53.0803    5.0443    2.7490    0.0077    4.9660
   15860.5000 14726.1094   16.5587   24.4877    8.3847  321.1081    3.0647    66.4901   27.2714    89.6517    4.9509    2.7519   -0.0014    5.0431
   15861.0000 14726.6123   17.4983   26.5950    8.3750  321.2095    3.0735    85.1137   30.3230   133.2066    5.1993    2.7768   -0.0095    4.7241
   15861.5000 14727.1162   18.0002   28.2297    8.3754  321.6252    3.0810    76.9995   32.8547   133.0721    5.5898    2.7941   -0.0061    4.6918
   15862.0000 14727.6084   18.0707   28.3062    8.3841  319.0251    3.0865    72.5681   33.2940   121.4795    5.5037    2.7865   -0.0024    4.5765
   15862.5000 14728.1113   18.3588   28.1187    8.3967  315.8403    3.0915    62.0438   30.4533   103.3329    5.0076    2.7694    0.0009    4.7539
   15863.0000 14728.6094   18.9410   27.7479    8.3785  311.5754    3.0955    50.3056   27.0210    84.7566    4.8367    2.7517   -0.0046    4.6941
   15863.5000 14729.1123   19.4580   23.5926    8.3859  309.2756    3.0994    43.0599   24.9195    70.2375    5.2886    2.7399   -0.0001    4.8672
   15864.0000 14729.6123   19.8167   24.2797    8.3904  304.5893    3.1028    38.9012   23.5653    59.2491    5.7441    2.7403    0.0025    4.8597
   15864.5000 14730.1123   19.8455   25.6507    8.3837  300.5544    3.1059    40.5035   25.1622    59.1989    6.2456    2.7275   -0.0017    4.8504
   15865.0000 14730.6143   19.8709   27.9567    8.3756  297.4235    3.1090    53.3722   32.0825    81.0357    6.0725    2.7215   -0.0076    4.7749
   15865.5000 14731.1104   19.8351   31.5692    8.3750  294.4669    3.1122    76.0143   43.1644   128.8851    5.9326    2.7342   -0.0081    4.6638
   15866.0000 14731.6113   19.8343   33.6842    8.3750  291.6357    3.1154    70.7871   40.9075   131.8601    5.7322    2.7592   -0.0087    4.7463
   15866.5000 14732.1113   19.8640   30.7004    8.3753  288.9453    3.1186    61.1348   35.8311   121.6787    5.4075    2.7794   -0.0093    4.7046
   15867.0000 14732.6123   19.9104   30.7767    8.3825  286.3824    3.1219    68.8310   37.9386   149.7397    4.8666    2.8000   -0.0031    4.6594
   15867.5000 14733.1094   19.8549   33.3531    8.4099  284.2690    3.1249    52.9233   27.9410   110.3277    4.4313    2.7987    0.0057    4.8404
   15868.0000 14733.6094   19.8145   32.3396    8.3921  282.6133    3.1284    33.0939   17.1239    60.6254    4.4746    2.7922   -0.0001    4.8260
   15868.5000 14734.1104   19.8068   29.6896    8.4045  280.1197    3.1317    33.1556   14.7910    56.5249    4.7936    2.7992    0.0044    4.8582
   15869.0000 14734.6113   19.8096   29.0265    8.4070  278.4403    3.1349    31.4717   11.3865    51.0486    4.8749    2.7817    0.0050    4.7410
   15869.5000 14735.1104   19.8227   31.5478    8.3768  277.1810    3.1381    21.1885    7.9021    32.8286    5.4939    2.7442   -0.0136    4.8079
   15870.0000 14735.6074   19.7814   30.6367    8.3753  275.9853    3.1409    15.5217    6.6900    23.9604    6.2154    2.7631   -0.0151    4.7819
   15870.5000 14736.1094   19.7918   30.1257    8.3790  275.2656    3.1445    15.6274    6.6763    23.8454    6.1371    2.7556   -0.0038    4.5336
   15871.0000 14736.6094   19.7688   35.9830    8.3758  277.9663    3.1506    18.0707    7.2307    28.4203    6.6350    2.6879   -0.0117    4.6032
   15871.5000 14737.1084   19.7684   32.4193    8.3750  281.4111    3.1573    20.7566    8.2515    33.8189    7.2333    2.6819   -0.0197    4.7471
   15872.0000 14737.6094   19.8046   29.7515    8.3782  282.8295    3.1641    23.6992    9.5209    36.6959    6.5786    2.7393   -0.0098    4.8812
   15872.5000 14738.1094   19.8364   30.4957    8.4019  284.2034    3.1709    24.7401   10.4521    34.7505    5.8920    2.7701    0.0033    4.8874
   15873.0000 14738.6113   19.7906   29.7608    8.3833  288.4170    3.1953    23.2419   10.9080    30.6449    5.7931    2.7692   -0.0022    4.7862
   15873.5000 14739.1045   19.4669   30.4720    8.3763  295.1801    3.2762    22.1048   10.9317    30.3352    5.8168    2.7715   -0.0061    4.7059
   15874.0000 14739.6084   19.4795   30.7471    8.3765  303.0260    3.2880    16.0925    9.5485    28.7028    5.4934    2.7697   -0.0095    4.7195
   15874.5000 14740.1094   19.7800   31.1702    8.3757  315.2361    3.2903    10.1605    7.2742    20.6454    5.3191    2.7830   -0.0089    4.7483
   15875.0000 14740.6338   19.4099   31.1010    8.3788  328.7091    3.2906     8.0378    6.1647    15.0937    5.4412    2.7980   -0.0123    4.6340
   15875.5000 14741.1416   16.6044   28.5656    8.4210  338.4534    3.2784     8.5668    5.8383    13.8647    5.8708    2.8083    0.0073    4.7251
   15876.0000 14741.6123   12.6050   25.8425    8.4301  328.0971    3.2616     8.5139    5.1851    12.6678    6.8695    2.7428    0.0099    4.7427
   15876.5000 14742.1064   10.3608   24.1668    8.3787  315.3960    3.2380     7.7724    4.7652    12.1231    8.5478    2.6660   -0.0044    4.5419
   15877.0000 14742.6016    9.9180   23.4630    8.3818  298.5929    3.2137     8.4725    4.9711    13.5924    9.6450    2.6424   -0.0037    4.5989
