~Version Information
 VERS.                  2.0:   CWLS log ASCII Standard -VERSION 2.0
 WRAP.                   NO:   One line per depth step
~Well Information Block
#MNEM.UNIT     VALUE/NAME     DESCRIPTION
#---------     -----------    ---------------------------
 STRT.M              5223.0528: START DEPTH
 STOP.M              5536.2348: STOP DEPTH
 STEP.M                 0.1524: STEP DEPTH
 NULL.               -999.2500: NULL VALUE
 DFWT.                        :  DIST FWL TEXT
 DFST.                        :  DIST FSL TEXT
 DMF .             Drill Floor:  DRILL MEAS FROM
 STIM.      11.30.00 09-Jul-16:  START TIME
 DATE.      11.29.04 14-Aug-16:  END TIME
 SPUD.               17-Aug-15:  SPUD DATE
 NREF.                    Grid:  NORTH REFERENCE
 HPTY.       Minimum Curvature:  HOLE POS TYPE
 DMOD.             Drill Model:  DRILL MOD DESC
 SVYD.                  Survey:  SURVEY DESC
 ILTD.               Lithology:  INTERP LTH DESC
 FTOP.          Formation Tops:  FORM TOPS DESC
 WELL.              AF011-3D-1:  WELL NAME
 COMP.               TOTAL-ABK:  COMPANY
 SON .        AD-XX-0902156848:  JOB NUMBER
 GCDE.     Generic Lat/Long's, Degrees, -180 ==> +180:  GEO COORD DESC
 CCDE.     UTM Clarke 1880 (CM 51), Meters:  CART COORD DESC
 GGSY.                      LL:  GEO GRID SYS
 CGSY.               SS CLRK51:  CART GRID SYS
 GREF.     Ellipsoid World Geodetic System :  GEO REFERENCE
 CREF.     Ellipsoid Clarke - 1880:  CART REFERENCE
 MMDL.            bggm2016.dat:  MAGNETIC MODEL
 MMDD.            20 May, 2016:  MAG DATA DATE
 MDS .              Win MagUTM:  MAG DATA SOURCE
 LLGR.      Latitude/Longitude:  LLGROUP
 XYGR.     UTM Zones, Northern Hemisphere, Meters:  XYGROUP
 PDAT.          Mean Sea Level:  PERMANENT DATUM
 WTYP.                Deviated:  WELL TYPE
 BASE.               Abu Dhabi:  LOGGING EQUIPMENT BASE LOCATION
 REGN.     Middle East/North Africa:  REGION
 PROV.               Abu Dhabi:  PROVINCE
 STAT.               Abu Dhabi:  STATE NAME
 CTRY.     United Arab Emirates:  COUNTRY NAME
 FLD .         Abu Al Bukhoosh:  FIELD NAME
 SRVC.                  SAIPEM:  CONTRACTOR
 MWDS.                Musaffah:  MWD SHOP
 RIG .           Perro Negro 8:  RIG NAME
 CNTY.               Abu Dhabi:  COUNTY NAME
 DCON.             HALLIBURTON:  DIRECTNL CONTR
 UNIT.                    9804:  LOGGING EQUIPMENT ID
 DOE .        AD-XX-0902156848:  DOE NUMBER
 API .                        :  API NUMBER
 UWI .                        :  UNIQUE WELL IDENTIFIER
 LOC .                        :  LOCATION
 LMF .             Drill Floor:  LOG MEASURED FROM
 TVDS.m              43.899999:  TVDSS CORRECTN
 LATI.deg            25.504513:  LATITUDE
 LONG.deg            53.120396:  LONGITUDE
 WHNS.m               0.000000:  WELL HEAD N/S
 WHEW.m               0.000000:  WELL HEAD E/W
 UTMX.m          713123.300043:  UTM X
 UTMY.m         2822281.299893:  UTM Y
 DFWL.m               0.000000:  DISTANCE FWL
 DFSL.m               0.000000:  DISTANCE FSL
 SDEP.m            5253.990000:  START DEPTH
 TDD .m            5543.669658:  TOTAL DEPTH (DRILLER)
 VSDR.deg           249.940002:  VERT SEC DIRECT
 GVFD.g               1.000000:  GRAVITY FIELD
 MFLD.nT          43940.839844:  MAGNETIC FIELD
 MDIP.deg            39.918472:  MAGNETIC DIP
 MDEC.deg             2.250056:  MAGNETIC DECL
 GRDC.deg             0.913350:  GRID CORRECTION
 AZTC.deg             1.336706:  AZM TOTAL CORR
 EPD .m               0.000000:  ELEVATION
 EGL .m             -45.400001:  GROUND ELEVATION
 WDMS.m              45.400001:  WD ELEV
 APD .m              43.899999:  DEPTH ABOVE PD
 MMDE.m               0.000000:  MAGUTM CALC DEP
 CMER.deg            51.000000:  CENTRL MERIDIAN
 AGAP.m              23.099999:  AIR GAP
 EKB .m              43.899999:  KB ELEVATION
 EDF .m              43.899999:  DF ELEVATION
 VSC .                       0:  VS TO CLOSURE
 MAGU.                 1527179:  MAGUTM CHECKSUM
~Parameter Information Block
#MNEM.UNIT       Value        Description
#---------     -----------    ---------------------------
 AV  .mps             1.500000:  Ann Velocity 
 AVMX.mps             2.400000:  Max Ann Veloc 
 AZIF.deg           257.739990:  Azm, Final 
 BHAT.                 Turbine:  BHA Type 
 BROT.°/100'          0.000000:  Build Rotating 
 BS  .in              8.500000:  Bit Size 
 BSZ .in              8.500000:  Bit Size 
 BTPL.psig           43.511005:  Bit Press Loss 
 CABU.                      No:  Customer Abuse 
 TCS .hr            149.515671:  Time Ciculation Ended 
 CV  .mps             3.000000:  Crit Velocity 
 CVMX.mps             4.000000:  Max Crit Veloc 
 DD1 .            Ahmed Bayoud:  Direct Drillr 1 
 DD2 .        Hany Abdel Hafez:  Direct Drillr 2 
 DDSV.                 Turbine:  DD Service 
 DEFF.%              98.000000:  % Det Eff 
 DLRX.°/100'          0.000000:  Dogleg Rot Max 
 DLSO.°/100'          0.000000:  Dogleg Oriented 
 DLSX.°/100'          0.000000:  Dogleg Str Max 
 DRET.      12.28.32 23-Jun-16:  Drill End Time 
 DRST.      14.30.00 17-Jun-16:  Drill Start Tim 
 DTIM.hr            102.349998:  Time Drilling 
 EDEP.m            5254.000000:  End Depth 
 ENG1.         Ahmed Montasser:  Engineer 1 
 ENG2.              Do Dang Sa:  Engineer 2 
 ENG3.           Khaled Khalaf:  Engineer 3 
 ENG4.         Muhammad Mubeen:  Engineer 4 
 ETIM.      05.40.54 26-Jun-16:  End Time 
 FLOI.lpm          1800.000122:  Flow In 
 FLON.lpm          1500.000000:  Flow In Min 
 FLOS.lpm             0.000000:  Fluid Loss 
 FLOX.lpm          1800.000122:  Flow In Max 
 DFT .                   Other:  Mud Type 
 HFLO.                      No:  High Flow 
 HPRE.                      No:  High Pressure 
 HTEM.                      No:  High Temp 
 HYDO.m               1.400000:  Hydro Offset 
 IFIN.deg            10.460000:  Inc, Final 
 IMAX.deg            32.367214:  Inc Max 
 IMIN.deg            11.447388:  Inc Min 
 IMND.m            5236.799805:  Inc Min Depth 
 IMXD.m            4790.299805:  Inc Max Depth 
 JARR.                      No:  Jarring 
 LETM.      12.28.32 23-Jun-16:  Log End Time 
 LOST.hr                     0:  Lost Rig Time 
 LSTM.      14.30.00 17-Jun-16:  Log Start Time 
 MDCL.ppm         23000.000000:  Mud Chlorides 
 MDES.             Fresh Water:  Mud Desc 
 DFD .g/c3            1.170004:  Mud Density 
 MDMN.g/c3            1.160004:  Dens Mud Min 
 MDMX.g/c3            1.170004:  Dens Mud Max 
 PH  .pH              9.400000:  Mud pH 
 MOIL.                       0:  Run Mud Oil % 
 MOWR.                    1 91:  Run Mud OWR 
 MSND.                     0.1:  Run Mud Sand % 
 MSOL.                     6.2:  Run Mud Solids% 
 DFV .spl            73.000000:  Mud Viscosity 
 MWOD.in              6.750000:  MWD Tool OD 
 MWSI.                      No:  Serv Intrp, MWD 
 OTIM.hr            238.111023:  Time Operating 
 PMAX.psig         4000.000000:  Press Op, Max 
 PV  .mPsec          36.000000:  Mud PV 
 RMS .ohmm            0.299000:  Mud Resistivity 
 RMCS.ohmm            0.397000:  Mud Cake Resistivity 
 MCST.degC           35.000000:  Mud Cake Sample Temperature 
 RMFS.ohmm            0.200000:  Mud Filtrate Resistivity 
 RMFT.degC           35.000000:  Mud Filtrate Sample Temperature 
 RMMT.ohmm            0.118100:  Rm @ Max Temp 
 MST .degC           35.000000:  Mud Sample Temperature 
 RUN .                    3300:  Run Number 
 ROPA.m/hr            4.450000:  ROP Avg 
 ROPN.m/hr            2.000000:  ROP Min 
 ROPX.m/hr            7.000000:  ROP Max 
 RPMA.rpm            78.000000:  RPM Surface Avg 
 RPMN.rpm            35.000000:  RPM Surface Min 
 RPMX.rpm            80.000000:  RPM Surface Max 
 RRUN.                    3300:  Rig Run Number 
 RTIM.hr              7.150000:  Time Reaming 
 SAZI.deg           249.699997:  Azm, Start 
 SDEP.m            4799.000000:  Start Depth 
 SIDD.                      No:  Serv Intrp, DD 
 SINC.deg            30.049999:  Inc, Start 
 SPPA.psig         4543.999023:  SPP Avg 
 SPPN.psig         4264.078613:  SPP Min 
 SPPX.psig         4641.173828:  SPP Max 
 STIM.      09.00.00 16-Jun-16:  Start Time 
 SVCS.                 DD, MWD:  Services 
 SVER.                8.300000:  Sperry Version 
 TDAT.m             455.000000:  Tot Depth Attmp 
 TDDF.                      No:  Trip for DD 
 TDLG.m             455.000000:  Tot Depth Loggd 
 TFF .                      No:  Trip for Fail 
 TQAA.f-p         37070.000000:  Torque Abs Avg 
 TQAN.f-p         35000.000000:  Torque Abs Min 
 TQAX.f-p         39000.000000:  Torque Abs Max 
 TRRT.°/100'          0.000000:  Turn Rotating 
 MRT .                     PWD:  Maximum Recorded Temperature 
 TTMX.degC          121.568352:  Max Tool Temp 
 VS01.     AD90473258H2V5WGV2COXF1(6):  Virtual Str1 SN 
 WBMN.klb             4.409245:  WOB Min 
 WITN.           Roger Butters:  Customer Rep 
 WOBA.klb             9.788525:  WOB Avg 
 WOBX.klb            13.227736:  WOB Max 
 YP  .pa             43.000000:  Yield Point 
~Curve Information Block
#MNEM.UNIT                 API CODE     Curve Description
#---------               -----------    ---------------------------
 DEPT.M                 00 000 000 000:  Depth
 DGRCC.api              00 000 000 000:  DGR Comb Gamma Ray BCorr
 ALHSI.in               00 000 000 000:  ALD Hole Size Indicator
 ABR .ohmm              00 000 000 000:  At-Bit Resistivity
 AFRSA.ohmm             00 000 000 000:  AFR Shallow Avg Res
 AFRMA.ohmm             00 000 000 000:  AFR Medium Avg Res
 AFRDA.ohmm             00 000 000 000:  AFR Deep Avg Res
 AFXT.hr                00 000 000 000:  AFR Form Exp Time
 ALCDLC.g/c3            00 000 000 000:  ALD LCRB Comp Density
 ALPELC.NONE            00 000 000 000:  ALD LCRB Pe Factor
 ALDCLC.g/c3            00 000 000 000:  ALD LCRB Den Correction
 TNPL.pu                00 000 000 000:  CTN Porosity Limestone
 DTC .uspf              00 000 000 000:  BAT DTC
 DTRS.uspf              00 000 000 000:  BAT Refracted Shear
 VPVS.NONE              00 000 000 000:  BAT VP/VS
#Other Information
#
#WARRANTY: Halliburton will use its best efforts to furnish customers with 
#accurate information and interpretations that are part of, and incident to, the services 
#provided.  However, Halliburton cannot and does not warrant the accuracy 
#or correctness of such information and interpretations.  Under no circumstances should any 
#such information or interpretation be relied upon as the sole basis for any drilling, 
#completion, production, or financial decision or any procedure involving any risk to the 
#safety of any drilling venture, drilling rig or its crew or any other third party.  The 
#Customer has full responsibility for all drilling, completion and production operation.  
#Halliburton makes no representations or warranties, either expressed or 
#implied, including, but not limited to, the implied warranties of merchantability or fitness 
#for a particular purpose, with respect to the services rendered.  In no event will 
#Halliburton be liable for failure to obtain any particular results or for 
#any damages, including, but not limited to, indirect, special or consequential damages, 
#resulting from the use of any information or interpretation provided by Halliburton.
#
~A   DEPT      DGRCC     ALHSI      ABR      AFRSA     AFRMA     AFRDA     AFXT     ALCDLC    ALPELC    ALDCLC     TNPL       DTC      DTRS      VPVS    
# ...
   5279.5932   71.4854    6.0635   64.1906  288.2552  277.2162  269.6047   28.7832    2.6477    6.0551    0.0477    8.5054   53.0330  103.0025    1.9421
   5279.7456   83.9608    5.9014   63.0194  111.2421   98.7335   95.3144   28.7934    2.6370    6.3040    0.0193   10.6443   55.6385  107.8055    1.9386
   5279.8980   70.1396    5.8950   62.2368   49.9223   39.8853   38.1871   28.8038    2.6743    6.3716    0.0255   14.2073   57.9812  109.5993    1.8913
   5280.0504   50.2979    5.8920   61.5193   50.8912   40.5601   39.1538   28.8140    2.6891    6.2253    0.0240   13.2076   59.6685  109.9882    1.8442
   5280.2028   47.4464    5.7897   60.8033   75.7911   64.0631   62.2197   28.8242    2.6902    6.0249   -0.0024    9.6112   60.9676  109.4415    1.7955
   5280.3552   48.2288    5.7686   59.7447   62.7748   56.7706   54.1735   28.8345    2.7115    5.9100   -0.0039    8.7125   60.6647  108.0133    1.7807
   5280.5076   42.7064    5.8291   58.7948   49.2576   47.7390   44.0812   28.8447    2.7363    6.0054    0.0140    9.7557   58.7804  105.6302    1.7977
   5280.6600   44.7710    5.9876   57.8420   70.1187   71.5071   66.7535   28.8550    2.7555    6.4189    0.0457    8.8337   56.4539  103.3402    1.8313
   5280.8124   53.9590    5.9539   56.9354  103.2325  104.6438  103.4439   28.8653    2.7248    6.4564    0.0325    7.3941   55.1140  102.3839    1.8579
   5280.9648   53.5674    5.8317   56.0328   71.7958   69.6001   72.5130   28.8756    2.6884    6.0645    0.0060    7.7967   54.2920  101.3299    1.8665
   5281.1172   55.6930    5.8474   55.0899   59.3939   54.2326   57.5076   28.8859    2.7083    6.1572    0.0164    8.1893   54.0581  100.5041    1.8594
   5281.2696   50.0312    5.8670   54.0398   73.1129   62.1744   64.3950   28.8962    2.7244    6.1858    0.0210    7.4216   54.3125   99.1175    1.8252
   5281.4220   43.1456    5.9688   52.9193   91.6242   77.4321   77.9836   28.9064    2.7603    6.2117    0.0388    7.5887   53.5913   97.9848    1.8287
   5281.5744   33.0648    6.0567   51.7834  136.1111  122.4845  119.1677   28.9167    2.7693    5.9174    0.0573    7.9459   52.8083   97.6626    1.8496
   5281.7268   42.1167    6.0117   50.7440  200.6230  186.9753  183.3855   28.9269    2.7403    5.9018    0.0489    8.4164   52.5499   96.7971    1.8422
   5281.8792   52.8297    5.8729   49.9449  168.6074  142.3042  157.4528   28.9372    2.7106    5.6261    0.0235    9.4709   53.2775   95.9686    1.8020
   5282.0316   45.9712    5.8955   49.1497   85.5125   64.0526   71.3222   28.9474    2.7225    5.5425    0.0271   10.9805   54.6560   96.3603    1.7636
   5282.1840   33.2857    5.9786   48.2995   62.5852   43.6930   43.0922   28.9576    2.7413    5.2739    0.0450   10.8773   55.7235   96.3983    1.7304
   5282.3364   22.7884    6.0793   47.3796   90.3370   66.8776   59.5858   28.9672    2.7210    4.9234    0.0573    8.9286   55.7852   94.3082    1.6904
   5282.4888   21.4979    6.0311   46.3561  168.8674  143.3456  126.2417   28.9769    2.6656    4.7773    0.0455    7.1598   54.7824   89.2747    1.6293
   5282.6412   34.4576    5.9876   45.4216  282.8288  288.4581  252.1201   28.9864    2.6389    4.6971    0.0409    6.3670   53.9469   87.3688    1.6195
   5282.7936   44.9318    5.9532   44.6291  233.7747  265.1919  260.6070   28.9961    2.6212    4.6228    0.0356    6.7402   54.8528   89.2864    1.6266
   5282.9460   55.7249    5.8756   43.7632  117.7001  121.4065  131.8997   29.0056    2.5966    4.1344    0.0229    8.0560   57.7797   97.8814    1.6926
   5283.0984   70.8839    5.8561   42.6444   68.3443   63.2383   72.6769   29.0153    2.5813    3.8737    0.0182    9.6572   60.9206  103.6316    1.7015
   5283.2508   88.1097    5.8226   41.4802   48.7583   47.4342   53.0763   29.0249    2.5765    3.9131    0.0098   11.6031   63.4139  105.1726    1.6589
   5283.4032  107.9232    5.8086   40.3376   33.7823   35.3340   37.7522   29.0345    2.5795    4.0211    0.0058   13.3790   65.3265  109.3815    1.6737
   5283.5556  128.8706    5.9356   39.2256   24.4766   25.7226   25.9640   29.0441    2.6114    4.5898    0.0327   16.2079   66.6063  117.2354    1.7596
   5283.7080  127.5011    6.0557   38.4252   21.5685   22.9736   22.6539   29.0538    2.6363    5.0390    0.0556   19.1364   67.6043  118.2625    1.7495
   5283.8604  129.0328    6.1353   37.6347   22.0665   24.0649   24.0521   29.0639    2.6308    5.3421    0.0634   19.5169   67.7377  120.3402    1.7768
   5284.0128  111.7312    5.9653   36.8415   22.6145   24.4415   24.9640   29.0743    2.5967    5.0888    0.0182   20.0045   66.9619  121.8629    1.8202
   5284.1652   96.8405    6.0448   36.0426   21.4210   22.2080   23.3895   29.0848    2.6250    4.8421    0.0325   22.1529   66.6961  123.1217    1.8461
   5284.3176  101.7842    6.5175   35.2963   22.5396   22.7225   24.8730   29.0951    2.7163    6.0147    0.1332   19.8031   67.8392  125.7006    1.8529
   5284.4700  123.7161    6.4512   34.6690   29.8316   29.9480   33.5686   29.1055    2.6530    6.0548    0.1022   18.8207   70.2249  130.1020    1.8527
   5284.6224  127.7928    6.1415   34.0713   30.6183   30.3107   33.9278   29.1160    2.5895    5.7915    0.0549   24.4580   72.7532  133.4252    1.8343
   5284.7748  124.6293    6.1609   33.5480   23.0864   22.0310   24.3662   29.1263    2.6083    5.8786    0.0690   26.7789   73.7026  133.9680    1.8178
   5284.9272  119.6929    6.2055   33.0934   20.7570   19.3648   20.9035   29.1368    2.6204    6.0790    0.0761   25.1002   73.1947  131.8575    1.8012
   5285.0796  123.7206    5.9486   32.5999   20.8117   19.8423   20.6052   29.1472    2.5914    5.5556    0.0284   24.5801   71.4350  125.8502    1.7613
   5285.2320  118.0754    5.8534   32.1017   20.5649   20.1139   20.2619   29.1575    2.6138    5.2693    0.0120   23.9215   68.4547  121.0475    1.7688
   5285.3844  102.6570    5.9293   31.6400   22.0941   21.3773   21.6536   29.1679    2.6615    5.6392    0.0315   22.1759   64.6923  115.9863    1.7934
   5285.5368   94.3705    6.1289   31.3982   25.0360   23.2329   24.3541   29.1786    2.7055    5.9520    0.0742   19.5757   61.9500  110.8275    1.7889
   5285.6892   86.1012    5.9431   31.2961   27.8987   24.7203   26.7557   29.1905    2.6700    5.8327    0.0314   18.1044   60.4554  107.4562    1.7775
   5285.8416   63.5272    5.9105   31.1480   28.4352   24.0111   26.5012   29.2039    2.6970    6.1366    0.0176   18.9116   59.4102  106.5141    1.7931
   5285.9940   44.3761    5.8982   30.8997   35.1584   29.2176   32.3282   29.2166    2.7418    6.2257    0.0130   16.9496   59.1196  107.6040    1.8203
   5286.1464   48.4489    5.9494   30.5904   58.5781   49.8552   53.8761   29.2285    2.7704    5.8850    0.0355   15.1335   60.0495  108.0660    1.8001
   5286.2988   65.6930    5.8953   30.3453   82.3758   71.5618   74.9085   29.2393    2.7591    5.8012    0.0290   14.6140   61.2698  108.0094    1.7633
   5286.4512   74.0091    5.8896   30.1202   60.7990   52.8311   53.3497   29.2513    2.7491    5.8451    0.0268   17.1418   60.6817  105.7416    1.7430
   5286.6036   70.6953    5.8458   29.8137   39.1062   33.9859   33.2382   29.2646    2.7316    5.7206    0.0103   17.8831   58.1183  102.6901    1.7685
   5286.7560   66.2360    5.8171   29.5209   34.3172   30.3763   28.5849   29.2871    2.7445    5.7398    0.0055   17.0718   55.4234  101.5252    1.8335
   5286.9084   55.6675    5.8897   29.3272   36.1693   33.0579   30.5852   29.3468    2.7702    6.1277    0.0229   16.1638   53.5750  101.3096    1.8920
   5287.0608   45.1892    5.9486   29.4160   43.9012   43.3954   38.3622   29.4160    2.7767    6.0203    0.0247   14.4254   53.7500  101.4339    1.8887
   5287.2132   47.4263    5.9733   29.6980   64.9977   65.0193   54.4192   29.5518    2.7768    6.0195    0.0372   13.0444   55.6605  100.5869    1.8090
   5287.3656   52.5910    5.9481   29.7019   83.3883   66.6335   62.0170   29.6062    2.7671    6.2086    0.0325   12.8012   55.8260   98.8391    1.7714
   5287.5180   49.3481    5.9114   29.5299   84.0851   53.2611   57.3710   29.6240    2.7554    6.1753    0.0201   13.2428   56.2496   97.0417    1.7256
