~Version Information
 VERS.                  2.0:   CWLS log ASCII Standard -VERSION 2.0
 WRAP.                   NO:   One line per depth step
~Well Information Block
#MNEM.UNIT     VALUE/NAME     DESCRIPTION
#---------     -----------    ---------------------------
 STRT.M              5223.0528: START DEPTH
 STOP.M              5536.2348: STOP DEPTH
 STEP.M                 0.1524: STEP DEPTH
 NULL.               -999.2500: NULL VALUE
 DFWT.                        :  DIST FWL TEXT
 DFST.                        :  DIST FSL TEXT
 DMF .             Drill Floor:  DRILL MEAS FROM
 STIM.      11.30.00 09-Jul-16:  START TIME
 DATE.      11.29.04 14-Aug-16:  END TIME
 SPUD.               17-Aug-15:  SPUD DATE
 NREF.                    Grid:  NORTH REFERENCE
 HPTY.       Minimum Curvature:  HOLE POS TYPE
 DMOD.             Drill Model:  DRILL MOD DESC
 SVYD.                  Survey:  SURVEY DESC
 ILTD.               Lithology:  INTERP LTH DESC
 FTOP.          Formation Tops:  FORM TOPS DESC
 WELL.              AF011-3D-1:  WELL NAME
 COMP.               TOTAL-ABK:  COMPANY
 SON .        AD-XX-0902156848:  JOB NUMBER
 GCDE.     Generic Lat/Long's, Degrees, -180 ==> +180:  GEO COORD DESC
 CCDE.     UTM Clarke 1880 (CM 51), Meters:  CART COORD DESC
 GGSY.                      LL:  GEO GRID SYS
 CGSY.               SS CLRK51:  CART GRID SYS
 GREF.     Ellipsoid World Geodetic System :  GEO REFERENCE
 CREF.     Ellipsoid Clarke - 1880:  CART REFERENCE
 MMDL.            bggm2016.dat:  MAGNETIC MODEL
 MMDD.            20 May, 2016:  MAG DATA DATE
 MDS .              Win MagUTM:  MAG DATA SOURCE
 LLGR.      Latitude/Longitude:  LLGROUP
 XYGR.     UTM Zones, Northern Hemisphere, Meters:  XYGROUP
 PDAT.          Mean Sea Level:  PERMANENT DATUM
 WTYP.                Deviated:  WELL TYPE
 BASE.               Abu Dhabi:  LOGGING EQUIPMENT BASE LOCATION
 REGN.     Middle East/North Africa:  REGION
 PROV.               Abu Dhabi:  PROVINCE
 STAT.               Abu Dhabi:  STATE NAME
 CTRY.     United Arab Emirates:  COUNTRY NAME
 FLD .         Abu Al Bukhoosh:  FIELD NAME
 SRVC.                  SAIPEM:  CONTRACTOR
 MWDS.                Musaffah:  MWD SHOP
 RIG .           Perro Negro 8:  RIG NAME
 CNTY.               Abu Dhabi:  COUNTY NAME
 DCON.             HALLIBURTON:  DIRECTNL CONTR
 UNIT.                    9804:  LOGGING EQUIPMENT ID
 DOE .        AD-XX-0902156848:  DOE NUMBER
 API .                        :  API NUMBER
 UWI .                        :  UNIQUE WELL IDENTIFIER
 LOC .                        :  LOCATION
 LMF .             Drill Floor:  LOG MEASURED FROM
 TVDS.m              43.899999:  TVDSS CORRECTN
 LATI.deg            25.504513:  LATITUDE
 LONG.deg            53.120396:  LONGITUDE
 WHNS.m               0.000000:  WELL HEAD N/S
 WHEW.m               0.000000:  WELL HEAD E/W
 UTMX.m          713123.300043:  UTM X
 UTMY.m         2822281.299893:  UTM Y
 DFWL.m               0.000000:  DISTANCE FWL
 DFSL.m               0.000000:  DISTANCE FSL
 SDEP.m            5253.990000:  START DEPTH
 TDD .m            5543.669658:  TOTAL DEPTH (DRILLER)
 VSDR.deg           249.940002:  VERT SEC DIRECT
 GVFD.g               1.000000:  GRAVITY FIELD
 MFLD.nT          43940.839844:  MAGNETIC FIELD
 MDIP.deg            39.918472:  MAGNETIC DIP
 MDEC.deg             2.250056:  MAGNETIC DECL
 GRDC.deg             0.913350:  GRID CORRECTION
 AZTC.deg             1.336706:  AZM TOTAL CORR
 EPD .m               0.000000:  ELEVATION
 EGL .m             -45.400001:  GROUND ELEVATION
 WDMS.m              45.400001:  WD ELEV
 APD .m              43.899999:  DEPTH ABOVE PD
 MMDE.m               0.000000:  MAGUTM CALC DEP
 CMER.deg            51.000000:  CENTRL MERIDIAN
 AGAP.m              23.099999:  AIR GAP
 EKB .m              43.899999:  KB ELEVATION
 EDF .m              43.899999:  DF ELEVATION
 VSC .                       0:  VS TO CLOSURE
 MAGU.                 1527179:  MAGUTM CHECKSUM
~Parameter Information Block
#MNEM.UNIT       Value        Description
#---------     -----------    ---------------------------
 AV  .mps             1.500000:  Ann Velocity 
 AVMX.mps             2.400000:  Max Ann Veloc 
 AZIF.deg           257.739990:  Azm, Final 
 BHAT.                 Turbine:  BHA Type 
 BROT.°/100'          0.000000:  Build Rotating 
 BS  .in              8.500000:  Bit Size 
 BSZ .in              8.500000:  Bit Size 
 BTPL.psig           43.511005:  Bit Press Loss 
 CABU.                      No:  Customer Abuse 
 TCS .hr            149.515671:  Time Ciculation Ended 
 CV  .mps             3.000000:  Crit Velocity 
 CVMX.mps             4.000000:  Max Crit Veloc 
 DD1 .            Ahmed Bayoud:  Direct Drillr 1 
 DD2 .        Hany Abdel Hafez:  Direct Drillr 2 
 DDSV.                 Turbine:  DD Service 
 DEFF.%              98.000000:  % Det Eff 
 DLRX.°/100'          0.000000:  Dogleg Rot Max 
 DLSO.°/100'          0.000000:  Dogleg Oriented 
 DLSX.°/100'          0.000000:  Dogleg Str Max 
 DRET.      12.28.32 23-Jun-16:  Drill End Time 
 DRST.      14.30.00 17-Jun-16:  Drill Start Tim 
 DTIM.hr            102.349998:  Time Drilling 
 EDEP.m            5254.000000:  End Depth 
 ENG1.         Ahmed Montasser:  Engineer 1 
 ENG2.              Do Dang Sa:  Engineer 2 
 ENG3.           Khaled Khalaf:  Engineer 3 
 ENG4.         Muhammad Mubeen:  Engineer 4 
 ETIM.      05.40.54 26-Jun-16:  End Time 
 FLOI.lpm          1800.000122:  Flow In 
 FLON.lpm          1500.000000:  Flow In Min 
 FLOS.lpm             0.000000:  Fluid Loss 
 FLOX.lpm          1800.000122:  Flow In Max 
 DFT .                   Other:  Mud Type 
 HFLO.                      No:  High Flow 
 HPRE.                      No:  High Pressure 
 HTEM.                      No:  High Temp 
 HYDO.m               1.400000:  Hydro Offset 
 IFIN.deg            10.460000:  Inc, Final 
 IMAX.deg            32.367214:  Inc Max 
 IMIN.deg            11.447388:  Inc Min 
 IMND.m            5236.799805:  Inc Min Depth 
 IMXD.m            4790.299805:  Inc Max Depth 
 JARR.                      No:  Jarring 
 LETM.      12.28.32 23-Jun-16:  Log End Time 
 LOST.hr                     0:  Lost Rig Time 
 LSTM.      14.30.00 17-Jun-16:  Log Start Time 
 MDCL.ppm         23000.000000:  Mud Chlorides 
 MDES.             Fresh Water:  Mud Desc 
 DFD .g/c3            1.170004:  Mud Density 
 MDMN.g/c3            1.160004:  Dens Mud Min 
 MDMX.g/c3            1.170004:  Dens Mud Max 
 PH  .pH              9.400000:  Mud pH 
 MOIL.                       0:  Run Mud Oil % 
 MOWR.                    1 91:  Run Mud OWR 
 MSND.                     0.1:  Run Mud Sand % 
 MSOL.                     6.2:  Run Mud Solids% 
 DFV .spl            73.000000:  Mud Viscosity 
 MWOD.in              6.750000:  MWD Tool OD 
 MWSI.                      No:  Serv Intrp, MWD 
 OTIM.hr            238.111023:  Time Operating 
 PMAX.psig         4000.000000:  Press Op, Max 
 PV  .mPsec          36.000000:  Mud PV 
 RMS .ohmm            0.299000:  Mud Resistivity 
 RMCS.ohmm            0.397000:  Mud Cake Resistivity 
 MCST.degC           35.000000:  Mud Cake Sample Temperature 
 RMFS.ohmm            0.200000:  Mud Filtrate Resistivity 
 RMFT.degC           35.000000:  Mud Filtrate Sample Temperature 
 RMMT.ohmm            0.118100:  Rm @ Max Temp 
 MST .degC           35.000000:  Mud Sample Temperature 
 RUN .                    3300:  Run Number 
 ROPA.m/hr            4.450000:  ROP Avg 
 ROPN.m/hr            2.000000:  ROP Min 
 ROPX.m/hr            7.000000:  ROP Max 
 RPMA.rpm            78.000000:  RPM Surface Avg 
 RPMN.rpm            35.000000:  RPM Surface Min 
 RPMX.rpm            80.000000:  RPM Surface Max 
 RRUN.                    3300:  Rig Run Number 
 RTIM.hr              7.150000:  Time Reaming 
 SAZI.deg           249.699997:  Azm, Start 
 SDEP.m            4799.000000:  Start Depth 
 SIDD.                      No:  Serv Intrp, DD 
 SINC.deg            30.049999:  Inc, Start 
 SPPA.psig         4543.999023:  SPP Avg 
 SPPN.psig         4264.078613:  SPP Min 
 SPPX.psig         4641.173828:  SPP Max 
 STIM.      09.00.00 16-Jun-16:  Start Time 
 SVCS.                 DD, MWD:  Services 
 SVER.                8.300000:  Sperry Version 
 TDAT.m             455.000000:  Tot Depth Attmp 
 TDDF.                      No:  Trip for DD 
 TDLG.m             455.000000:  Tot Depth Loggd 
 TFF .                      No:  Trip for Fail 
 TQAA.f-p         37070.000000:  Torque Abs Avg 
 TQAN.f-p         35000.000000:  Torque Abs Min 
 TQAX.f-p         39000.000000:  Torque Abs Max 
 TRRT.°/100'          0.000000:  Turn Rotating 
 MRT .                     PWD:  Maximum Recorded Temperature 
 TTMX.degC          121.568352:  Max Tool Temp 
 VS01.     AD90473258H2V5WGV2COXF1(6):  Virtual Str1 SN 
 WBMN.klb             4.409245:  WOB Min 
 WITN.           Roger Butters:  Customer Rep 
 WOBA.klb             9.788525:  WOB Avg 
 WOBX.klb            13.227736:  WOB Max 
 YP  .pa             43.000000:  Yield Point 
~Curve Information Block
#MNEM.UNIT                 API CODE     Curve Description
#---------               -----------    ---------------------------
 DEPT.M                 00 000 000 000:  Depth
 DGRCC.api              00 000 000 000:  DGR Comb Gamma Ray BCorr
 ALHSI.in               00 000 000 000:  ALD Hole Size Indicator
 ABR .ohmm              00 000 000 000:  At-Bit Resistivity
 AFRSA.ohmm             00 000 000 000:  AFR Shallow Avg Res
 AFRMA.ohmm             00 000 000 000:  AFR Medium Avg Res
 AFRDA.ohmm             00 000 000 000:  AFR Deep Avg Res
 AFXT.hr                00 000 000 000:  AFR Form Exp Time
 ALCDLC.g/c3            00 000 000 000:  ALD LCRB Comp Density
 ALPELC.NONE            00 000 000 000:  ALD LCRB Pe Factor
 ALDCLC.g/c3            00 000 000 000:  ALD LCRB Den Correction
 TNPL.pu                00 000 000 000:  CTN Porosity Limestone
 DTC .uspf              00 000 000 000:  BAT DTC
 DTRS.uspf              00 000 000 000:  BAT Refracted Shear
 VPVS.NONE              00 000 000 000:  BAT VP/VS
#Other Information
#
#WARRANTY: Halliburton will use its best efforts to furnish customers with 
#accurate information and interpretations that are part of, and incident to, the services 
#provided.  However, Halliburton cannot and does not warrant the accuracy 
#or correctness of such information and interpretations.  Under no circumstances should any 
#such information or interpretation be relied upon as the sole basis for any drilling, 
#completion, production, or financial decision or any procedure involving any risk to the 
#safety of any drilling venture, drilling rig or its crew or any other third party.  The 
#Customer has full responsibility for all drilling, completion and production operation.  
#Halliburton makes no representations or warranties, either expressed or 
#implied, including, but not limited to, the implied warranties of merchantability or fitness 
#for a particular purpose, with respect to the services rendered.  In no event will 
#Halliburton be liable for failure to obtain any particular results or for 
#any damages, including, but not limited to, indirect, special or consequential damages, 
#resulting from the use of any information or interpretation provided by Halliburton.
#
~A   DEPT      DGRCC     ALHSI      ABR      AFRSA     AFRMA     AFRDA     AFXT     ALCDLC    ALPELC    ALDCLC     TNPL       DTC      DTRS      VPVS    
# ...
   5328.0564  101.2449    6.9186   10.5148    0.3875    5.9740    8.5011   32.6068    1.7314   15.1625   -0.0087   68.5292   65.1020  119.6167    1.8396
   5328.2088   92.8294    9.0019   10.4580    0.3815    5.9172    8.2313   32.6169    1.7015   14.9930   -0.0238   68.6776   64.1452  119.7214    1.8729
   5328.3612   90.5639    8.9812   10.3929    0.4112    5.8298    8.5171   32.6271    1.6928   14.6248   -0.0313   66.5988   63.6065  119.2767    1.8785
   5328.5136   86.9785    9.3061   10.3207    0.4879    5.7891    9.0827   32.6373    1.7626   14.0222   -0.0148   63.5803   64.0801  119.4389    1.8654
   5328.6660   87.9348   12.3941   10.2203    0.6418    6.3218   10.3699   32.6475    1.9158   12.9549    0.0330   57.6272   65.4708  119.0380    1.8195
   5328.8184   89.0971   10.5264   10.1129    0.9278    8.0674   13.3445   32.6576    2.1322   10.7889    0.0768   53.4952   65.7949  120.3983    1.8310
   5328.9708   90.0651    9.2784   10.0466    1.3891   10.9804   17.2641   32.6678    2.3653    9.7623    0.1524   47.3764   64.9890  121.5374    1.8732
   5329.1232   89.9643    9.4555   10.0340    1.8417   13.4370   18.8599   32.6780    2.4652   11.1567    0.2443   42.8579   62.9026  121.7421    1.9423
   5329.2756   88.9194    9.4791   10.0947    1.9754   13.8662   17.7617   32.6881    2.3201   12.5092    0.2101   40.8793   64.7084  121.7150    1.8854
   5329.4280  101.0754   10.0018   10.2223    2.0209   13.2031   15.8996   32.6983    2.1670   13.3898    0.1655   41.6159   66.0954  125.8381    1.9049
   5329.5804  115.8948   10.0134   10.3717    2.2106   13.3482   15.4718   32.7084    2.1399   12.4579    0.1447   43.5687   66.2555  131.7769    1.9891
   5329.7328  110.3254    8.9762   10.5820    2.7014   14.7578   16.5728   32.7185    2.2226   11.0161    0.1361   43.3138   65.9548  133.5816    2.0255
   5329.8852  111.6008    8.4072   10.9157    3.8441   16.5486   17.9453   32.7287    2.3507    9.2215    0.1315   40.3547   65.5349  130.7588    1.9956
   5330.0376  112.5299    7.6819   11.2776    5.9234   19.3325   20.4511   32.7389    2.4149    7.5674    0.0863   34.9797   65.2507  122.3371    1.8760
   5330.1900  120.8449    6.9109   11.6417    9.3685   25.3754   26.9189   32.7491    2.4277    5.7264    0.0224   29.4599   65.3963  114.3027    1.7526
   5330.3424  117.0442    6.6076   12.0244   14.6075   35.1013   38.1004   32.7593    2.4493    4.6654    0.0084   22.8898   65.7678  110.0186    1.6795
   5330.4948  106.4932    6.6006   12.4406   20.8446   46.7848   51.3562   32.7692    2.4581    4.3654    0.0156   14.8474   65.5116  106.3394    1.6149
   5330.6472   77.9815    6.5741   12.9036   26.8400   56.6621   60.8029   32.7789    2.4396    4.7452    0.0303    9.9655   64.9892  101.2478    1.5517
   5330.7996   46.2868    6.4444   13.4311   31.9452   58.9714   60.5899   32.7885    2.4294    5.0511    0.0333    8.6302   63.8118   98.3306    1.5409
   5330.9520   32.1999    6.4055   13.9437   36.0550   57.6949   58.8196   32.7980    2.4578    5.0206    0.0459    8.7199   62.2451   94.4239    1.5176
   5331.1044   28.6131    6.4059   14.4588   40.4538   62.3689   63.9535   32.8075    2.4585    5.0511    0.0517    8.8998   60.7676   92.6530    1.5263
   5331.2568   32.9028    6.3974   15.0613   44.1630   72.4247   74.1719   32.8172    2.4467    4.8300    0.0340    8.0852   61.3728   93.0379    1.5174
   5331.4092   27.7435    6.3977   15.7095   45.9989   82.2697   84.1128   32.8267    2.4353    4.7485    0.0265    6.9292   61.5649   93.7608    1.5233
   5331.5616   22.0603    6.3455   16.3740   47.3826   89.7437   93.4990   32.8362    2.4343    4.3896    0.0174    6.2236   61.7186   95.9845    1.5555
   5331.7140   16.5732    6.2295   17.1358   50.6205   98.9162  106.6075   32.8458    2.4463    4.3567    0.0241    6.1659   61.2647  100.4180    1.6396
   5331.8664   17.7259    6.1541   17.9377   57.3218  116.6157  127.1290   32.8554    2.4585    4.7852    0.0406    6.3507   60.9334  102.0418    1.6748
   5332.0188   17.6518    6.2027   18.4675   69.0560  141.8132  153.8038   32.8650    2.4658    4.9111    0.0507    5.9269   61.3117  102.1170    1.6661
   5332.1712   18.3657    6.2298   18.5780   82.8995  164.1096  176.9778   32.8746    2.4739    5.2555    0.0519    5.4470   61.7793   99.2469    1.6082
   5332.3236   19.8070    6.1698   18.4304   86.4925  163.6286  176.4560   32.8846    2.4682    5.6488    0.0421    5.4298   61.8843   92.1868    1.4908
   5332.4760   20.9774    6.1845   18.1511   80.1119  143.9498  156.7743   32.9274    2.4830    5.7759    0.0394    5.8289   61.4114   90.5120    1.4744
   5332.6284   25.1016    6.0654   17.8485   76.2278  125.7037  136.8291   33.0506    2.4939    5.7171    0.0351    6.2762   60.7849   94.1334    1.5491
   5332.7808   24.2244    6.0637   17.5855   75.7400  115.5494  124.8626   33.0803    2.5141    5.6521    0.0500    6.3326   60.6268   95.7738    1.5799
   5332.9332   25.1459    6.0522   17.3240   81.4166  121.6336  129.3349   32.9624    2.5150    5.3291    0.0510    5.8889   61.1367   95.8011    1.5672
   5333.0856   23.3412    5.9376   17.0702  100.0581  156.7728  160.9647   32.9358    2.5038    5.0778    0.0307    5.0463   61.0069   94.7578    1.5532
   5333.2380   17.0057    5.8746   16.7759  131.4854  217.0003  214.6153   32.9462    2.5120    4.5721    0.0202    4.4855   60.2166   92.8926    1.5427
   5333.3904   12.1576    5.8790   16.4192  150.5957  237.7743  231.5565   32.9779    2.5278    4.1527    0.0214    4.1338   59.5136   90.9584    1.5284
   5333.5428   11.3739    5.8774   16.1822  132.7425  185.3301  181.6353   33.0629    2.5304    4.1593    0.0212    4.0796   58.9624   88.1726    1.4954
   5333.6952   12.0120    5.9252   16.1632  125.1820  157.6205  162.0413   33.0215    2.5337    4.6373    0.0294    3.8211   57.7963   85.9818    1.4881
   5333.8476   10.1904    6.0013   16.4173  157.5752  195.1668  208.7489   32.9972    2.5528    5.0783    0.0424    3.3768   56.5825   84.6841    1.4980
   5334.0000    8.9506    6.0481   16.9046  204.5971  275.2567  287.6179   32.9974    2.5566    5.1779    0.0485    3.1362   55.5052   83.2006    1.5005
   5334.1524   10.0520    6.1535   17.4788  212.1554  324.9284  330.0338   33.0077    2.5560    5.2447    0.0569    3.2044   54.3283   81.4923    1.5002
   5334.3048   11.3849    6.2741   18.0844  157.7984  266.2848  288.3562   33.0180    2.5353    4.9754    0.0515    3.4394   54.7081   85.9671    1.5715
   5334.4572   15.1349    6.4081   18.7216  110.4059  186.8748  230.5260   33.0283    2.5113    4.7580    0.0488    3.9206   55.1844   89.6783    1.6270
   5334.6096   16.5486    6.3615   19.4422   83.4757  153.6178  189.9859   33.0385    2.4811    4.7416    0.0376    4.4118   58.3952   91.2784    1.5658
   5334.7620   16.8758    6.3495   20.2760   68.8896  153.9512  171.5737   33.0487    2.4628    4.5636    0.0295    4.7119   60.9859   93.4698    1.5333
   5334.9144   13.9067    6.3627   21.3238   62.8728  158.7915  170.9313   33.0590    2.4458    4.3286    0.0184    4.9408   61.6908   95.0231    1.5403
   5335.0668   13.7992    6.2714   22.6109   62.6634  162.3462  173.7772   33.0693    2.4164    4.1775    0.0004    5.2809   61.3864   95.1272    1.5497
   5335.2192   13.4031    6.1616   24.1275   65.1063  157.2010  177.4348   33.0796    2.4120    4.0947   -0.0031    5.6042   60.8521   95.0519    1.5621
   5335.3716   15.0547    6.2264   25.9884   67.6933  149.3674  170.0074   33.0898    2.4505    4.1088    0.0133    5.9201   60.4047   96.0466    1.5902
   5335.5240   20.5304    6.3003   28.1118   68.9829  134.6053  146.2460   33.1185    2.4803    4.3374    0.0320    6.2813   59.7001   96.3715    1.6144
   5335.6764   28.2975    6.2994   30.3007   65.3486  101.5544  108.3008   33.1925    2.4889    4.8028    0.0494    7.2331   59.4767   96.6498    1.6250
   5335.8288   37.0211    6.4181   32.6097   55.7830   69.2384   73.3016   33.1586    2.5118    5.3181    0.0769    8.0340   59.6339   97.1260    1.6289
   5335.9812   45.9977    6.2368   34.8308   48.1011   52.0550   55.2943   33.1393    2.4740    4.7492    0.0487    8.9279   60.7016   97.6466    1.6092
