~Version Information
 VERS.                  2.0:   CWLS log ASCII Standard -VERSION 2.0
 WRAP.                   NO:   One line per depth step
~Well Information Block
#MNEM.UNIT     VALUE/NAME     DESCRIPTION
#---------     -----------    ---------------------------
 STRT.F             10112.0000: START DEPTH
 STOP.F             11135.0000: STOP DEPTH
 STEP.F                 0.5000: STEP DEPTH
 NULL.               -999.2500: NULL VALUE
 UNIT.                12318515:  LOGGING EQUIPMENT ID
 CNTY.             HAIR DALMAH:  COUNTY NAME
 JOBN.        AD-XX-0905995035:  JOB TICKET NUMB
 FLD .             HAIR DALMAH:  FIELD NAME
 PDAT.          Mean Sea Level:  PERMANENT DATUM
 RIG .                     PN8:  RIG NAME
 MWDS.                    ICAD:  MWD SHOP
 CTRY.     United Arab Emirates:  COUNTRY NAME
 REGN.     Middle East/North Africa:  REGION
 BASE.               Abu Dhabi:  LOGGING EQUIPMENT BASE LOCATION
 WTYP.                Deviated:  WELL TYPE
 XYGR.     UTM Zones, Northern Hemisphere, Meters:  XYGROUP
 LLGR.      Latitude/Longitude:  LLGROUP
 MDS .              Win MagUTM:  MAG DATA SOURCE
 MMDD.       05 December, 2019:  MAG DATA DATE
 MMDL.            bggm2019.dat:  MAGNETIC MODEL
 CREF.     Ellipsoid Clarke - 1880:  CART REFERENCE
 GREF.     Ellipsoid World Geodetic System :  GEO REFERENCE
 CGSY.               SS CLRK51:  CART GRID SYS
 GGSY.                      LL:  GEO GRID SYS
 CCDE.     UTM Clarke 1880 (CM 51), Meters:  CART COORD DESC
 GCDE.     Generic Lat/Long's, Degrees, -180 ==> +180:  GEO COORD DESC
 SON .        AD-XX-0905995035:  JOB NUMBER
 COMP.          ADNOC Offshore:  COMPANY
 WELL.               HD011-02D:  WELL NAME
 FTOP.          Formation Tops:  FORM TOPS DESC
 ILTD.               Lithology:  INTERP LTH DESC
 SVYD.                  Survey:  SURVEY DESC
 DMOD.             Drill Model:  DRILL MOD DESC
 HPTY.       Minimum Curvature:  HOLE POS TYPE
 NREF.                    Grid:  NORTH REFERENCE
 SPUD.               17-Feb-20:  SPUD DATE
 DATE.      06.00.00 09-Apr-20:  END TIME
 STIM.      11.40.00 06-Apr-20:  START TIME
 DMF .             Drill Floor:  DRILL MEAS FROM
 DFST.                        :  DIST FSL TEXT
 DFWT.                        :  DIST FWL TEXT
 PROV.               Abu Dhabi:  PROVINCE
 STAT.               Abu Dhabi:  STATE NAME
 API .                        :  API NUMBER
 SRVC.             Halliburton:  SERVICE COMPANY
 UWI .                        :  UNIQUE WELL IDENTIFIER
 LOC .                        :  LOCATION
 LMF .             Drill Floor:  LOG MEASURED FROM
 DEP .ft              0.000000:  DEPTH
 AGAP.ft            118.000000:  AIR GAP
 CMER.deg            51.000000:  CENTRL MERIDIAN
 MMDE.ft              0.000000:  MAGUTM CALC DEP
 APD .ft            118.000000:  DEPTH ABOVE PD
 WDMS.ft             65.000000:  WD ELEV
 EGL .ft              0.000000:  GROUND ELEVATION
 EPD .ft              0.000000:  ELEVATION
 AZTC.deg             1.750428:  AZM TOTAL CORR
 GRDC.deg             0.592532:  GRID CORRECTION
 MDEC.deg             2.342959:  MAGNETIC DECL
 MDIP.deg            38.394272:  MAGNETIC DIP
 MFLD.nT          43612.476563:  MAGNETIC FIELD
 GVFD.g               1.000000:  GRAVITY FIELD
 VSDR.deg            91.860001:  VERT SEC DIRECT
 TDD .ft          11135.000000:  TOTAL DEPTH (DRILLER)
 SDEP.ft          10171.000000:  START DEPTH
 DFSL.ft              0.000000:  DISTANCE FSL
 DFWL.ft              0.000000:  DISTANCE FWL
 UTMY.m         2710911.810000:  UTM Y
 UTMX.m          644702.250000:  UTM X
 WHEW.ft              0.000000:  WELL HEAD E/W
 WHNS.ft              0.000000:  WELL HEAD N/S
 LONG.deg            52.428197:  LONGITUDE
 LATI.deg            24.507246:  LATITUDE
 TVDS.ft            118.000000:  TVDSS CORRECTN
 EKB .ft            118.000000:  KB ELEVATION
 EDF .ft            118.000000:  DF ELEVATION
 MAGU.                 1512580:  MAGUTM CHECKSUM
 VSC .                       0:  VS TO CLOSURE
~Parameter Information Block
#MNEM.UNIT       Value        Description
#---------     -----------    ---------------------------
 AV  .fpm             1.000000:  Ann Velocity 
 AVMX.fpm             1.000000:  Max Ann Veloc 
 AZIF.deg            83.830002:  Azm, Final 
 BHAT.               Mud Motor:  BHA Type 
 BS  .in             14.500000:  Bit Size 
 BSZ .in             14.500000:  Bit Size 
 BTPL.psig            1.000000:  Bit Press Loss 
 CABU.                      No:  Customer Abuse 
 CGEO.             Carey Mills:  Customer Geo 
 COMM.                     t i:  Run Comments 1 
 TCS .hr             83.600342:  Time Ciculation Ended 
 CV  .fpm             1.000000:  Crit Velocity 
 CVMX.fpm             1.000000:  Max Crit Veloc 
 DD1 .          Devinder Kumar:  Direct Drillr 1 
 DD2 .     Mohamed Gayed Barakat:  Direct Drillr 2 
 DDSV.               Mud Motor:  DD Service 
 DEFF.%              90.000000:  % Det Eff 
 DRET.      06.15.00 04-Apr-20:  Drill End Time 
 DRST.      13.57.20 31-Mar-20:  Drill Start Tim 
 DTIM.hr             56.449772:  Time Drilling 
 EDEP.ft          10171.000000:  End Depth 
 ENG1.           Denis Sobolev:  Engineer 1 
 ENG2.            Imad Youssef:  Engineer 2 
 ETIM.      23.30.00 06-Apr-20:  End Time 
 FLOI.gpm           999.999939:  Flow In 
 FLON.gpm           964.999939:  Flow In Min 
 FLOS.mptm            2.600000:  Fluid Loss 
 FLOX.gpm          1100.000000:  Flow In Max 
 DFT .                 Polymer:  Mud Type 
 HFLO.                      No:  High Flow 
 HPRE.                      No:  High Pressure 
 HTEM.                      No:  High Temp 
 HYDO.ft              0.000000:  Hydro Offset 
 IFIN.deg            26.030001:  Inc, Final 
 IMAX.deg            26.559999:  Inc Max 
 IMIN.deg            24.139999:  Inc Min 
 IMND.ft           9477.000000:  Inc Min Depth 
 IMXD.ft           9942.000000:  Inc Max Depth 
 JARR.                      No:  Jarring 
 LETM.      23.30.00 06-Apr-20:  Log End Time 
 LOST.hr                     0:  Lost Rig Time 
 LSTM.      13.57.20 31-Mar-20:  Log Start Time 
 MDCL.ppm        150000.000000:  Mud Chlorides 
 MDES.             Fresh Water:  Mud Desc 
 DFD .ppg            12.000000:  Mud Density 
 MDMN.ppg            12.000000:  Dens Mud Min 
 MDMX.ppg            12.000000:  Dens Mud Max 
 PH  .pH             10.300000:  Mud pH 
 MOIL.                      19:  Run Mud Oil % 
 MOWR.                   19 81:  Run Mud OWR 
 MSND.                       0:  Run Mud Sand % 
 MSOL.                      19:  Run Mud Solids% 
 MTV .                GeoForce:  Motor Variant 
 DFV .spqt           51.000000:  Mud Viscosity 
 MWOD.in              8.150000:  MWD Tool OD 
 MWSI.                      No:  Serv Intrp, MWD 
 OTIM.hr            106.542305:  Time Operating 
 PMAX.psig         6850.255859:  Press Op, Max 
 PV  .cP             21.000000:  Mud PV 
 RMS .ohmm            0.039000:  Mud Resistivity 
 RMCS.ohmm            0.059000:  Mud Cake Resistivity 
 MCST.degF           80.000000:  Mud Cake Sample Temperature 
 RMFS.ohmm            0.030000:  Mud Filtrate Resistivity 
 RMFT.degF           80.000000:  Mud Filtrate Sample Temperature 
 RMMT.ohmm            0.018000:  Rm @ Max Temp 
 MST .degF           80.000000:  Mud Sample Temperature 
 RUN .                    2300:  Run Number 
 RRUN.                    2300:  Rig Run Number 
 SAZI.deg           101.400002:  Azm, Start 
 SDEP.ft           9467.000000:  Start Depth 
 SIDD.                      No:  Serv Intrp, DD 
 SINC.deg            24.139999:  Inc, Start 
 STIM.      13.57.20 31-Mar-20:  Start Time 
 SVER.                9.200000:  Sperry Version 
 TDAT.ft            704.000000:  Tot Depth Attmp 
 TDDF.                      No:  Trip for DD 
 TDLG.ft            704.000000:  Tot Depth Loggd 
 TFF .                      No:  Trip for Fail 
 MRT .                     PWD:  Maximum Recorded Temperature 
 TTMX.degF          181.000000:  Max Tool Temp 
 VS01.           F1(8)90603244:  Virtual Str1 SN 
 VS02.     H2V5WGV2R(8)90604159:  Virtual Str2 SN 
 WITN.     Mohamed Sharaf el Din:  Customer Rep 
 YP  .lhf2           29.000000:  Yield Point 
~Curve Information Block
#MNEM.UNIT                 API CODE     Curve Description
#---------               -----------    ---------------------------
 DEPT.F                 00 000 000 000:  Depth
 RPTVD.ft               00 000 000 000:  ROP True Vertical Depth
 ROPA.fph               00 000 000 000:  Avg Rate of Penetration
 DGRCC.api              00 000 000 000:  DGR Comb Gamma Ray BCorr
 EWXT.hr                00 000 000 000:  EWR Formation Exp Time
 R15P.ohmm              00 000 000 000:  EWR Shallow Phase Res
 R15A.ohmm              00 000 000 000:  EWR Shallow Atten Res
 R27P.ohmm              00 000 000 000:  EWR Medium Phase Res
 R27A.ohmm              00 000 000 000:  EWR Medium Atten Res
 R39P.ohmm              00 000 000 000:  EWR Deep Phase Res
 R39A.ohmm              00 000 000 000:  EWR Deep Atten Res
 ABR .ohmm              00 000 000 000:  At-Bit Resistivity
 AFRSA.ohmm             00 000 000 000:  AFR Shallow Avg Res
 AFRDA.ohmm             00 000 000 000:  AFR Deep Avg Res
 AFXT.hr                00 000 000 000:  AFR Form Exp Time
#Other Information
#
#WARRANTY: Halliburton will use its best efforts to furnish customers with 
#accurate information and interpretations that are part of, and incident to, the services 
#provided.  However, Halliburton cannot and does not warrant the accuracy 
#or correctness of such information and interpretations.  Under no circumstances should any 
#such information or interpretation be relied upon as the sole basis for any drilling, 
#completion, production, or financial decision or any procedure involving any risk to the 
#safety of any drilling venture, drilling rig or its crew or any other third party.  The 
#Customer has full responsibility for all drilling, completion and production operation.  
#Halliburton makes no representations or warranties, either expressed or 
#implied, including, but not limited to, the implied warranties of merchantability or fitness 
#for a particular purpose, with respect to the services rendered.  In no event will 
#Halliburton be liable for failure to obtain any particular results or for 
#any damages, including, but not limited to, indirect, special or consequential damages, 
#resulting from the use of any information or interpretation provided by Halliburton.
#
~A    DEPT      RPTVD      ROPA      DGRCC     EWXT      R15P      R15A      R27P      R27A      R39P      R39A       ABR       AFRSA      AFRDA      AFXT    
# ...
   10188.5000  9286.2363   17.2015   10.6373    3.0114   22.9330   13.1258   34.7496  200.0000  226.2015  200.0000  1435.9988   832.6797  1479.1990    2.0573
   10189.0000  9286.6924   18.5307   12.6909    3.0120   15.5044   13.4400   23.5544  200.0000   72.7158  200.0000   979.2770   273.5181   479.9280    2.0803
   10189.5000  9287.1426   19.7206   15.6073    3.0139   14.7771   81.6513   23.9269  200.0000  118.2139  200.0000   780.5687   128.9949   145.1112    2.2742
   10190.0000  9287.5889   19.7835   16.2541    2.9804   16.4736  113.0379   30.0158  200.0000  185.2046  200.0000   746.6287   102.0129    91.4090    2.2909
   10190.5000  9288.1992   13.7386   12.6844    2.8102   18.7835   68.2699   40.4415  200.0000  258.2785  200.0000   743.2225   147.1535   159.4582    2.1251
   10191.0000  9288.3701    8.6064   10.7123    2.6353   17.2372   12.9524   38.5164  200.0000  132.6597  200.0000   741.9034  1707.1147  1979.8611    1.9591
   10191.5000  9288.9277    1.4668   10.4891    2.5981  274.7355    7.4899  430.6144  200.0000  655.3174  200.0000   737.0074 15320.5244 16010.2158    1.9267
   10192.0000  9289.3740   16.2796   10.0831    2.5954 1742.0654    6.8661 1839.9938  200.0000 1914.7683  200.0000   736.8608 20000.0000 20000.0000    1.9297
   10192.5000  9289.8066   21.6881   11.0112    2.5976 1148.9025    8.5643 1352.8916  200.0000 1934.4097  200.0000   736.5375 19864.3945 20000.0000    1.9368
   10193.0000  9290.2637   24.6950   11.0069    2.6030  111.6487    9.7590  437.2481  200.0000 1275.2007  200.0000   735.3318 18803.5918 20000.0000    1.9455
   10193.5000  9290.7100   28.5197   11.2928    2.6117   35.2493   12.2257  112.7861  200.0000  344.4469  200.0000   733.1135 11680.3701 14977.8467    1.9571
   10194.0000  9291.1729   30.6849   10.7862    2.6208   28.9334   11.1928   59.8514  200.0000  144.3417  200.0000   703.0520  2539.0256  4876.2529    1.9693
   10194.5000  9291.6279   30.9325   12.3887    2.6293   30.7377    9.6470   53.1756  200.0000   95.7827  200.0000   521.8416   263.1626   388.3292    1.9806
   10195.0000  9292.0586   29.4415   12.2937    2.6378   25.2714    8.3488   40.5828  200.0000   73.9058  200.0000   456.0573    93.2442    96.8742    1.9922
   10195.5000  9292.5010   29.0702   12.4559    2.6468   21.5564   11.1328   35.7550  200.0000   74.7856  200.0000   450.1308   199.2016   268.7439    2.0041
   10196.0000  9292.9521   31.0579   16.0629    2.6564   19.7556   14.2150   30.9968  200.0000   61.8442  200.0000   378.2133   156.0025   356.5440    2.0169
   10196.5000  9293.3994   33.2787   17.8837    2.6669   15.2972   15.7282   21.7919  200.0000   44.1370  200.0000   288.6394    48.5757   119.2470    2.0308
   10197.0000  9293.8477   34.5723   20.3820    2.6780   12.5149   14.6971   17.5875  200.0000   35.9311  200.0000   271.4883    31.6293    58.0148    2.0451
   10197.5000  9294.2822   35.8612   17.7390    2.6905   13.0275   11.2010   20.6577  200.0000   42.7721  200.0000   268.0752    29.6873    46.1598    2.0604
   10198.0000  9294.7275   39.5176   10.4385    2.7032   14.2875   13.7483   26.2267  200.0000   74.0509  200.0000   267.6681    52.0804    75.8140    2.0763
   10198.5000  9295.2285   45.2531    8.8836    2.7159   16.9590   16.0874   35.5408  200.0000  128.2011  200.0000   267.6495  1962.3359  2638.4478    2.0922
   10199.0000  9295.6533   40.3952    9.3696    2.7282   26.2170   12.0318   52.8638  200.0000  153.2889  200.0000   267.6275 10944.4551 11391.5059    2.1075
   10199.5000  9296.0742   31.5189   11.5744    2.7378   29.4973    9.0041   50.4300  200.0000  128.4791  200.0000   266.7602  2688.0427  2379.4729    2.1204
   10200.0000  9296.5635   29.0519   11.1490    2.7460   45.2043    9.9260  139.2952  200.0000  283.6865  200.0000   264.1651   595.4391   619.9444    2.1316
   10200.5000  9296.9648   26.8154    9.9253    2.7504   70.0942    9.1563  680.3187  200.0000 1155.6182  200.0000   263.6364   453.8516   531.2581    2.1404
   10201.0000  9297.4277   25.6354    8.4975    2.7487   54.0049    9.8293  304.7054  200.0000 1241.1577  200.0000   263.6278   879.4161  2201.3357    2.1485
   10201.5000  9297.8730   27.4992    7.6644    2.7428   59.9003   11.6137  351.7065  200.0000 1861.5773  200.0000   263.5645  4673.6445 14417.7002    2.1584
   10202.0000  9298.3203   27.6711    9.6954    2.7370   39.0858   13.4165  164.6866  200.0000 1718.6566  200.0000   263.4302 18142.4941 19200.4902    2.1666
   10202.5000  9298.7676   27.7144   10.0952    2.7504   35.1999   14.3122  210.7167  200.0000 1116.2325  200.0000   263.0078 15401.8359 10524.5713    2.1726
   10203.0000  9299.2148   27.7598    9.1468    2.7723   33.3450   15.6687  179.1362  200.0000 1259.5760  200.0000   262.6899  6794.1304  4824.8462    2.1773
   10203.5000  9299.6611   27.7840    8.8764    2.7945   34.5268   16.8971  201.0650  200.0000 1530.7596  200.0000   262.8857  7690.8911  7185.9619    2.1823
   10204.0000  9300.1123   27.6957    8.7773    2.8245  265.4987   13.2025 1097.6511  200.0000 1865.2261  200.0000   263.1230 16346.6523 16746.6680    2.1870
   10204.5000  9300.5586   27.2689    8.9949    2.8718  159.6578   10.5381 1517.5836  200.0000 2000.0000  200.0000   263.4057 20000.0000 20000.0000    2.1916
   10205.0000  9301.0078   26.5456    7.6836    2.9110  109.3779   11.1855 1312.0328  200.0000 2000.0000  200.0000   263.4561 20000.0000 20000.0000    2.1975
   10205.5000  9301.4453   25.9114    9.7208    2.9341  385.5142    8.3041 1972.7969  200.0000 2000.0000  200.0000   263.1971 20000.0000 20000.0000    2.2037
   10206.0000  9301.8955   26.1092   10.7283    2.9481  131.6179    8.4533 1897.8590  200.0000 2000.0000  200.0000   262.8777 20000.0000 20000.0000    2.2100
   10206.5000  9302.3428   26.6153    6.4276    2.9671   68.2055   12.0457 1153.9485  200.0000 2000.0000  200.0000   259.5139 20000.0000 20000.0000    2.2166
   10207.0000  9302.7920   26.6649    7.7806    2.9888   68.9793   14.5519 1261.1322  200.0000 2000.0000  200.0000   256.7067 20000.0000 20000.0000    2.2227
   10207.5000  9303.2461   26.3853    8.9279    3.1011  105.2414    8.9749 1902.4580  200.0000 2000.0000  200.0000   256.5816 20000.0000 20000.0000    2.2281
   10208.0000  9303.6758   25.2579   10.7103    3.4592   83.3111    8.5815 1558.9580  200.0000 2000.0000  200.0000   256.5428 20000.0000 20000.0000    2.2337
   10208.5000  9304.1289   25.0137   13.1993    3.5503   61.5917   12.3905  391.0699  200.0000 2000.0000  200.0000   256.0092 15693.1748 16186.3613    2.2396
   10209.0000  9304.5713   25.8746   11.6480    3.5566   36.5836   37.2569  128.6169  200.0000 2000.0000  200.0000   252.5721  3309.3809  4779.0283    2.2463
   10209.5000  9305.0176   27.0160   10.2364    3.5642   40.7357   21.0208  439.4297  200.0000 2000.0000  200.0000   243.8884   348.4038   314.3967    2.2542
   10210.0000  9305.4736   28.9208   12.2591    3.5718   95.1651   10.0181 1660.8615  200.0000 2000.0000  200.0000   241.8165   303.6390   133.5073    2.2619
   10210.5000  9305.9365   29.9080   10.9902    3.5799   74.0907    9.4754 1171.8372  200.0000 2000.0000  200.0000   241.2615   418.0449   230.3029    2.2689
   10211.0000  9306.3594   27.7779   11.4506    3.5935   59.7825   21.7225 1212.3097  200.0000 2000.0000  200.0000   240.5166   485.7820   411.8752    2.2748
   10211.5000  9306.8467   24.7222    9.8171    3.6040   61.4902   33.8190 1268.1172  200.0000 2000.0000  200.0000   239.7892   649.2806   530.9100    2.2768
   10212.0000  9307.2305   21.3427    9.3941    3.6054   93.6518   11.0068 1718.7758  200.0000 2000.0000  200.0000   238.0249  2197.7651  1930.0068    2.2782
   10212.5000  9307.7295   19.9560    7.6301    3.6018  100.3140    8.8524 1638.3805  200.0000 2000.0000  200.0000   237.0039 14519.9863 10617.3340    2.2789
   10213.0000  9308.1543   19.7312    8.3484    3.5952   86.5291   10.2580 1435.2854  200.0000 2000.0000  200.0000   236.8714 19951.4590 20000.0000    2.2736
   10213.5000  9308.6074   17.9142    9.1476    3.5886   86.6916   12.6147 1675.6311  200.0000 2000.0000  200.0000   236.8542 20000.0000 20000.0000    2.2593
