~Version Information
 VERS.                  2.0:   CWLS log ASCII Standard -VERSION 2.0
 WRAP.                   NO:   One line per depth step
~Well Information Block
#MNEM.UNIT     VALUE/NAME     DESCRIPTION
#---------     -----------    ---------------------------
 STRT.F             10112.0000: START DEPTH
 STOP.F             11135.0000: STOP DEPTH
 STEP.F                 0.5000: STEP DEPTH
 NULL.               -999.2500: NULL VALUE
 UNIT.                12318515:  LOGGING EQUIPMENT ID
 CNTY.             HAIR DALMAH:  COUNTY NAME
 JOBN.        AD-XX-0905995035:  JOB TICKET NUMB
 FLD .             HAIR DALMAH:  FIELD NAME
 PDAT.          Mean Sea Level:  PERMANENT DATUM
 RIG .                     PN8:  RIG NAME
 MWDS.                    ICAD:  MWD SHOP
 CTRY.     United Arab Emirates:  COUNTRY NAME
 REGN.     Middle East/North Africa:  REGION
 BASE.               Abu Dhabi:  LOGGING EQUIPMENT BASE LOCATION
 WTYP.                Deviated:  WELL TYPE
 XYGR.     UTM Zones, Northern Hemisphere, Meters:  XYGROUP
 LLGR.      Latitude/Longitude:  LLGROUP
 MDS .              Win MagUTM:  MAG DATA SOURCE
 MMDD.       05 December, 2019:  MAG DATA DATE
 MMDL.            bggm2019.dat:  MAGNETIC MODEL
 CREF.     Ellipsoid Clarke - 1880:  CART REFERENCE
 GREF.     Ellipsoid World Geodetic System :  GEO REFERENCE
 CGSY.               SS CLRK51:  CART GRID SYS
 GGSY.                      LL:  GEO GRID SYS
 CCDE.     UTM Clarke 1880 (CM 51), Meters:  CART COORD DESC
 GCDE.     Generic Lat/Long's, Degrees, -180 ==> +180:  GEO COORD DESC
 SON .        AD-XX-0905995035:  JOB NUMBER
 COMP.          ADNOC Offshore:  COMPANY
 WELL.               HD011-02D:  WELL NAME
 FTOP.          Formation Tops:  FORM TOPS DESC
 ILTD.               Lithology:  INTERP LTH DESC
 SVYD.                  Survey:  SURVEY DESC
 DMOD.             Drill Model:  DRILL MOD DESC
 HPTY.       Minimum Curvature:  HOLE POS TYPE
 NREF.                    Grid:  NORTH REFERENCE
 SPUD.               17-Feb-20:  SPUD DATE
 DATE.      06.00.00 09-Apr-20:  END TIME
 STIM.      11.40.00 06-Apr-20:  START TIME
 DMF .             Drill Floor:  DRILL MEAS FROM
 DFST.                        :  DIST FSL TEXT
 DFWT.                        :  DIST FWL TEXT
 PROV.               Abu Dhabi:  PROVINCE
 STAT.               Abu Dhabi:  STATE NAME
 API .                        :  API NUMBER
 SRVC.             Halliburton:  SERVICE COMPANY
 UWI .                        :  UNIQUE WELL IDENTIFIER
 LOC .                        :  LOCATION
 LMF .             Drill Floor:  LOG MEASURED FROM
 DEP .ft              0.000000:  DEPTH
 AGAP.ft            118.000000:  AIR GAP
 CMER.deg            51.000000:  CENTRL MERIDIAN
 MMDE.ft              0.000000:  MAGUTM CALC DEP
 APD .ft            118.000000:  DEPTH ABOVE PD
 WDMS.ft             65.000000:  WD ELEV
 EGL .ft              0.000000:  GROUND ELEVATION
 EPD .ft              0.000000:  ELEVATION
 AZTC.deg             1.750428:  AZM TOTAL CORR
 GRDC.deg             0.592532:  GRID CORRECTION
 MDEC.deg             2.342959:  MAGNETIC DECL
 MDIP.deg            38.394272:  MAGNETIC DIP
 MFLD.nT          43612.476563:  MAGNETIC FIELD
 GVFD.g               1.000000:  GRAVITY FIELD
 VSDR.deg            91.860001:  VERT SEC DIRECT
 TDD .ft          11135.000000:  TOTAL DEPTH (DRILLER)
 SDEP.ft          10171.000000:  START DEPTH
 DFSL.ft              0.000000:  DISTANCE FSL
 DFWL.ft              0.000000:  DISTANCE FWL
 UTMY.m         2710911.810000:  UTM Y
 UTMX.m          644702.250000:  UTM X
 WHEW.ft              0.000000:  WELL HEAD E/W
 WHNS.ft              0.000000:  WELL HEAD N/S
 LONG.deg            52.428197:  LONGITUDE
 LATI.deg            24.507246:  LATITUDE
 TVDS.ft            118.000000:  TVDSS CORRECTN
 EKB .ft            118.000000:  KB ELEVATION
 EDF .ft            118.000000:  DF ELEVATION
 MAGU.                 1512580:  MAGUTM CHECKSUM
 VSC .                       0:  VS TO CLOSURE
~Parameter Information Block
#MNEM.UNIT       Value        Description
#---------     -----------    ---------------------------
 AV  .fpm             1.000000:  Ann Velocity 
 AVMX.fpm             1.000000:  Max Ann Veloc 
 AZIF.deg            83.830002:  Azm, Final 
 BHAT.               Mud Motor:  BHA Type 
 BS  .in             14.500000:  Bit Size 
 BSZ .in             14.500000:  Bit Size 
 BTPL.psig            1.000000:  Bit Press Loss 
 CABU.                      No:  Customer Abuse 
 CGEO.             Carey Mills:  Customer Geo 
 COMM.                     t i:  Run Comments 1 
 TCS .hr             83.600342:  Time Ciculation Ended 
 CV  .fpm             1.000000:  Crit Velocity 
 CVMX.fpm             1.000000:  Max Crit Veloc 
 DD1 .          Devinder Kumar:  Direct Drillr 1 
 DD2 .     Mohamed Gayed Barakat:  Direct Drillr 2 
 DDSV.               Mud Motor:  DD Service 
 DEFF.%              90.000000:  % Det Eff 
 DRET.      06.15.00 04-Apr-20:  Drill End Time 
 DRST.      13.57.20 31-Mar-20:  Drill Start Tim 
 DTIM.hr             56.449772:  Time Drilling 
 EDEP.ft          10171.000000:  End Depth 
 ENG1.           Denis Sobolev:  Engineer 1 
 ENG2.            Imad Youssef:  Engineer 2 
 ETIM.      23.30.00 06-Apr-20:  End Time 
 FLOI.gpm           999.999939:  Flow In 
 FLON.gpm           964.999939:  Flow In Min 
 FLOS.mptm            2.600000:  Fluid Loss 
 FLOX.gpm          1100.000000:  Flow In Max 
 DFT .                 Polymer:  Mud Type 
 HFLO.                      No:  High Flow 
 HPRE.                      No:  High Pressure 
 HTEM.                      No:  High Temp 
 HYDO.ft              0.000000:  Hydro Offset 
 IFIN.deg            26.030001:  Inc, Final 
 IMAX.deg            26.559999:  Inc Max 
 IMIN.deg            24.139999:  Inc Min 
 IMND.ft           9477.000000:  Inc Min Depth 
 IMXD.ft           9942.000000:  Inc Max Depth 
 JARR.                      No:  Jarring 
 LETM.      23.30.00 06-Apr-20:  Log End Time 
 LOST.hr                     0:  Lost Rig Time 
 LSTM.      13.57.20 31-Mar-20:  Log Start Time 
 MDCL.ppm        150000.000000:  Mud Chlorides 
 MDES.             Fresh Water:  Mud Desc 
 DFD .ppg            12.000000:  Mud Density 
 MDMN.ppg            12.000000:  Dens Mud Min 
 MDMX.ppg            12.000000:  Dens Mud Max 
 PH  .pH             10.300000:  Mud pH 
 MOIL.                      19:  Run Mud Oil % 
 MOWR.                   19 81:  Run Mud OWR 
 MSND.                       0:  Run Mud Sand % 
 MSOL.                      19:  Run Mud Solids% 
 MTV .                GeoForce:  Motor Variant 
 DFV .spqt           51.000000:  Mud Viscosity 
 MWOD.in              8.150000:  MWD Tool OD 
 MWSI.                      No:  Serv Intrp, MWD 
 OTIM.hr            106.542305:  Time Operating 
 PMAX.psig         6850.255859:  Press Op, Max 
 PV  .cP             21.000000:  Mud PV 
 RMS .ohmm            0.039000:  Mud Resistivity 
 RMCS.ohmm            0.059000:  Mud Cake Resistivity 
 MCST.degF           80.000000:  Mud Cake Sample Temperature 
 RMFS.ohmm            0.030000:  Mud Filtrate Resistivity 
 RMFT.degF           80.000000:  Mud Filtrate Sample Temperature 
 RMMT.ohmm            0.018000:  Rm @ Max Temp 
 MST .degF           80.000000:  Mud Sample Temperature 
 RUN .                    2300:  Run Number 
 RRUN.                    2300:  Rig Run Number 
 SAZI.deg           101.400002:  Azm, Start 
 SDEP.ft           9467.000000:  Start Depth 
 SIDD.                      No:  Serv Intrp, DD 
 SINC.deg            24.139999:  Inc, Start 
 STIM.      13.57.20 31-Mar-20:  Start Time 
 SVER.                9.200000:  Sperry Version 
 TDAT.ft            704.000000:  Tot Depth Attmp 
 TDDF.                      No:  Trip for DD 
 TDLG.ft            704.000000:  Tot Depth Loggd 
 TFF .                      No:  Trip for Fail 
 MRT .                     PWD:  Maximum Recorded Temperature 
 TTMX.degF          181.000000:  Max Tool Temp 
 VS01.           F1(8)90603244:  Virtual Str1 SN 
 VS02.     H2V5WGV2R(8)90604159:  Virtual Str2 SN 
 WITN.     Mohamed Sharaf el Din:  Customer Rep 
 YP  .lhf2           29.000000:  Yield Point 
~Curve Information Block
#MNEM.UNIT                 API CODE     Curve Description
#---------               -----------    ---------------------------
 DEPT.F                 00 000 000 000:  Depth
 RPTVD.ft               00 000 000 000:  ROP True Vertical Depth
 ROPA.fph               00 000 000 000:  Avg Rate of Penetration
 DGRCC.api              00 000 000 000:  DGR Comb Gamma Ray BCorr
 EWXT.hr                00 000 000 000:  EWR Formation Exp Time
 R15P.ohmm              00 000 000 000:  EWR Shallow Phase Res
 R15A.ohmm              00 000 000 000:  EWR Shallow Atten Res
 R27P.ohmm              00 000 000 000:  EWR Medium Phase Res
 R27A.ohmm              00 000 000 000:  EWR Medium Atten Res
 R39P.ohmm              00 000 000 000:  EWR Deep Phase Res
 R39A.ohmm              00 000 000 000:  EWR Deep Atten Res
 ABR .ohmm              00 000 000 000:  At-Bit Resistivity
 AFRSA.ohmm             00 000 000 000:  AFR Shallow Avg Res
 AFRDA.ohmm             00 000 000 000:  AFR Deep Avg Res
 AFXT.hr                00 000 000 000:  AFR Form Exp Time
#Other Information
#
#WARRANTY: Halliburton will use its best efforts to furnish customers with 
#accurate information and interpretations that are part of, and incident to, the services 
#provided.  However, Halliburton cannot and does not warrant the accuracy 
#or correctness of such information and interpretations.  Under no circumstances should any 
#such information or interpretation be relied upon as the sole basis for any drilling, 
#completion, production, or financial decision or any procedure involving any risk to the 
#safety of any drilling venture, drilling rig or its crew or any other third party.  The 
#Customer has full responsibility for all drilling, completion and production operation.  
#Halliburton makes no representations or warranties, either expressed or 
#implied, including, but not limited to, the implied warranties of merchantability or fitness 
#for a particular purpose, with respect to the services rendered.  In no event will 
#Halliburton be liable for failure to obtain any particular results or for 
#any damages, including, but not limited to, indirect, special or consequential damages, 
#resulting from the use of any information or interpretation provided by Halliburton.
#
~A    DEPT      RPTVD      ROPA      DGRCC     EWXT      R15P      R15A      R27P      R27A      R39P      R39A       ABR       AFRSA      AFRDA      AFXT    
# ...
   10137.5000  -999.2500 -999.2500   13.6335   60.8420  685.8852    5.6928   18.7942   16.9056   54.9142  200.0000  -999.2500     1.3502  1854.2394   60.0433
   10138.0000  -999.2500 -999.2500   13.0952   60.8440  228.6101    5.2369   14.2221   14.7840   42.6855  200.0000  -999.2500     1.3736  1846.9333   60.0535
   10138.5000  -999.2500 -999.2500   12.7895   60.8462   27.5237    5.1338   10.9521   13.9128   29.4873  200.0000  -999.2500     1.3881  1868.4861   60.0727
   10139.0000  -999.2500 -999.2500    9.6490   60.8520   55.3331    4.8807   11.6527   12.1581   33.3349  200.0000  -999.2500     1.4014  2010.3789   60.1146
   10139.5000  -999.2500 -999.2500    9.9780   60.8588  598.3429    4.7033   16.8207   15.8276   52.2430  200.0000  -999.2500     1.4123  2192.6855   60.1128
   10140.0000  -999.2500 -999.2500   11.3778   60.8616 1794.6685    5.9328   23.9637   18.2126   69.6496  200.0000  -999.2500     1.3933  2235.3347   60.1225
   10140.5000  -999.2500 -999.2500   14.0937   60.8642 2000.0000    4.5689   26.5126   21.5798  102.1864  200.0000  -999.2500     1.3549  2167.6533   60.1317
   10141.0000  -999.2500 -999.2500   14.0861   60.8667 1880.9382    4.5401   31.5170   19.9916  206.3077  200.0000  -999.2500     1.3107  2009.7898   60.1398
   10141.5000  -999.2500 -999.2500   12.6796   60.8930  915.3571    6.4936   24.3766   21.4955   92.9881  200.0000  -999.2500     1.2830  1868.3186   60.1669
   10142.0000  -999.2500 -999.2500   11.5266   60.9470  475.9347    6.5851   14.5910   16.0688   44.1525  200.0000  -999.2500     1.2751  1802.9241   60.2654
   10142.5000  -999.2500 -999.2500   12.3262   61.1625  180.2798    5.5417   13.2380   12.2960   40.9672  200.0000  -999.2500     1.2921  1767.4924   60.2742
   10143.0000  -999.2500 -999.2500   11.8311   61.2877   32.3447    7.0086   13.4753   10.6231   45.6778  200.0000  -999.2500     1.3362  1797.8218   60.2750
   10143.5000  -999.2500 -999.2500   11.9471   61.2882   29.6106    4.6570   13.5256   12.8425   65.9929  200.0000  -999.2500     1.3789  1905.6133   60.2792
   10144.0000  -999.2500 -999.2500   12.4767   61.2847  561.3068    4.4205   17.5735   16.5033   73.4515  200.0000  -999.2500     1.3915  2011.8330   60.2796
   10144.5000  -999.2500 -999.2500    9.4897   61.2793 1429.9308    7.7601   21.1267   18.2392   70.7015  200.0000  -999.2500     1.3756  2062.4807   60.2779
   10145.0000  -999.2500 -999.2500   10.8349   61.2726 1830.2675    6.9966   21.4523   14.9213   76.3912  200.0000  -999.2500     1.3431  2028.4203   60.2738
   10145.5000  -999.2500 -999.2500   13.7314   61.2655 1803.0657    8.2221   20.7637   17.4276   84.0923  200.0000  -999.2500     1.3004  1839.6761   60.2735
   10146.0000  -999.2500 -999.2500   12.8392   61.2600  752.5705    4.9555   19.3475   22.0160   57.4027  200.0000  -999.2500     1.2667  1709.2023   60.2793
   10146.5000  -999.2500 -999.2500   10.7440   61.2550  115.5123    3.8206   15.4174   14.1278   36.4951  200.0000  -999.2500     1.2625  1700.4449   60.2804
   10147.0000  -999.2500 -999.2500   11.9972   61.2483  119.3298    4.2160   13.4299   11.3240   37.7604  200.0000  -999.2500     1.2973  1738.0172   60.2803
   10147.5000  -999.2500 -999.2500   12.4426   61.2399  932.4531    6.6805   16.2768   16.8679   46.3629  200.0000  -999.2500     1.3559  1778.0393   60.2810
   10148.0000  -999.2500 -999.2500   13.1755   61.2315  203.6505    5.3583   11.8586   15.6333   32.9258  200.0000  -999.2500     1.4032  1894.3973   60.2839
   10148.5000  -999.2500 -999.2500   15.1759   61.2243   31.4820    5.1137    9.1118   19.2251   24.3638  200.0000  -999.2500     1.4151  2120.6606   60.2878
   10149.0000  -999.2500 -999.2500   12.6405   61.2161  339.9398    3.0452   16.1663   18.6885   45.3493  200.0000  -999.2500     1.3883  2181.0393   60.2912
   10149.5000  -999.2500 -999.2500   12.8532   61.2042 1796.8529    2.5878   29.0541   24.7794  191.7213  200.0000  -999.2500     1.3456  1936.6388   60.2934
   10150.0000  -999.2500 -999.2500   13.2302   61.1631 2000.0000    4.1837  160.3019   75.3181 1415.7899  200.0000  -999.2500     1.3277  1704.3503   60.2626
   10150.5000  -999.2500 -999.2500   11.9997   61.0108 2000.0000    5.6058  750.2680   57.8561 1935.2189  200.0000  -999.2500     1.3474  1629.3546   60.1043
   10151.0000  -999.2500 -999.2500   13.3585   60.8244 1105.6561    5.2925  110.0714  136.1150  938.8237  200.0000  -999.2500     1.3797  1611.0692   59.9488
   10151.5000  -999.2500 -999.2500   12.7970   60.7992  179.4408    3.3981   19.6305  112.3688   90.3784  200.0000  -999.2500     1.4067  1636.0331   59.9275
   10152.0000  -999.2500 -999.2500   11.9433   60.7990 1150.4960    3.2579   14.4149   24.9665   50.0137  200.0000  -999.2500     1.4236  1713.6346   59.9344
   10152.5000  -999.2500 -999.2500   12.0732   60.7979 1649.7819    2.1096   27.4106   28.7658  236.6056  200.0000  -999.2500     1.4410  1798.2358   59.9403
   10153.0000  -999.2500 -999.2500   12.8814   60.7968 2000.0000    4.0257  266.1948   60.4021 1514.1028  200.0000  -999.2500     1.4585  1851.1534   59.9466
   10153.5000  -999.2500 -999.2500   14.3417   60.7963 2000.0000    4.6367  970.4218  153.3497 1823.5551  200.0000  -999.2500     1.4567  1853.6232   59.9532
   10154.0000  -999.2500 -999.2500   13.7332   60.7960 2000.0000    2.8594  548.7167  181.7828  674.8957  200.0000  -999.2500     1.4252  1795.7260   60.0414
   10154.5000  -999.2500 -999.2500   13.3516   60.7960 1875.1508    3.7374  122.8322  107.9003  631.1607  200.0000  -999.2500     1.3877  1674.3927   60.3471
   10155.0000  -999.2500 -999.2500   14.0010   60.7957  504.1222    4.6955   35.9186  139.7177 1303.3044  200.0000  -999.2500     1.3785  1569.1709   60.3861
   10155.5000  -999.2500 -999.2500   11.7191   60.7938  226.8582    2.7797   31.7512  184.0392  491.8148  200.0000  -999.2500     1.4087  1503.0992   60.3893
   10156.0000  -999.2500 -999.2500   12.0338   60.7916 1597.2412    3.5990   16.0433   73.9577   97.9866  200.0000  -999.2500     1.4706  1506.4570   60.3888
   10156.5000  -999.2500 -999.2500   10.9175   60.7905 1354.3964    5.2235   21.5635   64.4078  176.2359  200.0000  -999.2500     1.5544  1619.3291   60.3857
   10157.0000  -999.2500 -999.2500   10.4525   60.7885 1302.9933    2.5233   67.8369  100.3185  988.1135  200.0000  -999.2500     1.6083  1850.8224   60.3811
   10157.5000  -999.2500 -999.2500   12.4994   60.7858 1976.8583    1.7834  144.0158  122.8092 1779.0582  200.0000  -999.2500     1.5876  1992.7128   60.3755
   10158.0000  -999.2500 -999.2500   12.4343   60.7831 2000.0000    3.1323  478.9142  161.9703 1986.3234  200.0000  -999.2500     1.5152  1928.3296   60.3709
   10158.5000  -999.2500 -999.2500   10.0114   60.7813 2000.0000    3.5515  225.2163  186.6470 1538.8684  200.0000  -999.2500     1.4513  1800.0386   60.3675
   10159.0000  -999.2500 -999.2500   12.0788   60.7806 1980.7059    2.5326   46.1819  188.2879  342.5136  200.0000  -999.2500     1.4169  1678.3248   60.3632
   10159.5000  -999.2500 -999.2500   13.2473   60.7794 1401.0480    3.0476   22.3949  121.8152  295.1223  200.0000  -999.2500     1.4240  1616.5049   60.3571
   10160.0000  -999.2500 -999.2500   12.4983   60.7770  693.8081    4.0430   25.6072  149.9723  420.7300  200.0000  -999.2500     1.4869  1605.1090   60.3500
   10160.5000  -999.2500 -999.2500   13.5192   60.7739  787.2300    2.7121   36.0083  153.8884 1049.2428  200.0000  -999.2500     1.5807  1628.0818   60.3423
   10161.0000  -999.2500 -999.2500   14.4645   60.7694  255.7937    2.4132   33.3975  173.0638  951.2350  200.0000  -999.2500     1.6480  1734.6923   60.3337
   10161.5000  -999.2500 -999.2500   14.0388   60.7650 1366.3228    5.1190  158.4433  122.7405 1124.1483  200.0000  -999.2500     1.6672  1914.2451   60.3238
   10162.0000  -999.2500 -999.2500   12.9948   60.7626 2000.0000    3.0626 1040.9602  160.2293 1732.4200  200.0000  -999.2500     1.6402  1989.8280   60.3146
   10162.5000  -999.2500 -999.2500   14.3571   60.7636 2000.0000    7.2047  431.2541  109.9244 1054.0725  200.0000  -999.2500     1.5772  1941.9497   60.3120
