~Version
 VERS              .         3                             : CWLS LOG ASCII STANDARD - VERSION 3.0
 WRAP              .         NO                            : ONE LINE PER DEPTH STEP
 DLM               .         SPACE                         : DELIMITING CHARACTER(SPACE TAB OR COMMA)
~Well Information
#_______________________________________________________________________________
#
#PARAMETER_NAME    .UNIT     VALUE                         : DESCRIPTION
#_______________________________________________________________________________
STRT               .F        4494                          : First reference value
STOP               .F        7635                          : Last reference value
STEP               .F        0.5                           : Step increment
NULL               .         -9999                         : Missing value
WELL               .         SY027104H                     : Well name
ORIGINALWELLNAME   .         Well                          : 
RANG               .                                       : 
REGN               .         Abu Dhabi                     : 
AZTC               .deg      0.383835                      : 
GRDC               .deg      1.093917                      : 
WHEW               .ft       0.000000                      : 
TDL                .ft       3000.000000                   : 
TOWN               .                                       : 
NREF               .         2                             : 
DOE                .         AD-FE-0007255267              : 
EGL                .ft       407.799988                    : 
GVFD               .g        1.000000                      : 
COLG               .         186HAL_lg.bmp                 : 
WHNS               .ft       0.000000                      : 
CREF               .         Ellipsoid Clarke - 1880       : 
VSDR               .deg      55.740002                     : 
FTOP               .         Formation Tops                : 
LLGR               .         Latitude/Longitude            : 
EPD                .ft       0.000000                      : 
WDMS               .ft       0.000000                      : 
DFWL               .ft       0.000000                      : 
MFLD               .nT       42523.898438                  : 
GREF               .         Ellipsoid World Geodetic System: 
CTRY               .         UN                            : Two letter Internet country code
COUNTRY            .         United Arab Emirates          : 
DFWT               .                                       : 
CNTY               .         Abu Dhabi                     : 
VSEW               .ft       0.000000                      : 
UWI                .         AD-FE-0007255267              : 
CSGD               .ft       4170.000000                   : 
STAT               .         Abu Dhabi                     : 
APD                .ft       429.000000                    : 
BASE               .         Abu Dhabi                     : 
VSNS               .ft       0.000000                      : 
DCON               .         Al-Mansoory                   : 
API                .         AD-FE-0007255267              : 
GPMT               .                                       : 
CSGL               .ft       4170.000000                   : 
MDEC               .deg      1.477752                      : 
LONG               .deg      53.809174                     : 
CSGS               .in       9.625000                      : 
SPUD               .         20-Mar-10                     : 
MDS                .         Win MagUTM                    : 
CMER               .deg      51.000000                     : 
SRVC               .         NDC                           : 
CSGW               .lbpf     47.000000                     : 
SON                .         AD-FE-0007255267              : 
TVDS               .ft       429.000000                    : 
LMF                .         Kelly Bushing                 : 
CGSY               .         SS CLRK51                     : 
EKB                .ft       429.000000                    : 
HPTY               .         0                             : 
MWDS               .         Dubai                         : 
GGSY               .         LL                            : 
RCST               .$/da     0.000000                      : 
FLD                .         Shah                          : 
SVYD               .         Survey_DS                     : 
CCDE               .         UTM Clarke 1880 (CM 51), Meters: 
AGAP               .ft       0.000000                      : 
LOC                .                                       : 
DFSL               .ft       0.000000                      : 
EDF                .ft       428.000031                    : 
UNIT               .         166264                        : 
RIG                .         ND-50                         : 
VSC                .         0                             : 
LEAS               .                                       : 
XYGR               .         UTM Zones, Northern Hemisphere, Meters: 
GCDE               .         Generic Lat/Long's, Degrees, -180 ==> +180: 
DFST               .                                       : 
ILTD               .         Lithology                     : 
DMOD               .         Drill Model                   : 
JOBN               .         AD-FE-0007255267              : 
LATI               .deg      22.900974                     : 
DMF                .         Kelly Bushing                 : 
STIM               .         00.00.00 28-Mar-10            : 
CULG               .                                       : 
SECT               .                                       : 
PDAT               .         Mean Sea Level                : 
CPJM               .                                       : 
STRD               .ft       4648.000000                   : 
WTYP               .         2                             : 
COMP               .         ADCO                          : 
MAGU               .         1453103                       : 
PROV               .         Abu Dhabi                     : 
MMDL               .         bggm2009.dat                  : 
UTMX               .m        788186.312500                 : 
UTMY               .m        2535096.000000                : 
DATE               .         00.00.00 03-Apr-10            : 
TDD                .ft       7648.000000                   : 
MDIP               .deg      34.939442                     : 
GDAT               .                                       : 
LIC                .                                       : 
~Parameter Information Block
#_______________________________________________________________________________
#
#PARAMETER_NAME    .UNIT     VALUE                         : DESCRIPTION
#_______________________________________________________________________________
SET                .         WL_FINAL                      : 
LMF                .         ORTKB                         : Logging Measured From (Name of Logging Elevation Reference)
APD                .F        428.000000                    : Elevation of Depth Reference (LMF) above Permanent Datum
EPD                .F        0.000000                      : Elevation of Permanent Datum above Mean Sea Level
RUN                .         1                             : RUN NUMBER
PDAT               .         MSL                           : Permanent Datum
~Curve Information
#_______________________________________________________________________________
#
#LOGNAME           .UNIT     LOG_ID                        : DESCRIPTION
#_______________________________________________________________________________
DEPT               .F                                      : DEPTH (BOREHOLE) -F10 {F}
C1                 .IN                                     : Caliper 1 -F13 {F}
C2                 .IN                                     : Caliper 2 -F13 {F}
HCGR               .GAPI                                   : HNGS Computed Gamma Ray -F13 {F}
HSGR               .GAPI                                   : HNGS Standard Gamma Ray -F13 {F}
RT_HRLT            .OHMM                                   : HRLT Computed True Resistivity -F13 {F}
RXO_HRLT           .OHMM                                   : HRLT Computed Invaded Zone Resistivity -F13 {F}
TENS               .LBF                                    : Cable Tension -F13 {F}
~Ascii
# ...
5722.5     5.9217     5.8745     0.4795     74.1344    26.8483    9.4125     2647      
5723       5.9293     5.8889     1.0301     72.7784    17.9594    5.8979     2566      
5723.5     5.9293     5.9032     0.9864     71.0899    19.9402    6.2424     2685      
5724       5.9103     5.8889     1.2441     69.8754    26.0662    8.3006     2733      
5724.5     5.9217     5.8961     0.9383     71.2109    19.6432    6.6042     2802      
5725       5.9217     5.9068     2.0066     73.3508    27.5198    8.9147     2837      
5725.5     5.9293     5.9104     3.8249     74.7019    29.8157    10.0621    2738      
5726       5.9217     5.8996     3.7413     75.0484    21.5727    7.2137     2812      
5726.5     5.9293     5.8889     3.8326     74.6197    21.0349    6.2816     2637      
5727       5.9293     5.9032     3.0564     75.1407    21.0031    6.7745     2623      
5727.5     5.9217     5.9104     2.4639     75.9751    23.2227    8.2939     2696      
5728       5.9141     5.9032     1.7811     76.9737    39.9761    13.0813    2791      
5728.5     5.9217     5.8961     1.7635     77.902     21.536     6.2786     2869      
5729       5.9293     5.8961     3.1032     81.7146    16.9642    5.0426     2703      
5729.5     5.9217     5.8961     3.2019     82.723     26.407     8.5455     2708      
5730       5.9217     5.8889     3.019      83.8209    30.3585    10.7583    2580      
5730.5     5.9293     5.8853     2.5282     79.9964    19.0833    6.2624     2595      
5731       5.9255     5.8889     1.5809     81.0275    22.9437    7.0322     2696      
5731.5     5.9217     5.8889     1.9969     82.0163    22.1659    7.0097     2807      
5732       5.9141     5.8817     0.573      84.6443    20.6234    6.5962     2830      
5732.5     5.9293     5.8817     0.6248     85.7811    34.3766    10.4996    2794      
5733       5.9179     5.8853     0.4924     86.6545    26.7179    9.4273     2712      
5733.5     5.9217     5.8889     0.7894     88.4013    18.9144    6.4997     2633      
5734       5.9293     5.8817     0.8061     86.2886    20.6677    7.3459     2610      
5734.5     5.9179     5.8889     0.5008     84.693     16.6443    6.2663     2595      
5735       5.9141     5.8673     0.8259     85.5521    19.7549    6.923      2648      
5735.5     5.9141     5.8673     1.7696     88.0559    28.3098    9.2775     2823      
5736       5.9217     5.8889     0.7757     89.7717    24.3013    8.7226     2866      
5736.5     5.9293     5.8889     0.6999     87.0091    26.9091    9.1046     2754      
5737       5.9179     5.8889     0.6947     83.4992    23.4724    7.6707     2689      
5737.5     5.9179     5.8889     1.7172     82.2159    16.6423    5.2328     2583      
5738       5.9293     5.8745     2.8272     83.2595    19.6827    6.4158     2663      
5738.5     5.9293     5.8745     2.4534     85.9136    40.5292    13.0184    2711      
5739       5.9217     5.8745     3.0183     85.1343    24.8468    8.2399     2796      
5739.5     5.9217     5.9068     3.4766     83.1414    19.8354    6.1484     2848      
5740       5.9217     5.9104     2.3292     81.5782    25.5877    7.9646     2789      
5740.5     5.9293     5.9032     1.7477     84.5861    18.3071    5.9119     2691      
5741       5.9293     5.8996     1.9456     86.1546    16.1231    5.1937     2591      
5741.5     5.9293     5.8889     2.3155     85.754     36.5068    12.1752    2627      
5742       5.9103     5.8745     1.609      81.4422    28.9752    9.9417     2638      
5742.5     5.9368     5.8925     1.5718     79.9437    19.8386    6.1334     2771      
5743       5.9141     5.8925     0.7375     80.3595    20.59      6.3531     2848      
5743.5     5.9293     5.8961     -0.1191    81.6209    20.868     7.1841     2860      
5744       5.9368     5.8889     0.7837     81.1148    27.9315    9.1406     2836      
5744.5     5.9293     5.8817     0.0649     81.5639    23.5932    7.5623     2798      
5745       5.9103     5.8853     -0.4113    82.179     22.0832    6.9863     2764      
5745.5     5.9217     5.8961     1.188      83.0526    26.1325    8.7304     2674      
5746       5.9141     5.8817     2.2049     84.1631    19.936     6.7358     2690      
5746.5     5.9217     5.8817     2.1271     81.9174    20.6674    6.9102     2790      
5747       5.9217     5.9032     2.2553     80.8288    22.018     7.5683     2898      
5747.5     5.9065     5.8889     2.7453     78.985     24.9816    9.0223     2849      
5748       5.9293     5.8889     2.4046     81.9411    19.2088    6.8658     2849      
5748.5     5.9141     5.8889     2.7587     80.5985    18.726     6.4175     2669      
5749       5.9179     5.8889     2.3225     79.7543    18.1277    6.5507     2564      
5749.5     5.9293     5.8889     1.8973     78.7767    28.3472    9.7858     2614      
5750       5.9141     5.8925     2.411      81.4146    22.5921    7.3078     2653      
5750.5     5.9141     5.8889     2.5417     83.0927    24.8971    7.9025     2797      
5751       5.9217     5.8961     1.8304     84.5406    28.7421    9.0792     2827      
5751.5     5.9217     5.8889     1.2707     85.4173    24.7135    7.9046     2757      
5752       5.9141     5.8817     0.691      86.2556    23.7964    7.3082     2585      
5752.5     5.9293     5.8961     0.1496     85.3628    26.9755    8.6165     2635      
5753       5.9255     5.8996     -0.5767    85.6342    16.7698    5.713      2598      
5753.5     5.9255     5.8889     -1.1111    83.8646    18.9984    6.6902     2716      
5754       5.9293     5.8889     -0.9593    81.8912    23.6587    8.826      2654      
5754.5     5.9293     5.9032     0.2053     80.5725    24.5149    8.935      2833      
5755       5.9293     5.8996     -0.0773    80.432     15.6712    5.4172     2903      
5755.5     5.9141     5.8889     -0.3863    82.513     17.6836    6.0498     2759      
5756       5.9293     5.9032     -1.4749    84.0765    22.4163    8.2082     2565      
5756.5     5.9141     5.9032     -1.8317    87.2084    28.2109    10.3502    2733      
5757       5.9217     5.8961     -1.9224    88.7715    26.0454    8.3006     2685      
5757.5     5.9184     5.8999     -1.8294    88.0501    18.889     6.2132     2221      
5758       5.9217     5.9104     -0.9221    86.0081    21.2683    7.2556     1911      
5758.5     5.9141     5.8961     0.3744     84.4379    28.9316    10.3703    1675      
5759       5.9293     5.8961     1.0605     81.9694    28.1199    9.6798     2885      
5759.5     5.9065     5.9104     0.8508     81.7633    19.8695    6.5474     2531      
5760       5.9217     5.9032     0.0277     78.4847    20.355     6.7688     2158      
5760.5     5.9368     5.9104     0.6431     79.5376    23.7711    8.0064     1906      
5761       5.9227     5.9026     1.3536     81.7288    26.7451    8.8355     2703      
5761.5     5.9217     5.9032     1.8875     85.1624    18.5753    6.2782     2285      
5762       5.9141     5.8961     2.205      84.8508    23.441     7.6862     1854      
5762.5     5.9293     5.9104     2.6764     84.0222    24.1897    7.8151     2700      
5763       5.9331     5.9104     2.921      83.6483    20.2201    6.6067     2255      
5763.5     5.9179     5.9032     2.1973     83.298     21.3325    6.5015     1826      
5764       5.9065     5.8961     1.5812     82.5989    22.0828    6.9401     1709      
5764.5     5.9217     5.9104     1.9198     83.5989    21.3258    6.7466     2723      
5765       5.9293     5.9104     1.9733     85.1433    27.7356    8.0915     2803      
5765.5     5.9293     5.8889     1.7779     85.9401    19.4966    5.7523     2954      
5766       5.9217     5.8889     0.7025     88.3655    19.7223    5.6398     2933      
5766.5     5.9141     5.9032     0.2456     87.6412    20.99      6.6711     2762      
5767       5.9141     5.8996     0.5296     84.8371    22.0576    7.2652     2641      
5767.5     5.9065     5.8889     0.6545     81.1981    24.5755    7.3954     2664      
