~Version
 VERS              .         3                             : CWLS LOG ASCII STANDARD - VERSION 3.0
 WRAP              .         NO                            : ONE LINE PER DEPTH STEP
 DLM               .         SPACE                         : DELIMITING CHARACTER(SPACE TAB OR COMMA)
~Well Information
#_______________________________________________________________________________
#
#PARAMETER_NAME    .UNIT     VALUE                         : DESCRIPTION
#_______________________________________________________________________________
STRT               .F        4494                          : First reference value
STOP               .F        7635                          : Last reference value
STEP               .F        0.5                           : Step increment
NULL               .         -9999                         : Missing value
WELL               .         SY027104H                     : Well name
ORIGINALWELLNAME   .         Well                          : 
RANG               .                                       : 
REGN               .         Abu Dhabi                     : 
AZTC               .deg      0.383835                      : 
GRDC               .deg      1.093917                      : 
WHEW               .ft       0.000000                      : 
TDL                .ft       3000.000000                   : 
TOWN               .                                       : 
NREF               .         2                             : 
DOE                .         AD-FE-0007255267              : 
EGL                .ft       407.799988                    : 
GVFD               .g        1.000000                      : 
COLG               .         186HAL_lg.bmp                 : 
WHNS               .ft       0.000000                      : 
CREF               .         Ellipsoid Clarke - 1880       : 
VSDR               .deg      55.740002                     : 
FTOP               .         Formation Tops                : 
LLGR               .         Latitude/Longitude            : 
EPD                .ft       0.000000                      : 
WDMS               .ft       0.000000                      : 
DFWL               .ft       0.000000                      : 
MFLD               .nT       42523.898438                  : 
GREF               .         Ellipsoid World Geodetic System: 
CTRY               .         UN                            : Two letter Internet country code
COUNTRY            .         United Arab Emirates          : 
DFWT               .                                       : 
CNTY               .         Abu Dhabi                     : 
VSEW               .ft       0.000000                      : 
UWI                .         AD-FE-0007255267              : 
CSGD               .ft       4170.000000                   : 
STAT               .         Abu Dhabi                     : 
APD                .ft       429.000000                    : 
BASE               .         Abu Dhabi                     : 
VSNS               .ft       0.000000                      : 
DCON               .         Al-Mansoory                   : 
API                .         AD-FE-0007255267              : 
GPMT               .                                       : 
CSGL               .ft       4170.000000                   : 
MDEC               .deg      1.477752                      : 
LONG               .deg      53.809174                     : 
CSGS               .in       9.625000                      : 
SPUD               .         20-Mar-10                     : 
MDS                .         Win MagUTM                    : 
CMER               .deg      51.000000                     : 
SRVC               .         NDC                           : 
CSGW               .lbpf     47.000000                     : 
SON                .         AD-FE-0007255267              : 
TVDS               .ft       429.000000                    : 
LMF                .         Kelly Bushing                 : 
CGSY               .         SS CLRK51                     : 
EKB                .ft       429.000000                    : 
HPTY               .         0                             : 
MWDS               .         Dubai                         : 
GGSY               .         LL                            : 
RCST               .$/da     0.000000                      : 
FLD                .         Shah                          : 
SVYD               .         Survey_DS                     : 
CCDE               .         UTM Clarke 1880 (CM 51), Meters: 
AGAP               .ft       0.000000                      : 
LOC                .                                       : 
DFSL               .ft       0.000000                      : 
EDF                .ft       428.000031                    : 
UNIT               .         166264                        : 
RIG                .         ND-50                         : 
VSC                .         0                             : 
LEAS               .                                       : 
XYGR               .         UTM Zones, Northern Hemisphere, Meters: 
GCDE               .         Generic Lat/Long's, Degrees, -180 ==> +180: 
DFST               .                                       : 
ILTD               .         Lithology                     : 
DMOD               .         Drill Model                   : 
JOBN               .         AD-FE-0007255267              : 
LATI               .deg      22.900974                     : 
DMF                .         Kelly Bushing                 : 
STIM               .         00.00.00 28-Mar-10            : 
CULG               .                                       : 
SECT               .                                       : 
PDAT               .         Mean Sea Level                : 
CPJM               .                                       : 
STRD               .ft       4648.000000                   : 
WTYP               .         2                             : 
COMP               .         ADCO                          : 
MAGU               .         1453103                       : 
PROV               .         Abu Dhabi                     : 
MMDL               .         bggm2009.dat                  : 
UTMX               .m        788186.312500                 : 
UTMY               .m        2535096.000000                : 
DATE               .         00.00.00 03-Apr-10            : 
TDD                .ft       7648.000000                   : 
MDIP               .deg      34.939442                     : 
GDAT               .                                       : 
LIC                .                                       : 
~Parameter Information Block
#_______________________________________________________________________________
#
#PARAMETER_NAME    .UNIT     VALUE                         : DESCRIPTION
#_______________________________________________________________________________
SET                .         WL_FINAL                      : 
LMF                .         ORTKB                         : Logging Measured From (Name of Logging Elevation Reference)
APD                .F        428.000000                    : Elevation of Depth Reference (LMF) above Permanent Datum
EPD                .F        0.000000                      : Elevation of Permanent Datum above Mean Sea Level
RUN                .         1                             : RUN NUMBER
PDAT               .         MSL                           : Permanent Datum
~Curve Information
#_______________________________________________________________________________
#
#LOGNAME           .UNIT     LOG_ID                        : DESCRIPTION
#_______________________________________________________________________________
DEPT               .F                                      : DEPTH (BOREHOLE) -F10 {F}
C1                 .IN                                     : Caliper 1 -F13 {F}
C2                 .IN                                     : Caliper 2 -F13 {F}
HCGR               .GAPI                                   : HNGS Computed Gamma Ray -F13 {F}
HSGR               .GAPI                                   : HNGS Standard Gamma Ray -F13 {F}
RT_HRLT            .OHMM                                   : HRLT Computed True Resistivity -F13 {F}
RXO_HRLT           .OHMM                                   : HRLT Computed Invaded Zone Resistivity -F13 {F}
TENS               .LBF                                    : Cable Tension -F13 {F}
~Ascii
4494.0     6.1869     6.1978     32.0086    47.0575    0.0021     0.0021     2160      
4494.5     6.1945     6.1978     32.0086    47.0575    0.0021     0.0021     2082      
4495       6.1869     6.2122     32.0086    47.0575    0.0021     0.0021     2095      
4495.5     6.1869     6.1871     32.0086    47.0575    0.002      0.002      2148      
4496       6.1869     6.205      32.0086    47.0575    0.0016     0.0016     2201      
4496.5     6.1945     6.1978     32.0086    47.0575    0.0017     0.0017     2172      
4497       6.1945     6.1942     33.2654    48.9826    0.0024     0.0024     2268      
4497.5     6.1793     6.205      32.2592    48.6208    0.0014     0.0014     2140      
4498       6.1793     6.1835     32.0579    46.9653    0.0013     0.0013     2129      
4498.5     6.1869     6.2014     29.7403    44.2926    0.0019     0.0019     2133      
4499       6.1869     6.1978     31.4006    45.5151    0.0022     0.0022     2186      
4499.5     6.1793     6.2122     32.3861    47.1415    0.0023     0.0023     2248      
4500       6.1793     6.1907     34.6231    51.1973    0.0028     0.0028     2279      
4500.5     6.1945     6.1907     32.9877    51.6555    0.0013     0.0013     2259      
4501       6.1869     6.1942     32.7789    52.1746    0.0017     0.0017     2192      
4501.5     6.1718     6.1978     31.8748    51.8464    0.0013     0.0013     2119      
4502       6.1793     6.1978     29.8312    50.4198    0.0011     0.0011     2074      
4502.5     6.1869     6.205      32.5193    51.5359    0.0012     0.0012     2147      
4503       6.1869     6.2158     31.7545    49.2889    0.0015     0.0015     2196      
4503.5     6.1755     6.205      31.8226    50.024     0.0014     0.0014     2215      
4504       6.1793     6.1978     31.8138    50.0659    0.0009     0.0009     2231      
4504.5     6.1793     6.1907     32.0122    49.6968    0.0003     0.0003     2155      
4505       6.1869     6.1907     33.271     51.3169    0.001      0.001      2186      
4505.5     6.1793     6.1978     32.3143    49.4392    0.0005     0.0005     2109      
4506       6.2021     6.1835     33.5672    51.1039    0.0003     0.0003     2111      
4506.5     6.1869     6.1978     31.9632    47.6457    0.0012     0.0012     2194      
4507       6.1793     6.1763     31.8355    47.6303    0.0019     0.0019     2285      
4507.5     6.1793     6.2122     33.9794    48.0062    0.0018     0.0018     2241      
4508       6.1869     6.1978     31.5758    48.2004    0.0012     0.0012     2201      
4508.5     6.1831     6.1942     29.812     47.3741    0.0022     0.0022     2196      
4509       6.168      6.1907     29.2049    44.1805    0.0022     0.0022     2144      
4509.5     6.1945     6.2122     27.187     40.411     0.0017     0.0017     2160      
4510       6.1869     6.1907     25.2583    37.147     0.0009     0.0009     2192      
4510.5     6.1945     6.1907     23.3723    33.9151    0.0011     0.0011     2256      
4511       6.1831     6.1691     23.6627    34.3176    0.002      0.002      2258      
4511.5     6.1793     6.1547     24.0402    34.077     0.0031     0.0031     2184      
4512       6.1793     6.126      25.6757    36.6741    0.0025     0.0025     2112      
4512.5     6.1718     6.1475     26.2598    38.175     0.0035     0.0035     2117      
4513       6.1604     6.1404     27.276     40.9683    0.0015     0.0015     2109      
4513.5     6.1945     6.1404     30.1948    45.4127    0.0019     0.0019     2150      
4514       6.2021     6.1907     33.9474    48.9361    0.0013     0.0013     2227      
4514.5     6.1945     6.1907     34.5526    51.9046    0.0041     0.0041     2227      
4515       6.1945     6.1907     34.2579    51.6809    0.0014     0.0014     2257      
4515.5     6.1945     6.205      35.6128    54.4955    0.0021     0.0021     2150      
4516       6.1945     6.1835     37.322     56.7333    0.002      0.002      2147      
4516.5     6.1983     6.1978     37.799     58.4961    0.0013     0.0013     2144      
4517       6.1869     6.205      38.1948    59.1644    0.0015     0.0015     2134      
4517.5     6.1945     6.205      37.069     57.9857    0.002      0.002      2237      
4518       6.2096     6.1942     37.2562    57.4186    0.0025     0.0025     2251      
4518.5     6.1831     6.1907     35.0961    56.8214    0.0035     0.0035     2245      
4519       6.1945     6.1871     36.6644    58.5585    0.0019     0.0019     2138      
4519.5     6.2021     6.1907     34.165     56.4683    0.0019     0.0019     2152      
4520       6.2021     6.1871     33.0036    54.2496    0.0013     0.0013     2140      
4520.5     6.1869     6.1835     32.2875    52.6801    0.001      0.001      2201      
4521       6.1945     6.1907     34.9549    57.4374    0.0021     0.0021     2265      
4521.5     6.2021     6.1942     34.6707    60.3165    0.0023     0.0023     2209      
4522       6.2021     6.1978     36.6889    63.1984    0.002      0.002      2203      
4522.5     6.1945     6.1907     35.0186    61.0196    0.0021     0.0021     2225      
4523       6.1907     6.1978     35.1336    60.6771    0.0017     0.0017     2119      
4523.5     6.2021     6.1835     33.9482    58.9861    0.002      0.002      2105      
4524       6.1869     6.1978     35.5228    58.4104    0.0023     0.0023     2209      
4524.5     6.1945     6.1799     33.9402    56.6094    0.002      0.002      2208      
4525       6.2021     6.1978     34.7757    57.36      0.002      0.002      2243      
4525.5     6.2021     6.1978     35.9498    61.3009    0.0026     0.0026     2216      
4526       6.1907     6.1942     37.734     64.606     0.0045     0.0045     2132      
4526.5     6.2096     6.1907     36.7177    64.8787    0.0021     0.0021     2159      
4527       6.2021     6.1907     37.0916    65.6402    0.0017     0.0017     2106      
4527.5     6.1945     6.1978     38.4048    66.3044    0.0038     0.0038     2204      
4528       6.1983     6.205      39.5384    69.9102    0.0028     0.0028     2276      
4528.5     6.1869     6.1835     39.3117    72.087     0.0022     0.0022     2309      
4529       6.2021     6.1853     38.9713    74.2357    0.002      0.002      2099      
4529.5     6.2096     6.1907     37.0313    75.9394    0.0028     0.0028     2339      
4530       6.1945     6.1865     36.7027    79.9707    0.0019     0.0019     1948      
4530.5     6.1869     6.1978     36.0561    84.3174    0.003      0.003      2330      
4531       6.2021     6.1835     35.9816    85.959     0.0061     0.0061     1675      
4531.5     6.2021     6.1942     32.5713    80.5482    0.0026     0.0026     2089      
4532       6.1945     6.1799     29.6618    75.8869    0.0028     0.0028     1336      
4532.5     6.2059     6.1907     27.5917    71.4649    0.002      0.002      2256      
4533       6.1983     6.205      22.8831    66.9692    0.0018     0.0018     2254      
4533.5     6.1945     6.1907     19.5331    62.786     0.0019     0.0019     2186      
4534       6.1983     6.205      18.1985    59.3982    0.0022     0.0022     2194      
4534.5     6.2021     6.1763     17.7026    58.7085    0.0022     0.0022     2217      
4535       6.2096     6.1978     16.6821    54.8897    0.0017     0.0017     2178      
4535.5     6.1869     6.1978     17.8645    53.4174    0.0027     0.0027     2273      
4536       6.2096     6.1835     18.0508    52.2011    0.0024     0.0024     2236      
4536.5     6.1945     6.1835     19.5343    54.7802    0.0022     0.0022     2169      
4537       6.1945     6.1763     18.4211    54.2759    0.0018     0.0018     2191      
4537.5     6.2096     6.1835     17.4414    51.3058    0.0026     0.0026     2224      
4538       6.1945     6.1835     16.2346    46.6455    0.002      0.002      2216      
4538.5     6.1945     6.1835     15.9642    42.2419    0.0019     0.0019     2253      
4539       6.2021     6.1763     16.5001    39.869     0.0018     0.0018     2264      
