~Version
 VERS              .         3                             : CWLS LOG ASCII STANDARD - VERSION 3.0
 WRAP              .         NO                            : ONE LINE PER DEPTH STEP
 DLM               .         SPACE                         : DELIMITING CHARACTER(SPACE TAB OR COMMA)
~Well Information
#_______________________________________________________________________________
#
#PARAMETER_NAME    .UNIT     VALUE                         : DESCRIPTION
#_______________________________________________________________________________
STRT               .F        4494                          : First reference value
STOP               .F        7635                          : Last reference value
STEP               .F        0.5                           : Step increment
NULL               .         -9999                         : Missing value
WELL               .         SY027104H                     : Well name
ORIGINALWELLNAME   .         Well                          : 
RANG               .                                       : 
REGN               .         Abu Dhabi                     : 
AZTC               .deg      0.383835                      : 
GRDC               .deg      1.093917                      : 
WHEW               .ft       0.000000                      : 
TDL                .ft       3000.000000                   : 
TOWN               .                                       : 
NREF               .         2                             : 
DOE                .         AD-FE-0007255267              : 
EGL                .ft       407.799988                    : 
GVFD               .g        1.000000                      : 
COLG               .         186HAL_lg.bmp                 : 
WHNS               .ft       0.000000                      : 
CREF               .         Ellipsoid Clarke - 1880       : 
VSDR               .deg      55.740002                     : 
FTOP               .         Formation Tops                : 
LLGR               .         Latitude/Longitude            : 
EPD                .ft       0.000000                      : 
WDMS               .ft       0.000000                      : 
DFWL               .ft       0.000000                      : 
MFLD               .nT       42523.898438                  : 
GREF               .         Ellipsoid World Geodetic System: 
CTRY               .         UN                            : Two letter Internet country code
COUNTRY            .         United Arab Emirates          : 
DFWT               .                                       : 
CNTY               .         Abu Dhabi                     : 
VSEW               .ft       0.000000                      : 
UWI                .         AD-FE-0007255267              : 
CSGD               .ft       4170.000000                   : 
STAT               .         Abu Dhabi                     : 
APD                .ft       429.000000                    : 
BASE               .         Abu Dhabi                     : 
VSNS               .ft       0.000000                      : 
DCON               .         Al-Mansoory                   : 
API                .         AD-FE-0007255267              : 
GPMT               .                                       : 
CSGL               .ft       4170.000000                   : 
MDEC               .deg      1.477752                      : 
LONG               .deg      53.809174                     : 
CSGS               .in       9.625000                      : 
SPUD               .         20-Mar-10                     : 
MDS                .         Win MagUTM                    : 
CMER               .deg      51.000000                     : 
SRVC               .         NDC                           : 
CSGW               .lbpf     47.000000                     : 
SON                .         AD-FE-0007255267              : 
TVDS               .ft       429.000000                    : 
LMF                .         Kelly Bushing                 : 
CGSY               .         SS CLRK51                     : 
EKB                .ft       429.000000                    : 
HPTY               .         0                             : 
MWDS               .         Dubai                         : 
GGSY               .         LL                            : 
RCST               .$/da     0.000000                      : 
FLD                .         Shah                          : 
SVYD               .         Survey_DS                     : 
CCDE               .         UTM Clarke 1880 (CM 51), Meters: 
AGAP               .ft       0.000000                      : 
LOC                .                                       : 
DFSL               .ft       0.000000                      : 
EDF                .ft       428.000031                    : 
UNIT               .         166264                        : 
RIG                .         ND-50                         : 
VSC                .         0                             : 
LEAS               .                                       : 
XYGR               .         UTM Zones, Northern Hemisphere, Meters: 
GCDE               .         Generic Lat/Long's, Degrees, -180 ==> +180: 
DFST               .                                       : 
ILTD               .         Lithology                     : 
DMOD               .         Drill Model                   : 
JOBN               .         AD-FE-0007255267              : 
LATI               .deg      22.900974                     : 
DMF                .         Kelly Bushing                 : 
STIM               .         00.00.00 28-Mar-10            : 
CULG               .                                       : 
SECT               .                                       : 
PDAT               .         Mean Sea Level                : 
CPJM               .                                       : 
STRD               .ft       4648.000000                   : 
WTYP               .         2                             : 
COMP               .         ADCO                          : 
MAGU               .         1453103                       : 
PROV               .         Abu Dhabi                     : 
MMDL               .         bggm2009.dat                  : 
UTMX               .m        788186.312500                 : 
UTMY               .m        2535096.000000                : 
DATE               .         00.00.00 03-Apr-10            : 
TDD                .ft       7648.000000                   : 
MDIP               .deg      34.939442                     : 
GDAT               .                                       : 
LIC                .                                       : 
~Parameter Information Block
#_______________________________________________________________________________
#
#PARAMETER_NAME    .UNIT     VALUE                         : DESCRIPTION
#_______________________________________________________________________________
SET                .         WL_FINAL                      : 
LMF                .         ORTKB                         : Logging Measured From (Name of Logging Elevation Reference)
APD                .F        428.000000                    : Elevation of Depth Reference (LMF) above Permanent Datum
EPD                .F        0.000000                      : Elevation of Permanent Datum above Mean Sea Level
RUN                .         1                             : RUN NUMBER
PDAT               .         MSL                           : Permanent Datum
~Curve Information
#_______________________________________________________________________________
#
#LOGNAME           .UNIT     LOG_ID                        : DESCRIPTION
#_______________________________________________________________________________
DEPT               .F                                      : DEPTH (BOREHOLE) -F10 {F}
C1                 .IN                                     : Caliper 1 -F13 {F}
C2                 .IN                                     : Caliper 2 -F13 {F}
HCGR               .GAPI                                   : HNGS Computed Gamma Ray -F13 {F}
HSGR               .GAPI                                   : HNGS Standard Gamma Ray -F13 {F}
RT_HRLT            .OHMM                                   : HRLT Computed True Resistivity -F13 {F}
RXO_HRLT           .OHMM                                   : HRLT Computed Invaded Zone Resistivity -F13 {F}
TENS               .LBF                                    : Cable Tension -F13 {F}
~Ascii
# ...
6769       5.9747     5.9176     14.5387    41.4425    2.1065     0.9292     3171      
6769.5     5.9747     5.932      13.6935    41.3037    2.1743     0.9629     3244      
6770       5.9596     5.932      13.386     41.6027    2.2089     0.9652     3229      
6770.5     5.952      5.9392     14.5193    43.8759    2.072      0.8951     3238      
6771       5.9899     5.9823     15.44      44.1301    2.0386     0.8816     3028      
6771.5     5.9747     5.9823     15.8429    44.8965    2.1019     0.9228     3016      
6772       6.0202     5.9823     16.1684    44.2255    2.1375     0.9425     3203      
6772.5     6.0278     5.9463     16.3533    45.6951    2.0404     0.891      3113      
6773       6.0202     5.9679     14.6319    45.3144    2.13       0.9287     3230      
6773.5     6.0126     5.9535     14.5757    46.2073    2.1071     0.919      3247      
6774       6.005      5.9679     13.4076    44.6754    2.1334     0.9003     3222      
6774.5     6.0278     5.9104     12.1213    43.6514    2.0613     0.8588     3119      
6775       6.0202     5.9032     12.6573    42.7619    1.9761     0.81       3059      
6775.5     6.0126     5.9176     12.8083    41.6924    1.984      0.7859     3028      
6776       6.024      5.914      13.4108    42.4235    1.9845     0.7721     3091      
6776.5     6.0278     5.9104     14.3912    44.1504    1.9805     0.7518     3244      
6777       6.0278     5.9032     15.7378    44.7589    2.019      0.7412     3271      
6777.5     6.0354     5.8961     15.2635    45.8368    2.0732     0.7683     3238      
6778       6.0202     5.8817     16.5999    46.0058    2.3402     0.8619     3147      
6778.5     6.0316     5.8673     18.9091    50.7393    2.1942     0.7943     3055      
6779       6.096      5.9176     22.0448    55.4852    1.4895     0.5315     3059      
6779.5     6.1036     5.9032     23.2992    58.6709    1.3905     0.4945     3053      
6780       6.1187     5.9176     22.9474    57.7275    1.6317     0.5904     3198      
6780.5     6.149      5.8817     21.783     54.507     2.0621     0.7242     3246      
6781       6.1263     5.8673     19.9698    50.1731    2.4301     0.8058     3254      
6781.5     6.1414     5.8817     18.93      47.902     2.2544     0.7051     3306      
6782       6.1452     5.8745     17.7484    45.2314    2.15       0.6749     3076      
6782.5     6.1566     5.9104     17.9464    46.2764    1.9765     0.6317     3067      
6783       6.1452     5.9212     18.8132    46.8022    1.9214     0.6283     3041      
6783.5     6.149      5.9104     20.5129    49.9029    1.8635     0.6239     3028      
6784       6.1642     5.9032     21.5228    51.0984    1.8365     0.6117     3192      
6784.5     6.1869     5.9032     22.1472    52.7966    1.8915     0.632      3263      
6785       6.1793     5.8961     21.6408    51.5478    1.9583     0.6446     3265      
6785.5     6.1793     5.9176     24.088     53.8216    1.9052     0.6135     3058      
6786       6.2021     5.9428     25.5034    54.9895    1.839      0.6044     3135      
6786.5     6.1945     5.9463     27.9525    56.7731    2.0028     0.6279     3041      
6787       6.2096     5.9463     26.5258    54.9985    1.9465     0.6151     3041      
6787.5     6.24       5.9751     27.2298    55.0704    1.8783     0.5972     3151      
6788       6.2551     5.9679     29.452     59.5928    2.0254     0.6414     3220      
6788.5     6.2627     5.9607     33.8148    64.6656    1.8868     0.596      3249      
6789       6.2248     5.9607     33.7853    67.3963    1.9092     0.5939     3217      
6789.5     6.2096     5.9751     33.6374    67.4751    1.8139     0.5634     3196      
6790       6.2172     5.9823     34.0474    65.4637    1.9391     0.6105     3102      
6790.5     6.2096     5.9751     36.0835    67.18      1.9818     0.627      3116      
6791       6.2248     5.9751     33.2557    65.4437    1.7991     0.5756     3135      
6791.5     6.2096     5.9895     31.9851    65.7656    1.8004     0.5739     3139      
6792       6.1718     6.0649     31.03      65.6769    1.9009     0.612      3283      
6792.5     6.1718     6.1116     33.5621    69.1578    1.955      0.642      3286      
6793       6.1869     6.1224     34.4771    70.9862    1.9413     0.6239     3129      
6793.5     6.2248     6.126      34.2987    72.8942    1.7667     0.6026     3149      
6794       6.2324     6.1296     33.3047    72.7891    1.8166     0.6145     3102      
6794.5     6.077      6.126      34.5711    73.9616    1.8458     0.63       3140      
6795       6.0429     6.0254     32.7705    68.3437    1.5309     0.5632     3189      
6795.5     6.0505     6.0398     29.6715    65.0289    1.9516     0.7388     3230      
6796       5.9709     5.9679     27.6386    61.5854    1.8634     0.7244     3307      
6796.5     5.9672     5.9679     27.2959    61.848     1.9129     0.7301     3177      
6797       5.9672     5.9751     27.1932    60.174     1.9279     0.7206     3254      
6797.5     5.9672     5.9751     25.2951    56.6531    1.8625     0.7589     3140      
6798       5.952      5.9463     24.3544    54.9104    2.2422     0.9094     3047      
6798.5     5.9747     5.9535     22.7565    54.317     2.2953     0.9501     2795      
6799       5.9655     5.9355     24.0256    55.395     2.1383     0.9242     2625      
6799.5     5.9747     5.9392     22.186     56.0675    2.2233     0.9599     2366      
6800       5.9672     5.932      22.1372    55.3984    2.1215     0.9426     2149      
6800.5     5.9672     5.932      20.9196    56.845     2.2457     1.0292     3118      
6801       5.9672     5.9104     20.8594    58.4143    2.3946     0.9711     2978      
6801.5     5.9596     5.9392     21.1254    59.5448    1.9259     0.8481     2794      
6802       5.9672     5.9607     21.1264    56.4085    3.3365     1.501      2514      
6802.5     5.9672     5.9343     18.5905    50.8479    4.3695     1.9139     2356      
6803       6.0354     5.9679     18.912     48.8436    3.5558     1.5466     2022      
6803.5     6.0202     5.9679     20.6803    52.0426    2.5843     1.092      1893      
6804       6.0354     5.9895     22.7885    55.6879    2.5199     1.094      3216      
6804.5     6.0429     5.9823     25.4354    61.2118    1.718      0.7398     2981      
6805       6.0278     5.9966     26.742     62.589     1.3964     0.6129     2963      
6805.5     6.0278     5.9966     27.6145    64.9212    1.5668     0.7061     2950      
6806       6.0429     5.9966     27.627     61.9825    1.4926     0.6258     2997      
6806.5     6.0429     6.0038     27.8626    60.8789    1.4715     0.6151     3091      
6807       6.0126     5.9535     26.1793    58.1106    1.8903     0.7649     3110      
6807.5     6.0354     5.9607     25.6239    58.8413    1.7798     0.7295     3075      
6808       6.0278     5.9607     26.6021    61.2405    1.3954     0.5573     3015      
6808.5     6.0354     5.9679     26.0101    65.2217    1.2961     0.529      2908      
6809       6.024      5.9751     23.9913    65.4601    1.3803     0.589      2968      
6809.5     6.0354     5.9751     23.1651    64.6081    1.5405     0.6498     2951      
6810       6.0202     5.9248     20.6768    61.1654    1.5593     0.6714     3014      
6810.5     6.0278     5.9032     19.2467    58.7877    1.6519     0.7086     3098      
6811       6.0354     5.9248     16.3448    55.0005    1.6177     0.7072     2986      
6811.5     6.0354     5.9176     15.6062    54.8056    1.7515     0.7441     2934      
6812       6.0278     5.9463     13.9443    53.7166    1.7962     0.7969     2933      
6812.5     6.0354     5.9535     13.3602    54.0955    2.1747     1.0079     2980      
6813       6.0202     5.9535     13.1618    53.8157    2.1988     1.0048     2957      
6813.5     6.0354     5.9392     12.3986    54.5093    1.8119     0.901      3061      
6814       6.0429     5.9392     12.1899    54.4599    1.8885     0.9817     3102      
