~Version
 VERS              .         3                             : CWLS LOG ASCII STANDARD - VERSION 3.0
 WRAP              .         NO                            : ONE LINE PER DEPTH STEP
 DLM               .         SPACE                         : DELIMITING CHARACTER(SPACE TAB OR COMMA)
~Well Information
#_______________________________________________________________________________
#
#PARAMETER_NAME    .UNIT     VALUE                         : DESCRIPTION
#_______________________________________________________________________________
STRT               .F        4494                          : First reference value
STOP               .F        7635                          : Last reference value
STEP               .F        0.5                           : Step increment
NULL               .         -9999                         : Missing value
WELL               .         SY027104H                     : Well name
ORIGINALWELLNAME   .         Well                          : 
RANG               .                                       : 
REGN               .         Abu Dhabi                     : 
AZTC               .deg      0.383835                      : 
GRDC               .deg      1.093917                      : 
WHEW               .ft       0.000000                      : 
TDL                .ft       3000.000000                   : 
TOWN               .                                       : 
NREF               .         2                             : 
DOE                .         AD-FE-0007255267              : 
EGL                .ft       407.799988                    : 
GVFD               .g        1.000000                      : 
COLG               .         186HAL_lg.bmp                 : 
WHNS               .ft       0.000000                      : 
CREF               .         Ellipsoid Clarke - 1880       : 
VSDR               .deg      55.740002                     : 
FTOP               .         Formation Tops                : 
LLGR               .         Latitude/Longitude            : 
EPD                .ft       0.000000                      : 
WDMS               .ft       0.000000                      : 
DFWL               .ft       0.000000                      : 
MFLD               .nT       42523.898438                  : 
GREF               .         Ellipsoid World Geodetic System: 
CTRY               .         UN                            : Two letter Internet country code
COUNTRY            .         United Arab Emirates          : 
DFWT               .                                       : 
CNTY               .         Abu Dhabi                     : 
VSEW               .ft       0.000000                      : 
UWI                .         AD-FE-0007255267              : 
CSGD               .ft       4170.000000                   : 
STAT               .         Abu Dhabi                     : 
APD                .ft       429.000000                    : 
BASE               .         Abu Dhabi                     : 
VSNS               .ft       0.000000                      : 
DCON               .         Al-Mansoory                   : 
API                .         AD-FE-0007255267              : 
GPMT               .                                       : 
CSGL               .ft       4170.000000                   : 
MDEC               .deg      1.477752                      : 
LONG               .deg      53.809174                     : 
CSGS               .in       9.625000                      : 
SPUD               .         20-Mar-10                     : 
MDS                .         Win MagUTM                    : 
CMER               .deg      51.000000                     : 
SRVC               .         NDC                           : 
CSGW               .lbpf     47.000000                     : 
SON                .         AD-FE-0007255267              : 
TVDS               .ft       429.000000                    : 
LMF                .         Kelly Bushing                 : 
CGSY               .         SS CLRK51                     : 
EKB                .ft       429.000000                    : 
HPTY               .         0                             : 
MWDS               .         Dubai                         : 
GGSY               .         LL                            : 
RCST               .$/da     0.000000                      : 
FLD                .         Shah                          : 
SVYD               .         Survey_DS                     : 
CCDE               .         UTM Clarke 1880 (CM 51), Meters: 
AGAP               .ft       0.000000                      : 
LOC                .                                       : 
DFSL               .ft       0.000000                      : 
EDF                .ft       428.000031                    : 
UNIT               .         166264                        : 
RIG                .         ND-50                         : 
VSC                .         0                             : 
LEAS               .                                       : 
XYGR               .         UTM Zones, Northern Hemisphere, Meters: 
GCDE               .         Generic Lat/Long's, Degrees, -180 ==> +180: 
DFST               .                                       : 
ILTD               .         Lithology                     : 
DMOD               .         Drill Model                   : 
JOBN               .         AD-FE-0007255267              : 
LATI               .deg      22.900974                     : 
DMF                .         Kelly Bushing                 : 
STIM               .         00.00.00 28-Mar-10            : 
CULG               .                                       : 
SECT               .                                       : 
PDAT               .         Mean Sea Level                : 
CPJM               .                                       : 
STRD               .ft       4648.000000                   : 
WTYP               .         2                             : 
COMP               .         ADCO                          : 
MAGU               .         1453103                       : 
PROV               .         Abu Dhabi                     : 
MMDL               .         bggm2009.dat                  : 
UTMX               .m        788186.312500                 : 
UTMY               .m        2535096.000000                : 
DATE               .         00.00.00 03-Apr-10            : 
TDD                .ft       7648.000000                   : 
MDIP               .deg      34.939442                     : 
GDAT               .                                       : 
LIC                .                                       : 
~Parameter Information Block
#_______________________________________________________________________________
#
#PARAMETER_NAME    .UNIT     VALUE                         : DESCRIPTION
#_______________________________________________________________________________
SET                .         WL_FINAL                      : 
LMF                .         ORTKB                         : Logging Measured From (Name of Logging Elevation Reference)
APD                .F        428.000000                    : Elevation of Depth Reference (LMF) above Permanent Datum
EPD                .F        0.000000                      : Elevation of Permanent Datum above Mean Sea Level
RUN                .         1                             : RUN NUMBER
PDAT               .         MSL                           : Permanent Datum
~Curve Information
#_______________________________________________________________________________
#
#LOGNAME           .UNIT     LOG_ID                        : DESCRIPTION
#_______________________________________________________________________________
DEPT               .F                                      : DEPTH (BOREHOLE) -F10 {F}
C1                 .IN                                     : Caliper 1 -F13 {F}
C2                 .IN                                     : Caliper 2 -F13 {F}
HCGR               .GAPI                                   : HNGS Computed Gamma Ray -F13 {F}
HSGR               .GAPI                                   : HNGS Standard Gamma Ray -F13 {F}
RT_HRLT            .OHMM                                   : HRLT Computed True Resistivity -F13 {F}
RXO_HRLT           .OHMM                                   : HRLT Computed Invaded Zone Resistivity -F13 {F}
TENS               .LBF                                    : Cable Tension -F13 {F}
~Ascii
# ...
4721.5     6.1414     6.0469     8.4173     84.6631    5.4331     2.5962     2245      
4722       6.149      6.0541     6.9919     82.5149    4.1608     1.8295     2147      
4722.5     6.1339     6.0613     6.4579     78.6215    3.8384     1.7116     2148      
4723       6.1414     6.0326     6.9332     78.5857    4.4168     2.1642     2179      
4723.5     6.1339     6.0469     7.8186     80.7254    5.8118     2.6656     2290      
4724       6.1414     6.0398     8.5207     81.469     4.457      1.8591     2337      
4724.5     6.149      6.0469     8.9856     80.4507    3.7892     1.5311     2325      
4725       6.149      6.0613     9.6598     81.0469    4.0826     1.906      2288      
4725.5     6.1414     6.0469     10.364     82.7825    5.4731     2.6284     2175      
4726       6.1339     6.0398     10.6303    83.6007    5.3892     2.3601     2142      
4726.5     6.1339     6.0398     10.4889    82.2931    3.8307     1.6942     2196      
4727       6.1111     6.0398     11.9251    83.2591    5.6758     2.3852     2223      
4727.5     6.1263     6.0469     12.6362    84.1599    6.7615     2.9698     2220      
4728       6.0884     6.0398     12.8749    83.5355    5.1927     2.2821     2262      
4728.5     6.1187     6.0398     12.4799    80.0098    4.0427     1.6661     2303      
4729       6.0808     6.0398     11.9324    79.0595    4.5005     2.018      2233      
4729.5     6.0657     6.0469     13.1579    80.0516    5.5323     2.5339     2191      
4730       6.0732     6.0326     12.8084    82.6375    5.0209     2.2682     2230      
4730.5     6.0884     6.0398     11.9249    81.8538    3.9415     1.6794     2210      
4731       6.1339     6.0469     10.6153    79.4685    3.2596     1.5211     2289      
4731.5     6.1414     6.0613     9.9646     74.7734    3.3265     1.7501     2282      
4732       6.149      6.0505     10.3541    74.9542    4.1941     2.1167     2227      
4732.5     6.1339     6.0613     8.6936     76.4397    3.8504     1.9208     2283      
4733       6.1642     6.0398     9.5838     79.0911    4.1067     2.0223     2223      
4733.5     6.1793     6.0398     10.2392    81.2945    5.48       2.5865     2194      
4734       6.1793     6.0326     9.8038     79.9701    5.7693     2.7891     2237      
4734.5     6.1642     6.0541     9.9564     80.2929    5.2124     2.4732     2307      
4735       6.1755     6.0398     9.1479     78.5948    4.5012     2.2159     2277      
4735.5     6.1642     6.0541     8.7464     80.0337    5.0172     2.498      2276      
4736       6.1718     6.0541     9.2284     79.0251    5.2067     2.5215     2167      
4736.5     6.1869     6.0541     9.0679     79.4246    5.2443     2.583      2268      
4737       6.1793     6.0398     8.7674     79.376     6.3086     2.7967     2172      
4737.5     6.2172     6.0469     8.2031     79.1756    4.7088     2.1209     2208      
4738       6.1718     6.0398     8.0526     80.2829    3.8748     1.9483     2276      
4738.5     6.149      6.0613     7.5146     80.6674    4.7364     2.2739     2302      
4739       6.1414     6.0469     8.0799     81.6952    3.9558     1.9388     2284      
4739.5     6.1339     6.0398     7.3373     81.0087    3.7463     1.8382     2244      
4740       6.1414     6.0685     6.2233     79.746     3.7235     1.8447     2278      
4740.5     6.1036     6.0541     6.0773     80.3881    3.6095     1.8932     2107      
4741       6.096      6.0469     6.9339     82.0756    4.1714     2.0107     2201      
4741.5     6.0808     6.0541     7.2842     88.1852    4.3959     2.1052     2191      
4742       6.096      6.0577     8.1131     89.8329    5.5047     2.3658     2207      
4742.5     6.0808     6.0541     8.3767     90.8881    6.543      2.6952     2326      
4743       6.077      6.0613     7.7137     90.8798    6.1917     2.5134     2311      
4743.5     6.0657     6.0469     9.3182     93.2257    6.1384     2.4703     2243      
4744       6.1263     6.0469     9.7828     94.7728    5.7463     2.3574     2225      
4744.5     6.149      6.0613     10.0054    97.1377    5.5518     2.3839     2169      
4745       6.149      6.0469     10.7707    97.5644    5.0578     2.3288     2160      
4745.5     6.149      6.0757     12.5374    101.712    4.53       2.2359     2173      
4746       6.1339     6.0757     12.3789    101.128    3.6232     1.8896     2263      
4746.5     6.1339     6.0901     12.2937    101.246    3.5933     1.7977     2283      
4747       6.1339     6.0901     12.7726    98.4887    3.5156     1.7658     2232      
4747.5     6.1263     6.0685     13.4269    97.461     4.7981     2.2555     2245      
4748       6.0884     6.0685     13.6405    98.4205    6.9411     3.0386     2148      
4748.5     6.0732     6.0613     14.1931    97.3494    5.5268     2.5175     2192      
4749       6.0808     6.0685     13.3993    97.3407    4.9588     2.2923     2239      
4749.5     6.0732     6.0613     13.699     96.9621    5.3535     2.5388     2289      
4750       6.0884     6.0541     13.188     97.6787    4.3733     2.1698     2294      
4750.5     6.077      6.0541     12.0043    97.9312    5.026      2.5191     2213      
4751       6.0695     6.0613     11.2048    96.4083    5.8784     2.9406     2263      
4751.5     6.0732     6.0434     11.1039    96.6797    4.7003     2.4443     2146      
4752       6.0732     6.0685     9.891      96.6708    4.7375     2.3672     2189      
4752.5     6.0657     6.0469     9.4164     99.9733    4.5821     2.3697     2203      
4753       6.0808     6.0613     8.8408     100.659    4.8997     2.7932     2288      
4753.5     6.0732     6.0613     8.635      98.4167    4.8202     2.5708     2304      
4754       6.0657     6.0398     8.2828     98.8083    5.2112     2.6044     2314      
4754.5     6.0657     6.0541     8.1493     97.7422    4.223      2.148      2202      
4755       6.0695     6.0505     7.5302     98.9411    5.2356     2.5831     2174      
4755.5     6.0657     6.0613     7.1526     98.0679    5.7213     2.9596     2169      
4756       6.0732     6.0469     7.5259     98.17      4.9463     2.8313     2209      
4756.5     6.0808     6.0613     7.8542     99.608     4.4764     2.5475     2227      
4757       6.0732     6.0398     7.9088     98.9314    3.648      2.1331     2314      
4757.5     6.0505     6.0613     8.6763     101.406    4.0688     2.2779     2301      
4758       6.0657     5.9895     7.8602     100.629    5.4055     2.8933     2288      
4758.5     6.0505     5.9823     8.6831     98.2994    6.2779     3.1127     2196      
4759       6.0657     5.9751     9.1903     96.5132    5.4077     2.5196     2201      
4759.5     6.0695     5.9751     11.3251    96.6235    5.1285     2.3561     2191      
4760       6.0808     5.9823     12.2928    102.612    4.5339     2.1288     2227      
4760.5     6.0846     5.9751     13.5162    103.72     5.0701     2.4811     2247      
4761       6.077      5.9823     13.5625    105.373    4.6345     2.2817     2324      
4761.5     6.1263     5.9751     14.6022    105.732    3.6676     1.782      2254      
4762       6.1566     5.9715     15.8668    108.097    3.713      1.8115     2232      
4762.5     6.1414     5.9895     17.5619    113.614    4.5905     2.1535     2196      
4763       6.1414     5.9751     17.7113    113.18     4.514      2.2209     2220      
4763.5     6.149      5.9607     18.4546    116.003    5.3264     2.4305     2231      
4764       6.1566     5.9176     17.855     113.954    4.5632     2.0292     2276      
4764.5     6.168      5.8961     18.3522    113.744    3.9362     1.6849     2288      
4765       6.1793     5.9104     16.9096    114.382    4.1587     1.8041     2201      
4765.5     6.2096     5.8745     17.4502    115.476    6.2706     2.7001     2211      
4766       6.2703     5.8709     17.5435    115.612    5.5585     2.4053     2165      
4766.5     6.2627     5.8745     19.182     113.579    4.9849     1.9987     2143      
