~Version Information
 VERS.                  2.0:   CWLS log ASCII Standard -VERSION 2.0
 WRAP.                   NO:   One line per depth step
~Well Information Block
#MNEM.UNIT     VALUE/NAME     DESCRIPTION
#---------     -----------    ---------------------------
 STRT.M              5223.0528: START DEPTH
 STOP.M              5533.9488: STOP DEPTH
 STEP.M                 0.1524: STEP DEPTH
 NULL.               -999.2500: NULL VALUE
 DFWT.                        :  DIST FWL TEXT
 DFST.                        :  DIST FSL TEXT
 DMF .             Drill Floor:  DRILL MEAS FROM
 STIM.      11.30.00 09-Jul-16:  START TIME
 DATE.      11.29.04 14-Aug-16:  END TIME
 SPUD.               17-Aug-15:  SPUD DATE
 NREF.                    Grid:  NORTH REFERENCE
 HPTY.       Minimum Curvature:  HOLE POS TYPE
 DMOD.             Drill Model:  DRILL MOD DESC
 SVYD.                  Survey:  SURVEY DESC
 ILTD.               Lithology:  INTERP LTH DESC
 FTOP.          Formation Tops:  FORM TOPS DESC
 WELL.              AF011-3D-1:  WELL NAME
 COMP.               TOTAL-ABK:  COMPANY
 SON .        AD-XX-0902156848:  JOB NUMBER
 GCDE.     Generic Lat/Long's, Degrees, -180 ==> +180:  GEO COORD DESC
 CCDE.     UTM Clarke 1880 (CM 51), Meters:  CART COORD DESC
 GGSY.                      LL:  GEO GRID SYS
 CGSY.               SS CLRK51:  CART GRID SYS
 GREF.     Ellipsoid World Geodetic System :  GEO REFERENCE
 CREF.     Ellipsoid Clarke - 1880:  CART REFERENCE
 MMDL.            bggm2016.dat:  MAGNETIC MODEL
 MMDD.            20 May, 2016:  MAG DATA DATE
 MDS .              Win MagUTM:  MAG DATA SOURCE
 LLGR.      Latitude/Longitude:  LLGROUP
 XYGR.     UTM Zones, Northern Hemisphere, Meters:  XYGROUP
 PDAT.          Mean Sea Level:  PERMANENT DATUM
 WTYP.                Deviated:  WELL TYPE
 BASE.               Abu Dhabi:  LOGGING EQUIPMENT BASE LOCATION
 REGN.     Middle East/North Africa:  REGION
 PROV.               Abu Dhabi:  PROVINCE
 STAT.               Abu Dhabi:  STATE NAME
 CTRY.     United Arab Emirates:  COUNTRY NAME
 FLD .         Abu Al Bukhoosh:  FIELD NAME
 SRVC.                  SAIPEM:  CONTRACTOR
 MWDS.                Musaffah:  MWD SHOP
 RIG .           Perro Negro 8:  RIG NAME
 CNTY.               Abu Dhabi:  COUNTY NAME
 DCON.             HALLIBURTON:  DIRECTNL CONTR
 UNIT.                    9804:  LOGGING EQUIPMENT ID
 DOE .        AD-XX-0902156848:  DOE NUMBER
 API .                        :  API NUMBER
 UWI .                        :  UNIQUE WELL IDENTIFIER
 LOC .                        :  LOCATION
 LMF .             Drill Floor:  LOG MEASURED FROM
 TVDS.m              43.899999:  TVDSS CORRECTN
 LATI.deg            25.504513:  LATITUDE
 LONG.deg            53.120396:  LONGITUDE
 WHNS.m               0.000000:  WELL HEAD N/S
 WHEW.m               0.000000:  WELL HEAD E/W
 UTMX.m          713123.300043:  UTM X
 UTMY.m         2822281.299893:  UTM Y
 DFWL.m               0.000000:  DISTANCE FWL
 DFSL.m               0.000000:  DISTANCE FSL
 SDEP.m            5253.990000:  START DEPTH
 TDD .m            5543.669658:  TOTAL DEPTH (DRILLER)
 VSDR.deg           249.940002:  VERT SEC DIRECT
 GVFD.g               1.000000:  GRAVITY FIELD
 MFLD.nT          43940.839844:  MAGNETIC FIELD
 MDIP.deg            39.918472:  MAGNETIC DIP
 MDEC.deg             2.250056:  MAGNETIC DECL
 GRDC.deg             0.913350:  GRID CORRECTION
 AZTC.deg             1.336706:  AZM TOTAL CORR
 EPD .m               0.000000:  ELEVATION
 EGL .m             -45.400001:  GROUND ELEVATION
 WDMS.m              45.400001:  WD ELEV
 APD .m              43.899999:  DEPTH ABOVE PD
 MMDE.m               0.000000:  MAGUTM CALC DEP
 CMER.deg            51.000000:  CENTRL MERIDIAN
 AGAP.m              23.099999:  AIR GAP
 EKB .m              43.899999:  KB ELEVATION
 EDF .m              43.899999:  DF ELEVATION
 VSC .                       0:  VS TO CLOSURE
 MAGU.                 1527179:  MAGUTM CHECKSUM
~Parameter Information Block
#MNEM.UNIT       Value        Description
#---------     -----------    ---------------------------
 AV  .mps             1.500000:  Ann Velocity 
 AVMX.mps             2.400000:  Max Ann Veloc 
 AZIF.deg           257.739990:  Azm, Final 
 BHAT.                 Turbine:  BHA Type 
 BROT.°/100'          0.000000:  Build Rotating 
 BS  .in              8.500000:  Bit Size 
 BSZ .in              8.500000:  Bit Size 
 BTPL.psig           43.511005:  Bit Press Loss 
 CABU.                      No:  Customer Abuse 
 TCS .hr            149.515671:  Time Ciculation Ended 
 CV  .mps             3.000000:  Crit Velocity 
 CVMX.mps             4.000000:  Max Crit Veloc 
 DD1 .            Ahmed Bayoud:  Direct Drillr 1 
 DD2 .        Hany Abdel Hafez:  Direct Drillr 2 
 DDSV.                 Turbine:  DD Service 
 DEFF.%              98.000000:  % Det Eff 
 DLRX.°/100'          0.000000:  Dogleg Rot Max 
 DLSO.°/100'          0.000000:  Dogleg Oriented 
 DLSX.°/100'          0.000000:  Dogleg Str Max 
 DRET.      12.28.32 23-Jun-16:  Drill End Time 
 DRST.      14.30.00 17-Jun-16:  Drill Start Tim 
 DTIM.hr            102.349998:  Time Drilling 
 EDEP.m            5254.000000:  End Depth 
 ENG1.         Ahmed Montasser:  Engineer 1 
 ENG2.              Do Dang Sa:  Engineer 2 
 ENG3.           Khaled Khalaf:  Engineer 3 
 ENG4.         Muhammad Mubeen:  Engineer 4 
 ETIM.      05.40.54 26-Jun-16:  End Time 
 FLOI.lpm          1800.000122:  Flow In 
 FLON.lpm          1500.000000:  Flow In Min 
 FLOS.lpm             0.000000:  Fluid Loss 
 FLOX.lpm          1800.000122:  Flow In Max 
 DFT .                   Other:  Mud Type 
 HFLO.                      No:  High Flow 
 HPRE.                      No:  High Pressure 
 HTEM.                      No:  High Temp 
 HYDO.m               1.400000:  Hydro Offset 
 IFIN.deg            10.460000:  Inc, Final 
 IMAX.deg            32.367214:  Inc Max 
 IMIN.deg            11.447388:  Inc Min 
 IMND.m            5236.799805:  Inc Min Depth 
 IMXD.m            4790.299805:  Inc Max Depth 
 JARR.                      No:  Jarring 
 LETM.      12.28.32 23-Jun-16:  Log End Time 
 LOST.hr                     0:  Lost Rig Time 
 LSTM.      14.30.00 17-Jun-16:  Log Start Time 
 MDCL.ppm         23000.000000:  Mud Chlorides 
 MDES.             Fresh Water:  Mud Desc 
 DFD .g/c3            1.170004:  Mud Density 
 MDMN.g/c3            1.160004:  Dens Mud Min 
 MDMX.g/c3            1.170004:  Dens Mud Max 
 PH  .pH              9.400000:  Mud pH 
 MOIL.                       0:  Run Mud Oil % 
 MOWR.                    1 91:  Run Mud OWR 
 MSND.                     0.1:  Run Mud Sand % 
 MSOL.                     6.2:  Run Mud Solids% 
 DFV .spl            73.000000:  Mud Viscosity 
 MWOD.in              6.750000:  MWD Tool OD 
 MWSI.                      No:  Serv Intrp, MWD 
 OTIM.hr            238.111023:  Time Operating 
 PMAX.psig         4000.000000:  Press Op, Max 
 PV  .mPsec          36.000000:  Mud PV 
 RMS .ohmm            0.299000:  Mud Resistivity 
 RMCS.ohmm            0.397000:  Mud Cake Resistivity 
 MCST.degC           35.000000:  Mud Cake Sample Temperature 
 RMFS.ohmm            0.200000:  Mud Filtrate Resistivity 
 RMFT.degC           35.000000:  Mud Filtrate Sample Temperature 
 RMMT.ohmm            0.118100:  Rm @ Max Temp 
 MST .degC           35.000000:  Mud Sample Temperature 
 RUN .                    3300:  Run Number 
 ROPA.m/hr            4.450000:  ROP Avg 
 ROPN.m/hr            2.000000:  ROP Min 
 ROPX.m/hr            7.000000:  ROP Max 
 RPMA.rpm            78.000000:  RPM Surface Avg 
 RPMN.rpm            35.000000:  RPM Surface Min 
 RPMX.rpm            80.000000:  RPM Surface Max 
 RRUN.                    3300:  Rig Run Number 
 RTIM.hr              7.150000:  Time Reaming 
 SAZI.deg           249.699997:  Azm, Start 
 SDEP.m            4799.000000:  Start Depth 
 SIDD.                      No:  Serv Intrp, DD 
 SINC.deg            30.049999:  Inc, Start 
 SPPA.psig         4543.999023:  SPP Avg 
 SPPN.psig         4264.078613:  SPP Min 
 SPPX.psig         4641.173828:  SPP Max 
 STIM.      09.00.00 16-Jun-16:  Start Time 
 SVCS.                 DD, MWD:  Services 
 SVER.                8.300000:  Sperry Version 
 TDAT.m             455.000000:  Tot Depth Attmp 
 TDDF.                      No:  Trip for DD 
 TDLG.m             455.000000:  Tot Depth Loggd 
 TFF .                      No:  Trip for Fail 
 TQAA.f-p         37070.000000:  Torque Abs Avg 
 TQAN.f-p         35000.000000:  Torque Abs Min 
 TQAX.f-p         39000.000000:  Torque Abs Max 
 TRRT.°/100'          0.000000:  Turn Rotating 
 MRT .                     PWD:  Maximum Recorded Temperature 
 TTMX.degC          121.568352:  Max Tool Temp 
 VS01.     AD90473258H2V5WGV2COXF1(6):  Virtual Str1 SN 
 WBMN.klb             4.409245:  WOB Min 
 WITN.           Roger Butters:  Customer Rep 
 WOBA.klb             9.788525:  WOB Avg 
 WOBX.klb            13.227736:  WOB Max 
 YP  .pa             43.000000:  Yield Point 
~Curve Information Block
#MNEM.UNIT                 API CODE     Curve Description
#---------               -----------    ---------------------------
 DEPT.M                 00 000 000 000:  Depth
 DGRCC.api              00 000 000 000:  DGR Comb Gamma Ray BCorr
 ALHSI.in               00 000 000 000:  ALD Hole Size Indicator
 ABR .ohmm              00 000 000 000:  At-Bit Resistivity
 AFRSA.ohmm             00 000 000 000:  AFR Shallow Avg Res
 AFRMA.ohmm             00 000 000 000:  AFR Medium Avg Res
 AFRDA.ohmm             00 000 000 000:  AFR Deep Avg Res
 AFXT.hr                00 000 000 000:  AFR Form Exp Time
 ALCDLC.g/c3            00 000 000 000:  ALD LCRB Comp Density
 ALPELC.NONE            00 000 000 000:  ALD LCRB Pe Factor
 ALDCLC.g/c3            00 000 000 000:  ALD LCRB Den Correction
 TNPL.pu                00 000 000 000:  CTN Porosity Limestone
 DTC .uspf              00 000 000 000:  BAT DTC
 DTRS.uspf              00 000 000 000:  BAT Refracted Shear
 VPVS.NONE              00 000 000 000:  BAT VP/VS
#Other Information
#
#WARRANTY: Halliburton will use its best efforts to furnish customers with 
#accurate information and interpretations that are part of, and incident to, the services 
#provided.  However, Halliburton cannot and does not warrant the accuracy 
#or correctness of such information and interpretations.  Under no circumstances should any 
#such information or interpretation be relied upon as the sole basis for any drilling, 
#completion, production, or financial decision or any procedure involving any risk to the 
#safety of any drilling venture, drilling rig or its crew or any other third party.  The 
#Customer has full responsibility for all drilling, completion and production operation.  
#Halliburton makes no representations or warranties, either expressed or 
#implied, including, but not limited to, the implied warranties of merchantability or fitness 
#for a particular purpose, with respect to the services rendered.  In no event will 
#Halliburton be liable for failure to obtain any particular results or for 
#any damages, including, but not limited to, indirect, special or consequential damages, 
#resulting from the use of any information or interpretation provided by Halliburton.
#
~A   DEPT      DGRCC     ALHSI      ABR      AFRSA     AFRMA     AFRDA     AFXT     ALCDLC    ALPELC    ALDCLC     TNPL       DTC      DTRS      VPVS    
# ...
   5513.8320 -999.2500 -999.2500   27.3912   63.6408   74.8247   72.4490   66.8214 -999.2500 -999.2500 -999.2500 -999.2500   61.5086  103.8813    1.6890
   5513.9844 -999.2500 -999.2500   27.0402   59.2949   68.1426   66.9344   66.8174 -999.2500 -999.2500 -999.2500 -999.2500   61.2916  103.0289    1.6810
   5514.1368 -999.2500 -999.2500   26.5559   56.8447   58.4076   60.7921   66.8137 -999.2500 -999.2500 -999.2500 -999.2500   60.7486  102.5403    1.6880
   5514.2892 -999.2500 -999.2500   26.0926   58.5619   56.0743   58.6409   66.8098 -999.2500 -999.2500 -999.2500 -999.2500   60.6418  102.2143    1.6856
   5514.4416 -999.2500 -999.2500   25.6909   55.8204   55.3441   53.7319   66.8059 -999.2500 -999.2500 -999.2500 -999.2500   60.7655  101.7379    1.6743
   5514.5940 -999.2500 -999.2500   25.4547   47.1319   46.7867   42.9253   66.8022 -999.2500 -999.2500 -999.2500 -999.2500   61.0271  100.3605    1.6446
   5514.7464 -999.2500 -999.2500   25.3148   39.4433   37.6290   34.5753   66.7984 -999.2500 -999.2500 -999.2500 -999.2500   61.3855  100.2423    1.6330
   5514.8988 -999.2500 -999.2500   25.0820   35.7845   32.7979   31.9264   66.7944 -999.2500 -999.2500 -999.2500 -999.2500   61.9377  101.2839    1.6352
   5515.0512 -999.2500 -999.2500   24.5556   37.7767   34.8509   36.3251   66.7903 -999.2500 -999.2500 -999.2500 -999.2500   62.4343  101.5755    1.6269
   5515.2036 -999.2500 -999.2500   23.6273   43.0679   40.9343   45.3851   66.7862 -999.2500 -999.2500 -999.2500 -999.2500   62.2137  100.2856    1.6119
   5515.3560 -999.2500 -999.2500   22.6172   43.0229   42.0948   48.6705   66.7820 -999.2500 -999.2500 -999.2500 -999.2500   61.5404   98.1407    1.5948
   5515.5084 -999.2500 -999.2500   21.8796   35.8287   36.5957   42.6250   66.7779 -999.2500 -999.2500 -999.2500 -999.2500   60.2328   97.1770    1.6138
   5515.6608 -999.2500 -999.2500   21.3410   27.1769   28.4007   32.4711   66.7741 -999.2500 -999.2500 -999.2500 -999.2500   59.3166   97.6113    1.6460
   5515.8132 -999.2500 -999.2500   20.8837   19.3623   19.7067   22.5795   66.7713 -999.2500 -999.2500 -999.2500 -999.2500   61.4786  100.1455    1.6296
   5515.9656 -999.2500 -999.2500   20.4737   12.0387   12.3902   13.7410   66.7693 -999.2500 -999.2500 -999.2500 -999.2500   63.1919  102.1148    1.6161
   5516.1180 -999.2500 -999.2500   20.1908    7.8587    8.6094    8.5419   66.7679 -999.2500 -999.2500 -999.2500 -999.2500   64.0203  102.9547    1.6082
   5516.2704 -999.2500 -999.2500   20.0693    6.7173    7.7784    6.6594   66.7665 -999.2500 -999.2500 -999.2500 -999.2500   64.4072  102.7610    1.5958
   5516.4228 -999.2500 -999.2500   19.9641    7.3226    9.1409    6.7765   66.7650 -999.2500 -999.2500 -999.2500 -999.2500   65.2976  101.5676    1.5556
   5516.5752 -999.2500 -999.2500   19.8636    8.9027   13.4915    8.1394   66.7638 -999.2500 -999.2500 -999.2500 -999.2500   65.0004   99.4178    1.5302
   5516.7276 -999.2500 -999.2500   19.8353   11.1653   22.4915   10.2339   66.7629 -999.2500 -999.2500 -999.2500 -999.2500   62.6375   97.7247    1.5624
   5516.8800 -999.2500 -999.2500   20.0876   13.4258   35.4722   12.2128   66.7548 -999.2500 -999.2500 -999.2500 -999.2500   60.9955   96.0009    1.5743
   5517.0324 -999.2500 -999.2500   20.5523   14.5835   46.8324   13.1495   66.7125 -999.2500 -999.2500 -999.2500 -999.2500   60.0408   91.1377    1.5178
   5517.1848 -999.2500 -999.2500   21.0311   15.4836   51.7324   13.9365   66.6189 -999.2500 -999.2500 -999.2500 -999.2500   59.4111   90.3499    1.5209
   5517.3372 -999.2500 -999.2500   21.4536   18.3428   49.9339   17.4580   66.5867 -999.2500 -999.2500 -999.2500 -999.2500   58.8305   90.7382    1.5425
   5517.4896 -999.2500 -999.2500   21.8013   25.7558   50.2375   27.6959   66.5610 -999.2500 -999.2500 -999.2500 -999.2500   58.6246   90.2050    1.5387
   5517.6420 -999.2500 -999.2500   22.0062   34.2015   54.3873   40.1013   66.5511 -999.2500 -999.2500 -999.2500 -999.2500   58.8880   90.1030    1.5301
   5517.7944 -999.2500 -999.2500   22.0565   33.4329   55.2145   37.0937   66.5410 -999.2500 -999.2500 -999.2500 -999.2500   59.1505   91.7877    1.5518
   5517.9468 -999.2500 -999.2500   21.9581   29.0550   44.3926   29.1462   66.5387 -999.2500 -999.2500 -999.2500 -999.2500   59.2059   93.4554    1.5785
   5518.0992 -999.2500 -999.2500   21.7897   24.7977   30.1364   22.9563   66.5385 -999.2500 -999.2500 -999.2500 -999.2500   59.7495   94.0411    1.5741
   5518.2516 -999.2500 -999.2500   21.6116   23.6281   22.4383   21.8126   66.5370 -999.2500 -999.2500 -999.2500 -999.2500   61.3926   95.2068    1.5512
   5518.4040 -999.2500 -999.2500   21.3915   26.0148   24.2037   25.2724   66.5129 -999.2500 -999.2500 -999.2500 -999.2500   62.3051   95.3609    1.5308
   5518.5564 -999.2500 -999.2500   21.0183   28.6097   32.8655   29.1119   66.5032 -999.2500 -999.2500 -999.2500 -999.2500   61.8482   96.2022    1.5557
   5518.7088 -999.2500 -999.2500   20.4908   31.1551   41.2735   31.9518   66.4989 -999.2500 -999.2500 -999.2500 -999.2500   61.3500   97.1207    1.5832
   5518.8612 -999.2500 -999.2500   20.0503   33.6199   42.5145   33.7122   66.4956 -999.2500 -999.2500 -999.2500 -999.2500   60.9767   98.1370    1.6095
   5519.0136 -999.2500 -999.2500   19.5431   36.4830   38.6118   35.6959   66.4922 -999.2500 -999.2500 -999.2500 -999.2500   60.6692   99.3316    1.6374
   5519.1660 -999.2500 -999.2500   19.1319   39.8914   37.0691   38.4087   66.4889 -999.2500 -999.2500 -999.2500 -999.2500   60.3337  100.8427    1.6715
   5519.3184 -999.2500 -999.2500   18.9723   41.1663   38.5593   38.8868   66.4856 -999.2500 -999.2500 -999.2500 -999.2500   60.2301  101.3464    1.6827
   5519.4708 -999.2500 -999.2500   18.7968   35.0233   34.9949   32.3237   66.4822 -999.2500 -999.2500 -999.2500 -999.2500   60.9711  100.4793    1.6488
   5519.6232 -999.2500 -999.2500   18.4656   28.5997   28.1090   26.3378   66.4790 -999.2500 -999.2500 -999.2500 -999.2500   62.6213   99.5944    1.5919
   5519.7756 -999.2500 -999.2500   18.1962   30.4517   27.1932   28.7733   66.4758 -999.2500 -999.2500 -999.2500 -999.2500   64.2044   98.9678    1.5421
   5519.9280 -999.2500 -999.2500   17.8922   33.1243   27.6977   33.0904   66.4724 -999.2500 -999.2500 -999.2500 -999.2500   63.9074   96.9712    1.5178
   5520.0804 -999.2500 -999.2500   17.5477   29.8298   27.2027   31.1242   66.4691 -999.2500 -999.2500 -999.2500 -999.2500   61.2209   94.0883    1.5371
   5520.2328 -999.2500 -999.2500   17.1944   26.9633   28.0504   28.7289   66.4658 -999.2500 -999.2500 -999.2500 -999.2500   60.8512   93.5034    1.5367
   5520.3852 -999.2500 -999.2500   16.8233   19.0837   21.9133   20.6282   66.4624 -999.2500 -999.2500 -999.2500 -999.2500   61.5955   92.9811    1.5099
   5520.5376 -999.2500 -999.2500   16.4604   11.6318   12.0598   12.1563   66.4591 -999.2500 -999.2500 -999.2500 -999.2500   61.2312   92.7424    1.5149
   5520.6900 -999.2500 -999.2500   16.1175    8.3808    6.7432    8.1642   66.4558 -999.2500 -999.2500 -999.2500 -999.2500   60.6613   92.7223    1.5286
   5520.8424 -999.2500 -999.2500   15.8145    7.4950    5.5277    6.9245   66.4524 -999.2500 -999.2500 -999.2500 -999.2500   60.5194   92.7134    1.5320
   5520.9948 -999.2500 -999.2500   15.5681    7.5045    6.5442    6.9897   66.4492 -999.2500 -999.2500 -999.2500 -999.2500 -999.2500 -999.2500 -999.2500
   5521.1472 -999.2500 -999.2500   15.3294    8.2524    8.3659    8.0679   66.4460 -999.2500 -999.2500 -999.2500 -999.2500 -999.2500 -999.2500 -999.2500
   5521.2996 -999.2500 -999.2500   15.1171    9.1101    9.2516    9.2289   66.4427 -999.2500 -999.2500 -999.2500 -999.2500 -999.2500 -999.2500 -999.2500
   5521.4520 -999.2500 -999.2500   14.9623    9.9472    9.6843   10.2707   66.4394 -999.2500 -999.2500 -999.2500 -999.2500 -999.2500 -999.2500 -999.2500
   5521.6044 -999.2500 -999.2500   14.8421   11.7495   11.4207   12.5689   66.4362 -999.2500 -999.2500 -999.2500 -999.2500 -999.2500 -999.2500 -999.2500
   5521.7568 -999.2500 -999.2500   14.7320   14.7339   15.1308   16.4036   66.4329 -999.2500 -999.2500 -999.2500 -999.2500 -999.2500 -999.2500 -999.2500
