~Version Information
 VERS.                  2.0:   CWLS log ASCII Standard -VERSION 2.0
 WRAP.                   NO:   One line per depth step
~Well Information Block
#MNEM.UNIT     VALUE/NAME     DESCRIPTION
#---------     -----------    ---------------------------
 STRT.M              5223.0528: START DEPTH
 STOP.M              5533.9488: STOP DEPTH
 STEP.M                 0.1524: STEP DEPTH
 NULL.               -999.2500: NULL VALUE
 DFWT.                        :  DIST FWL TEXT
 DFST.                        :  DIST FSL TEXT
 DMF .             Drill Floor:  DRILL MEAS FROM
 STIM.      11.30.00 09-Jul-16:  START TIME
 DATE.      11.29.04 14-Aug-16:  END TIME
 SPUD.               17-Aug-15:  SPUD DATE
 NREF.                    Grid:  NORTH REFERENCE
 HPTY.       Minimum Curvature:  HOLE POS TYPE
 DMOD.             Drill Model:  DRILL MOD DESC
 SVYD.                  Survey:  SURVEY DESC
 ILTD.               Lithology:  INTERP LTH DESC
 FTOP.          Formation Tops:  FORM TOPS DESC
 WELL.              AF011-3D-1:  WELL NAME
 COMP.               TOTAL-ABK:  COMPANY
 SON .        AD-XX-0902156848:  JOB NUMBER
 GCDE.     Generic Lat/Long's, Degrees, -180 ==> +180:  GEO COORD DESC
 CCDE.     UTM Clarke 1880 (CM 51), Meters:  CART COORD DESC
 GGSY.                      LL:  GEO GRID SYS
 CGSY.               SS CLRK51:  CART GRID SYS
 GREF.     Ellipsoid World Geodetic System :  GEO REFERENCE
 CREF.     Ellipsoid Clarke - 1880:  CART REFERENCE
 MMDL.            bggm2016.dat:  MAGNETIC MODEL
 MMDD.            20 May, 2016:  MAG DATA DATE
 MDS .              Win MagUTM:  MAG DATA SOURCE
 LLGR.      Latitude/Longitude:  LLGROUP
 XYGR.     UTM Zones, Northern Hemisphere, Meters:  XYGROUP
 PDAT.          Mean Sea Level:  PERMANENT DATUM
 WTYP.                Deviated:  WELL TYPE
 BASE.               Abu Dhabi:  LOGGING EQUIPMENT BASE LOCATION
 REGN.     Middle East/North Africa:  REGION
 PROV.               Abu Dhabi:  PROVINCE
 STAT.               Abu Dhabi:  STATE NAME
 CTRY.     United Arab Emirates:  COUNTRY NAME
 FLD .         Abu Al Bukhoosh:  FIELD NAME
 SRVC.                  SAIPEM:  CONTRACTOR
 MWDS.                Musaffah:  MWD SHOP
 RIG .           Perro Negro 8:  RIG NAME
 CNTY.               Abu Dhabi:  COUNTY NAME
 DCON.             HALLIBURTON:  DIRECTNL CONTR
 UNIT.                    9804:  LOGGING EQUIPMENT ID
 DOE .        AD-XX-0902156848:  DOE NUMBER
 API .                        :  API NUMBER
 UWI .                        :  UNIQUE WELL IDENTIFIER
 LOC .                        :  LOCATION
 LMF .             Drill Floor:  LOG MEASURED FROM
 TVDS.m              43.899999:  TVDSS CORRECTN
 LATI.deg            25.504513:  LATITUDE
 LONG.deg            53.120396:  LONGITUDE
 WHNS.m               0.000000:  WELL HEAD N/S
 WHEW.m               0.000000:  WELL HEAD E/W
 UTMX.m          713123.300043:  UTM X
 UTMY.m         2822281.299893:  UTM Y
 DFWL.m               0.000000:  DISTANCE FWL
 DFSL.m               0.000000:  DISTANCE FSL
 SDEP.m            5253.990000:  START DEPTH
 TDD .m            5543.669658:  TOTAL DEPTH (DRILLER)
 VSDR.deg           249.940002:  VERT SEC DIRECT
 GVFD.g               1.000000:  GRAVITY FIELD
 MFLD.nT          43940.839844:  MAGNETIC FIELD
 MDIP.deg            39.918472:  MAGNETIC DIP
 MDEC.deg             2.250056:  MAGNETIC DECL
 GRDC.deg             0.913350:  GRID CORRECTION
 AZTC.deg             1.336706:  AZM TOTAL CORR
 EPD .m               0.000000:  ELEVATION
 EGL .m             -45.400001:  GROUND ELEVATION
 WDMS.m              45.400001:  WD ELEV
 APD .m              43.899999:  DEPTH ABOVE PD
 MMDE.m               0.000000:  MAGUTM CALC DEP
 CMER.deg            51.000000:  CENTRL MERIDIAN
 AGAP.m              23.099999:  AIR GAP
 EKB .m              43.899999:  KB ELEVATION
 EDF .m              43.899999:  DF ELEVATION
 VSC .                       0:  VS TO CLOSURE
 MAGU.                 1527179:  MAGUTM CHECKSUM
~Parameter Information Block
#MNEM.UNIT       Value        Description
#---------     -----------    ---------------------------
 AV  .mps             1.500000:  Ann Velocity 
 AVMX.mps             2.400000:  Max Ann Veloc 
 AZIF.deg           257.739990:  Azm, Final 
 BHAT.                 Turbine:  BHA Type 
 BROT.°/100'          0.000000:  Build Rotating 
 BS  .in              8.500000:  Bit Size 
 BSZ .in              8.500000:  Bit Size 
 BTPL.psig           43.511005:  Bit Press Loss 
 CABU.                      No:  Customer Abuse 
 TCS .hr            149.515671:  Time Ciculation Ended 
 CV  .mps             3.000000:  Crit Velocity 
 CVMX.mps             4.000000:  Max Crit Veloc 
 DD1 .            Ahmed Bayoud:  Direct Drillr 1 
 DD2 .        Hany Abdel Hafez:  Direct Drillr 2 
 DDSV.                 Turbine:  DD Service 
 DEFF.%              98.000000:  % Det Eff 
 DLRX.°/100'          0.000000:  Dogleg Rot Max 
 DLSO.°/100'          0.000000:  Dogleg Oriented 
 DLSX.°/100'          0.000000:  Dogleg Str Max 
 DRET.      12.28.32 23-Jun-16:  Drill End Time 
 DRST.      14.30.00 17-Jun-16:  Drill Start Tim 
 DTIM.hr            102.349998:  Time Drilling 
 EDEP.m            5254.000000:  End Depth 
 ENG1.         Ahmed Montasser:  Engineer 1 
 ENG2.              Do Dang Sa:  Engineer 2 
 ENG3.           Khaled Khalaf:  Engineer 3 
 ENG4.         Muhammad Mubeen:  Engineer 4 
 ETIM.      05.40.54 26-Jun-16:  End Time 
 FLOI.lpm          1800.000122:  Flow In 
 FLON.lpm          1500.000000:  Flow In Min 
 FLOS.lpm             0.000000:  Fluid Loss 
 FLOX.lpm          1800.000122:  Flow In Max 
 DFT .                   Other:  Mud Type 
 HFLO.                      No:  High Flow 
 HPRE.                      No:  High Pressure 
 HTEM.                      No:  High Temp 
 HYDO.m               1.400000:  Hydro Offset 
 IFIN.deg            10.460000:  Inc, Final 
 IMAX.deg            32.367214:  Inc Max 
 IMIN.deg            11.447388:  Inc Min 
 IMND.m            5236.799805:  Inc Min Depth 
 IMXD.m            4790.299805:  Inc Max Depth 
 JARR.                      No:  Jarring 
 LETM.      12.28.32 23-Jun-16:  Log End Time 
 LOST.hr                     0:  Lost Rig Time 
 LSTM.      14.30.00 17-Jun-16:  Log Start Time 
 MDCL.ppm         23000.000000:  Mud Chlorides 
 MDES.             Fresh Water:  Mud Desc 
 DFD .g/c3            1.170004:  Mud Density 
 MDMN.g/c3            1.160004:  Dens Mud Min 
 MDMX.g/c3            1.170004:  Dens Mud Max 
 PH  .pH              9.400000:  Mud pH 
 MOIL.                       0:  Run Mud Oil % 
 MOWR.                    1 91:  Run Mud OWR 
 MSND.                     0.1:  Run Mud Sand % 
 MSOL.                     6.2:  Run Mud Solids% 
 DFV .spl            73.000000:  Mud Viscosity 
 MWOD.in              6.750000:  MWD Tool OD 
 MWSI.                      No:  Serv Intrp, MWD 
 OTIM.hr            238.111023:  Time Operating 
 PMAX.psig         4000.000000:  Press Op, Max 
 PV  .mPsec          36.000000:  Mud PV 
 RMS .ohmm            0.299000:  Mud Resistivity 
 RMCS.ohmm            0.397000:  Mud Cake Resistivity 
 MCST.degC           35.000000:  Mud Cake Sample Temperature 
 RMFS.ohmm            0.200000:  Mud Filtrate Resistivity 
 RMFT.degC           35.000000:  Mud Filtrate Sample Temperature 
 RMMT.ohmm            0.118100:  Rm @ Max Temp 
 MST .degC           35.000000:  Mud Sample Temperature 
 RUN .                    3300:  Run Number 
 ROPA.m/hr            4.450000:  ROP Avg 
 ROPN.m/hr            2.000000:  ROP Min 
 ROPX.m/hr            7.000000:  ROP Max 
 RPMA.rpm            78.000000:  RPM Surface Avg 
 RPMN.rpm            35.000000:  RPM Surface Min 
 RPMX.rpm            80.000000:  RPM Surface Max 
 RRUN.                    3300:  Rig Run Number 
 RTIM.hr              7.150000:  Time Reaming 
 SAZI.deg           249.699997:  Azm, Start 
 SDEP.m            4799.000000:  Start Depth 
 SIDD.                      No:  Serv Intrp, DD 
 SINC.deg            30.049999:  Inc, Start 
 SPPA.psig         4543.999023:  SPP Avg 
 SPPN.psig         4264.078613:  SPP Min 
 SPPX.psig         4641.173828:  SPP Max 
 STIM.      09.00.00 16-Jun-16:  Start Time 
 SVCS.                 DD, MWD:  Services 
 SVER.                8.300000:  Sperry Version 
 TDAT.m             455.000000:  Tot Depth Attmp 
 TDDF.                      No:  Trip for DD 
 TDLG.m             455.000000:  Tot Depth Loggd 
 TFF .                      No:  Trip for Fail 
 TQAA.f-p         37070.000000:  Torque Abs Avg 
 TQAN.f-p         35000.000000:  Torque Abs Min 
 TQAX.f-p         39000.000000:  Torque Abs Max 
 TRRT.°/100'          0.000000:  Turn Rotating 
 MRT .                     PWD:  Maximum Recorded Temperature 
 TTMX.degC          121.568352:  Max Tool Temp 
 VS01.     AD90473258H2V5WGV2COXF1(6):  Virtual Str1 SN 
 WBMN.klb             4.409245:  WOB Min 
 WITN.           Roger Butters:  Customer Rep 
 WOBA.klb             9.788525:  WOB Avg 
 WOBX.klb            13.227736:  WOB Max 
 YP  .pa             43.000000:  Yield Point 
~Curve Information Block
#MNEM.UNIT                 API CODE     Curve Description
#---------               -----------    ---------------------------
 DEPT.M                 00 000 000 000:  Depth
 DGRCC.api              00 000 000 000:  DGR Comb Gamma Ray BCorr
 ALHSI.in               00 000 000 000:  ALD Hole Size Indicator
 ABR .ohmm              00 000 000 000:  At-Bit Resistivity
 AFRSA.ohmm             00 000 000 000:  AFR Shallow Avg Res
 AFRMA.ohmm             00 000 000 000:  AFR Medium Avg Res
 AFRDA.ohmm             00 000 000 000:  AFR Deep Avg Res
 AFXT.hr                00 000 000 000:  AFR Form Exp Time
 ALCDLC.g/c3            00 000 000 000:  ALD LCRB Comp Density
 ALPELC.NONE            00 000 000 000:  ALD LCRB Pe Factor
 ALDCLC.g/c3            00 000 000 000:  ALD LCRB Den Correction
 TNPL.pu                00 000 000 000:  CTN Porosity Limestone
 DTC .uspf              00 000 000 000:  BAT DTC
 DTRS.uspf              00 000 000 000:  BAT Refracted Shear
 VPVS.NONE              00 000 000 000:  BAT VP/VS
#Other Information
#
#WARRANTY: Halliburton will use its best efforts to furnish customers with 
#accurate information and interpretations that are part of, and incident to, the services 
#provided.  However, Halliburton cannot and does not warrant the accuracy 
#or correctness of such information and interpretations.  Under no circumstances should any 
#such information or interpretation be relied upon as the sole basis for any drilling, 
#completion, production, or financial decision or any procedure involving any risk to the 
#safety of any drilling venture, drilling rig or its crew or any other third party.  The 
#Customer has full responsibility for all drilling, completion and production operation.  
#Halliburton makes no representations or warranties, either expressed or 
#implied, including, but not limited to, the implied warranties of merchantability or fitness 
#for a particular purpose, with respect to the services rendered.  In no event will 
#Halliburton be liable for failure to obtain any particular results or for 
#any damages, including, but not limited to, indirect, special or consequential damages, 
#resulting from the use of any information or interpretation provided by Halliburton.
#
~A   DEPT      DGRCC     ALHSI      ABR      AFRSA     AFRMA     AFRDA     AFXT     ALCDLC    ALPELC    ALDCLC     TNPL       DTC      DTRS      VPVS    
# ...
   5287.6704   67.5815 -999.2500 -999.2500   24.0917   24.0537   24.4421   72.3493    2.7503    6.4249    0.0829   11.0194   57.9087 -999.2500 -999.2500
   5287.8228   76.1973 -999.2500 -999.2500   16.3760   18.3624   21.8738   72.3455    2.7732    8.3024    0.1813   16.3814   58.4296 -999.2500 -999.2500
   5287.9752   77.5968 -999.2500 -999.2500   10.5495   12.3614   15.8087   72.3385    2.7042   11.3991    0.2779   21.4170   57.9905 -999.2500 -999.2500
   5288.1276   90.9379 -999.2500 -999.2500    5.3526    9.1323   11.5841   72.3313    2.4710   13.4238    0.2349   29.0355   58.3601 -999.2500 -999.2500
   5288.2800   95.8048 -999.2500 -999.2500    2.9092    8.6240    9.9381   72.3243    2.0800   15.5322    0.1105   41.8279   61.1503 -999.2500 -999.2500
   5288.4324  103.5037 -999.2500 -999.2500    2.0856    8.2321    8.8356   72.3198    2.0135   15.6407    0.0888   52.6420   61.8693 -999.2500 -999.2500
   5288.5848  106.5130 -999.2500 -999.2500    2.0861    7.1096    7.4610   72.3163    1.9329   15.4103    0.0213   56.1272   61.8751 -999.2500 -999.2500
   5288.7372  117.9126 -999.2500 -999.2500    2.2434    5.4393    5.7612   72.3129    1.8900   13.8948   -0.0577   55.6841   59.7089 -999.2500 -999.2500
   5288.8896  133.1707 -999.2500 -999.2500    2.9447    5.3533    5.9183   72.3095    1.9755    9.3325   -0.1509   54.5383   60.9617 -999.2500 -999.2500
   5289.0420  120.1179 -999.2500 -999.2500    4.3885    6.4015    7.4755   72.3059    2.4702    7.7857    0.0692   53.7810   60.2662 -999.2500 -999.2500
   5289.1944  107.6053 -999.2500 -999.2500    5.0849    6.9729    8.3660   72.3023    2.7773    9.4965    0.2918   43.8955   59.8118 -999.2500 -999.2500
   5289.3468  114.1061 -999.2500 -999.2500    5.4605    8.1438   10.2074   72.2988    2.7989   10.7803    0.3531   28.2111   61.7801 -999.2500 -999.2500
   5289.4992  117.9391 -999.2500 -999.2500    6.5307   10.4533   14.0325   72.2954    2.5031    9.6608    0.1756   25.8846   63.0611 -999.2500 -999.2500
   5289.6516  111.2831 -999.2500 -999.2500    6.1456   11.1578   15.4443   72.2919    2.5430   11.6464    0.2561   32.5720   63.4045 -999.2500 -999.2500
   5289.8040  105.6138 -999.2500 -999.2500    5.1978   10.5263   14.9268   72.2883    2.5033   13.2758    0.2792   34.0529   62.2391 -999.2500 -999.2500
   5289.9564   97.2028 -999.2500 -999.2500    4.6177   10.4086   14.9139   72.2846    2.3476   14.8518    0.2408   30.5690   60.5149 -999.2500 -999.2500
   5290.1088   85.9217 -999.2500 -999.2500    4.0794   11.1858   15.2811   72.2812    2.2082   14.4262    0.1695   28.7425   57.8109 -999.2500 -999.2500
   5290.2612   84.0592 -999.2500 -999.2500    3.1416   11.1209   13.9765   72.2779    2.2814   13.7132    0.1894   28.8410   55.2829 -999.2500 -999.2500
   5290.4136   90.1111 -999.2500 -999.2500    2.0338    9.4577   10.8513   72.2744    2.3298   13.8435    0.2089   29.2912   55.1872 -999.2500 -999.2500
   5290.5660   97.7481 -999.2500 -999.2500    1.3085    7.6418    8.0576   72.2707    2.2813   15.0632    0.1949   28.3326   57.4417 -999.2500 -999.2500
   5290.7184  101.3085 -999.2500 -999.2500    1.0461    6.4556    6.5898   72.2671    2.0169   15.8398    0.0829   29.6748   59.3332 -999.2500 -999.2500
   5290.8708   95.9910 -999.2500 -999.2500    1.0929    6.2301    6.1572   72.2638    1.8999   15.9021    0.0356   35.0197   59.7815 -999.2500 -999.2500
   5291.0232   92.6569 -999.2500 -999.2500    1.5786    7.4674    7.3770   72.2603    1.8469   16.0352    0.0153   43.7648   59.4593 -999.2500 -999.2500
   5291.1756  103.7785 -999.2500 -999.2500    4.6298   12.2631   12.7764   72.2568    1.8290   15.5450   -0.0173   51.3609   59.8345 -999.2500 -999.2500
   5291.3280  106.7542 -999.2500 -999.2500   16.4862   24.1330   25.8821   72.2531    2.0995    8.6596   -0.0616   49.0847   59.6727 -999.2500 -999.2500
   5291.4804  109.5934 -999.2500 -999.2500   31.7092   34.8439   38.3363   72.2497    2.2752    6.1982   -0.0592   46.7849   59.0586 -999.2500 -999.2500
   5291.6328   92.5873 -999.2500 -999.2500   37.4572   32.3996   35.4566   72.2464    2.4626    5.2187   -0.0254   98.7727   59.9278 -999.2500 -999.2500
   5291.7852   70.1484 -999.2500 -999.2500   39.5016   33.7057   33.5097   72.2426    2.5538    5.5809    0.0269  161.2970   60.9992 -999.2500 -999.2500
   5291.9376   66.3585 -999.2500 -999.2500   48.2690   47.4868   44.0128   72.2391    2.5718    6.8203    0.0512  172.3589   61.2361 -999.2500 -999.2500
   5292.0900   82.6406 -999.2500 -999.2500   43.1528   45.7395   46.4157   72.2357    2.5696    6.9828    0.0437  112.3347   61.3618 -999.2500 -999.2500
   5292.2424   82.1143 -999.2500 -999.2500   20.0666   28.9268   30.8373   72.2321    2.5686    5.8214    0.0090   12.2981   61.5527 -999.2500 -999.2500
   5292.3948   66.4713 -999.2500 -999.2500   12.9397   24.0600   23.4235   72.2288    2.6234    5.6668    0.0439   14.1552   62.2486 -999.2500 -999.2500
   5292.5472   65.4002 -999.2500 -999.2500   10.9478   26.8298   26.4185   72.2253    2.6404    6.4577    0.0865   14.7313   62.8535 -999.2500 -999.2500
   5292.6996   71.8272 -999.2500 -999.2500    8.4465   27.1630   30.0100   72.2216    2.6147    7.2546    0.1043   15.1066   61.4431 -999.2500 -999.2500
   5292.8520   68.2881 -999.2500 -999.2500    7.7768   21.9412   24.0433   72.2184    2.5381    6.3871    0.0360   15.5294   61.1316 -999.2500 -999.2500
   5293.0044   54.6413 -999.2500 -999.2500    7.2239   18.9487   20.4743   72.2149    2.5904    6.2320    0.0642   17.3465   61.7013 -999.2500 -999.2500
   5293.1568   69.4063 -999.2500 -999.2500   10.4814   19.5788   21.9360   72.2115    2.6588    6.7439    0.1189   23.8159   62.3423 -999.2500 -999.2500
   5293.3092   96.1644 -999.2500 -999.2500   16.4465   19.6289   22.1773   72.2084    2.6405    8.0545    0.1384   27.1217   60.6158 -999.2500 -999.2500
   5293.4616  121.9374 -999.2500 -999.2500   15.7438   18.0934   20.5460   72.2050    2.6148    7.6051    0.1145   22.5777   59.5932 -999.2500 -999.2500
   5293.6140  116.0126 -999.2500 -999.2500   15.6919   18.8367   22.2415   72.2018    2.6243    7.3104    0.1220   19.3780   60.0396 -999.2500 -999.2500
   5293.7664  114.1204 -999.2500 -999.2500   14.1503   20.7352   25.4398   72.1986    2.6912    8.6757    0.2164   18.8564   61.3991 -999.2500 -999.2500
   5293.9188   97.4044 -999.2500 -999.2500    5.5295   13.7586   17.8953   72.1952    2.5647    8.4900    0.1313   20.3645   59.5009 -999.2500 -999.2500
   5294.0712   72.7615 -999.2500 -999.2500    1.4682    7.3939    9.4911   72.1920    2.4637    7.4750    0.0342   25.0056   60.5371 -999.2500 -999.2500
   5294.2236   57.7947 -999.2500 -999.2500    0.6358    5.6074    6.3663   72.1889    2.5492    6.2301    0.0485   38.6556 -999.2500 -999.2500 -999.2500
   5294.3760   60.3570 -999.2500 -999.2500    0.4774    6.1509    6.1665   72.1853    2.6070    9.1494    0.1824   59.0327 -999.2500 -999.2500 -999.2500
   5294.5284   63.3966 -999.2500 -999.2500    0.4429    6.8912    6.6812   72.1822    2.4208   12.0537    0.1693   68.8433 -999.2500 -999.2500 -999.2500
   5294.6808   63.8317 -999.2500 -999.2500    0.5035    7.1636    7.3055   72.1791    1.9390   15.7438    0.0234   62.6852 -999.2500 -999.2500 -999.2500
   5294.8332   66.7503 -999.2500 -999.2500    0.6350    7.4266    8.4059   72.1757    1.6424   15.9699   -0.0737   53.4655 -999.2500 -999.2500 -999.2500
   5294.9856   69.5260 -999.2500 -999.2500    0.8813    8.5395   10.4626   72.1725    1.5999   16.0322   -0.0889   48.1153 -999.2500 -999.2500 -999.2500
   5295.1380   66.8775 -999.2500 -999.2500    1.6118   10.8104   13.7905   72.1693    1.6544   16.0100   -0.0726   35.5254 -999.2500 -999.2500 -999.2500
   5295.2904   67.0080 -999.2500 -999.2500    3.0535   12.2898   16.1072   72.1657    1.8708   14.8884   -0.0178   21.3279 -999.2500 -999.2500 -999.2500
   5295.4428   76.0876 -999.2500 -999.2500    4.4099   14.1109   18.9140   72.1627    2.1846   10.9881    0.0063   18.4176 -999.2500 -999.2500 -999.2500
   5295.5952   81.9858 -999.2500 -999.2500    6.0645   18.2933   25.4546   72.1596    2.3587    9.7653    0.0516   17.5411 -999.2500 -999.2500 -999.2500
