~Version Information
 VERS.                  2.0:   CWLS log ASCII Standard -VERSION 2.0
 WRAP.                   NO:   One line per depth step
~Well Information Block
#MNEM.UNIT     VALUE/NAME     DESCRIPTION
#---------     -----------    ---------------------------
 STRT.M              5223.0528: START DEPTH
 STOP.M              5533.9488: STOP DEPTH
 STEP.M                 0.1524: STEP DEPTH
 NULL.               -999.2500: NULL VALUE
 DFWT.                        :  DIST FWL TEXT
 DFST.                        :  DIST FSL TEXT
 DMF .             Drill Floor:  DRILL MEAS FROM
 STIM.      11.30.00 09-Jul-16:  START TIME
 DATE.      11.29.04 14-Aug-16:  END TIME
 SPUD.               17-Aug-15:  SPUD DATE
 NREF.                    Grid:  NORTH REFERENCE
 HPTY.       Minimum Curvature:  HOLE POS TYPE
 DMOD.             Drill Model:  DRILL MOD DESC
 SVYD.                  Survey:  SURVEY DESC
 ILTD.               Lithology:  INTERP LTH DESC
 FTOP.          Formation Tops:  FORM TOPS DESC
 WELL.              AF011-3D-1:  WELL NAME
 COMP.               TOTAL-ABK:  COMPANY
 SON .        AD-XX-0902156848:  JOB NUMBER
 GCDE.     Generic Lat/Long's, Degrees, -180 ==> +180:  GEO COORD DESC
 CCDE.     UTM Clarke 1880 (CM 51), Meters:  CART COORD DESC
 GGSY.                      LL:  GEO GRID SYS
 CGSY.               SS CLRK51:  CART GRID SYS
 GREF.     Ellipsoid World Geodetic System :  GEO REFERENCE
 CREF.     Ellipsoid Clarke - 1880:  CART REFERENCE
 MMDL.            bggm2016.dat:  MAGNETIC MODEL
 MMDD.            20 May, 2016:  MAG DATA DATE
 MDS .              Win MagUTM:  MAG DATA SOURCE
 LLGR.      Latitude/Longitude:  LLGROUP
 XYGR.     UTM Zones, Northern Hemisphere, Meters:  XYGROUP
 PDAT.          Mean Sea Level:  PERMANENT DATUM
 WTYP.                Deviated:  WELL TYPE
 BASE.               Abu Dhabi:  LOGGING EQUIPMENT BASE LOCATION
 REGN.     Middle East/North Africa:  REGION
 PROV.               Abu Dhabi:  PROVINCE
 STAT.               Abu Dhabi:  STATE NAME
 CTRY.     United Arab Emirates:  COUNTRY NAME
 FLD .         Abu Al Bukhoosh:  FIELD NAME
 SRVC.                  SAIPEM:  CONTRACTOR
 MWDS.                Musaffah:  MWD SHOP
 RIG .           Perro Negro 8:  RIG NAME
 CNTY.               Abu Dhabi:  COUNTY NAME
 DCON.             HALLIBURTON:  DIRECTNL CONTR
 UNIT.                    9804:  LOGGING EQUIPMENT ID
 DOE .        AD-XX-0902156848:  DOE NUMBER
 API .                        :  API NUMBER
 UWI .                        :  UNIQUE WELL IDENTIFIER
 LOC .                        :  LOCATION
 LMF .             Drill Floor:  LOG MEASURED FROM
 TVDS.m              43.899999:  TVDSS CORRECTN
 LATI.deg            25.504513:  LATITUDE
 LONG.deg            53.120396:  LONGITUDE
 WHNS.m               0.000000:  WELL HEAD N/S
 WHEW.m               0.000000:  WELL HEAD E/W
 UTMX.m          713123.300043:  UTM X
 UTMY.m         2822281.299893:  UTM Y
 DFWL.m               0.000000:  DISTANCE FWL
 DFSL.m               0.000000:  DISTANCE FSL
 SDEP.m            5253.990000:  START DEPTH
 TDD .m            5543.669658:  TOTAL DEPTH (DRILLER)
 VSDR.deg           249.940002:  VERT SEC DIRECT
 GVFD.g               1.000000:  GRAVITY FIELD
 MFLD.nT          43940.839844:  MAGNETIC FIELD
 MDIP.deg            39.918472:  MAGNETIC DIP
 MDEC.deg             2.250056:  MAGNETIC DECL
 GRDC.deg             0.913350:  GRID CORRECTION
 AZTC.deg             1.336706:  AZM TOTAL CORR
 EPD .m               0.000000:  ELEVATION
 EGL .m             -45.400001:  GROUND ELEVATION
 WDMS.m              45.400001:  WD ELEV
 APD .m              43.899999:  DEPTH ABOVE PD
 MMDE.m               0.000000:  MAGUTM CALC DEP
 CMER.deg            51.000000:  CENTRL MERIDIAN
 AGAP.m              23.099999:  AIR GAP
 EKB .m              43.899999:  KB ELEVATION
 EDF .m              43.899999:  DF ELEVATION
 VSC .                       0:  VS TO CLOSURE
 MAGU.                 1527179:  MAGUTM CHECKSUM
~Parameter Information Block
#MNEM.UNIT       Value        Description
#---------     -----------    ---------------------------
 AV  .mps             1.500000:  Ann Velocity 
 AVMX.mps             2.400000:  Max Ann Veloc 
 AZIF.deg           257.739990:  Azm, Final 
 BHAT.                 Turbine:  BHA Type 
 BROT.°/100'          0.000000:  Build Rotating 
 BS  .in              8.500000:  Bit Size 
 BSZ .in              8.500000:  Bit Size 
 BTPL.psig           43.511005:  Bit Press Loss 
 CABU.                      No:  Customer Abuse 
 TCS .hr            149.515671:  Time Ciculation Ended 
 CV  .mps             3.000000:  Crit Velocity 
 CVMX.mps             4.000000:  Max Crit Veloc 
 DD1 .            Ahmed Bayoud:  Direct Drillr 1 
 DD2 .        Hany Abdel Hafez:  Direct Drillr 2 
 DDSV.                 Turbine:  DD Service 
 DEFF.%              98.000000:  % Det Eff 
 DLRX.°/100'          0.000000:  Dogleg Rot Max 
 DLSO.°/100'          0.000000:  Dogleg Oriented 
 DLSX.°/100'          0.000000:  Dogleg Str Max 
 DRET.      12.28.32 23-Jun-16:  Drill End Time 
 DRST.      14.30.00 17-Jun-16:  Drill Start Tim 
 DTIM.hr            102.349998:  Time Drilling 
 EDEP.m            5254.000000:  End Depth 
 ENG1.         Ahmed Montasser:  Engineer 1 
 ENG2.              Do Dang Sa:  Engineer 2 
 ENG3.           Khaled Khalaf:  Engineer 3 
 ENG4.         Muhammad Mubeen:  Engineer 4 
 ETIM.      05.40.54 26-Jun-16:  End Time 
 FLOI.lpm          1800.000122:  Flow In 
 FLON.lpm          1500.000000:  Flow In Min 
 FLOS.lpm             0.000000:  Fluid Loss 
 FLOX.lpm          1800.000122:  Flow In Max 
 DFT .                   Other:  Mud Type 
 HFLO.                      No:  High Flow 
 HPRE.                      No:  High Pressure 
 HTEM.                      No:  High Temp 
 HYDO.m               1.400000:  Hydro Offset 
 IFIN.deg            10.460000:  Inc, Final 
 IMAX.deg            32.367214:  Inc Max 
 IMIN.deg            11.447388:  Inc Min 
 IMND.m            5236.799805:  Inc Min Depth 
 IMXD.m            4790.299805:  Inc Max Depth 
 JARR.                      No:  Jarring 
 LETM.      12.28.32 23-Jun-16:  Log End Time 
 LOST.hr                     0:  Lost Rig Time 
 LSTM.      14.30.00 17-Jun-16:  Log Start Time 
 MDCL.ppm         23000.000000:  Mud Chlorides 
 MDES.             Fresh Water:  Mud Desc 
 DFD .g/c3            1.170004:  Mud Density 
 MDMN.g/c3            1.160004:  Dens Mud Min 
 MDMX.g/c3            1.170004:  Dens Mud Max 
 PH  .pH              9.400000:  Mud pH 
 MOIL.                       0:  Run Mud Oil % 
 MOWR.                    1 91:  Run Mud OWR 
 MSND.                     0.1:  Run Mud Sand % 
 MSOL.                     6.2:  Run Mud Solids% 
 DFV .spl            73.000000:  Mud Viscosity 
 MWOD.in              6.750000:  MWD Tool OD 
 MWSI.                      No:  Serv Intrp, MWD 
 OTIM.hr            238.111023:  Time Operating 
 PMAX.psig         4000.000000:  Press Op, Max 
 PV  .mPsec          36.000000:  Mud PV 
 RMS .ohmm            0.299000:  Mud Resistivity 
 RMCS.ohmm            0.397000:  Mud Cake Resistivity 
 MCST.degC           35.000000:  Mud Cake Sample Temperature 
 RMFS.ohmm            0.200000:  Mud Filtrate Resistivity 
 RMFT.degC           35.000000:  Mud Filtrate Sample Temperature 
 RMMT.ohmm            0.118100:  Rm @ Max Temp 
 MST .degC           35.000000:  Mud Sample Temperature 
 RUN .                    3300:  Run Number 
 ROPA.m/hr            4.450000:  ROP Avg 
 ROPN.m/hr            2.000000:  ROP Min 
 ROPX.m/hr            7.000000:  ROP Max 
 RPMA.rpm            78.000000:  RPM Surface Avg 
 RPMN.rpm            35.000000:  RPM Surface Min 
 RPMX.rpm            80.000000:  RPM Surface Max 
 RRUN.                    3300:  Rig Run Number 
 RTIM.hr              7.150000:  Time Reaming 
 SAZI.deg           249.699997:  Azm, Start 
 SDEP.m            4799.000000:  Start Depth 
 SIDD.                      No:  Serv Intrp, DD 
 SINC.deg            30.049999:  Inc, Start 
 SPPA.psig         4543.999023:  SPP Avg 
 SPPN.psig         4264.078613:  SPP Min 
 SPPX.psig         4641.173828:  SPP Max 
 STIM.      09.00.00 16-Jun-16:  Start Time 
 SVCS.                 DD, MWD:  Services 
 SVER.                8.300000:  Sperry Version 
 TDAT.m             455.000000:  Tot Depth Attmp 
 TDDF.                      No:  Trip for DD 
 TDLG.m             455.000000:  Tot Depth Loggd 
 TFF .                      No:  Trip for Fail 
 TQAA.f-p         37070.000000:  Torque Abs Avg 
 TQAN.f-p         35000.000000:  Torque Abs Min 
 TQAX.f-p         39000.000000:  Torque Abs Max 
 TRRT.°/100'          0.000000:  Turn Rotating 
 MRT .                     PWD:  Maximum Recorded Temperature 
 TTMX.degC          121.568352:  Max Tool Temp 
 VS01.     AD90473258H2V5WGV2COXF1(6):  Virtual Str1 SN 
 WBMN.klb             4.409245:  WOB Min 
 WITN.           Roger Butters:  Customer Rep 
 WOBA.klb             9.788525:  WOB Avg 
 WOBX.klb            13.227736:  WOB Max 
 YP  .pa             43.000000:  Yield Point 
~Curve Information Block
#MNEM.UNIT                 API CODE     Curve Description
#---------               -----------    ---------------------------
 DEPT.M                 00 000 000 000:  Depth
 DGRCC.api              00 000 000 000:  DGR Comb Gamma Ray BCorr
 ALHSI.in               00 000 000 000:  ALD Hole Size Indicator
 ABR .ohmm              00 000 000 000:  At-Bit Resistivity
 AFRSA.ohmm             00 000 000 000:  AFR Shallow Avg Res
 AFRMA.ohmm             00 000 000 000:  AFR Medium Avg Res
 AFRDA.ohmm             00 000 000 000:  AFR Deep Avg Res
 AFXT.hr                00 000 000 000:  AFR Form Exp Time
 ALCDLC.g/c3            00 000 000 000:  ALD LCRB Comp Density
 ALPELC.NONE            00 000 000 000:  ALD LCRB Pe Factor
 ALDCLC.g/c3            00 000 000 000:  ALD LCRB Den Correction
 TNPL.pu                00 000 000 000:  CTN Porosity Limestone
 DTC .uspf              00 000 000 000:  BAT DTC
 DTRS.uspf              00 000 000 000:  BAT Refracted Shear
 VPVS.NONE              00 000 000 000:  BAT VP/VS
#Other Information
#
#WARRANTY: Halliburton will use its best efforts to furnish customers with 
#accurate information and interpretations that are part of, and incident to, the services 
#provided.  However, Halliburton cannot and does not warrant the accuracy 
#or correctness of such information and interpretations.  Under no circumstances should any 
#such information or interpretation be relied upon as the sole basis for any drilling, 
#completion, production, or financial decision or any procedure involving any risk to the 
#safety of any drilling venture, drilling rig or its crew or any other third party.  The 
#Customer has full responsibility for all drilling, completion and production operation.  
#Halliburton makes no representations or warranties, either expressed or 
#implied, including, but not limited to, the implied warranties of merchantability or fitness 
#for a particular purpose, with respect to the services rendered.  In no event will 
#Halliburton be liable for failure to obtain any particular results or for 
#any damages, including, but not limited to, indirect, special or consequential damages, 
#resulting from the use of any information or interpretation provided by Halliburton.
#
~A   DEPT      DGRCC     ALHSI      ABR      AFRSA     AFRMA     AFRDA     AFXT     ALCDLC    ALPELC    ALDCLC     TNPL       DTC      DTRS      VPVS    
# ...
   5473.4460   21.6753 -999.2500 -999.2500   27.1780   24.8613   24.0311   67.8006    2.4800    4.5079    0.0385    5.0380   58.5324   88.8694    1.5183
   5473.5984   21.5502 -999.2500 -999.2500   29.2360   26.8555   26.5608   67.7974    2.5505    6.7355    0.1374    4.9420   58.1853   87.8839    1.5104
   5473.7508   21.7609 -999.2500 -999.2500   29.3542   26.9189   27.2123   67.7941    2.5255    6.8302    0.1314    4.7989   58.3221   87.0687    1.4929
   5473.9032   21.6512 -999.2500 -999.2500   31.1871   28.8251   29.7014   67.7908    2.4616    5.6045    0.0678    4.7542   57.9954   86.2031    1.4864
   5474.0556   21.2962 -999.2500 -999.2500   34.9856   32.9770   34.4859   67.7876    2.4879    4.0522    0.0273    4.7230   57.9195   85.4935    1.4761
   5474.2080   22.3024 -999.2500 -999.2500   38.2517   37.3167   39.1357   67.7843    2.5099    4.3966    0.0494    4.6226   58.2147   85.0652    1.4613
   5474.3604   30.5714 -999.2500 -999.2500   38.8429   39.7627   40.5760   67.7810    2.5093    4.9357    0.0594    4.6448   58.4948   84.9313    1.4520
   5474.5128   27.6858 -999.2500 -999.2500   33.2419   34.4967   33.3783   67.7778    2.4911    5.3707    0.0483    4.7381   58.7069   85.2144    1.4515
   5474.6652   22.4966 -999.2500 -999.2500   25.4511   25.4335   24.0554   67.7746    2.4737    4.4187    0.0246    5.3300   58.8590   85.7271    1.4565
   5474.8176   17.0925 -999.2500 -999.2500   21.2127   20.5293   19.2203   67.7713    2.4534    3.8325    0.0088    5.5482   58.8420   86.3197    1.4670
   5474.9700   16.1973 -999.2500 -999.2500   19.3223   18.5676   17.0392   67.7681    2.4434    3.6269    0.0009    5.5690   58.6567   87.6655    1.4946
   5475.1224   19.1282 -999.2500 -999.2500   17.6989   16.9437   15.3368   67.7649    2.4547    3.8315    0.0040    6.4442   58.9283   89.5774    1.5201
   5475.2748   25.4598 -999.2500 -999.2500   16.9076   16.0698   14.4797   67.7617    2.4870    5.1834    0.0425    6.4403   59.6802   91.1816    1.5278
   5475.4272   20.2421 -999.2500 -999.2500   17.4850   16.8081   15.4057   67.7586    2.5154    6.4463    0.0821    5.6627   60.1151   91.8514    1.5279
   5475.5796   17.9995 -999.2500 -999.2500   20.8308   21.7322   20.7126   67.7554    2.5390    7.8139    0.1244    4.6414   59.9796   91.7295    1.5293
   5475.7320   27.1327 -999.2500 -999.2500   31.4392   37.4875   36.5090   67.7524    2.4591    5.3732    0.0347    3.3115   58.8421   89.9433    1.5285
   5475.8844   27.6895 -999.2500 -999.2500   50.1632   63.4206   62.2784   67.7493    2.4784    4.4253    0.0246    2.7123   57.6911   87.5985    1.5184
   5476.0368   26.9946 -999.2500 -999.2500   63.9849   72.9164   74.8686   67.7463    2.5315    4.3671    0.0503    2.6640   57.4868   85.9121    1.4945
   5476.1892   19.3679 -999.2500 -999.2500   71.5469   72.9872   80.5757   67.7433    2.5184    4.4151    0.0474    2.4756   57.3444   85.2859    1.4873
   5476.3416   13.5484 -999.2500 -999.2500   81.2289   80.0925   90.2716   67.7403    2.5049    4.2363    0.0389    2.0361   57.0062   85.2336    1.4954
   5476.4940    9.1925 -999.2500 -999.2500   85.5088   86.7104   93.6384   67.7372    2.5122    4.3189    0.0469    1.8332   56.1780   85.1406    1.5158
   5476.6464   12.5280 -999.2500 -999.2500   86.1788   87.8680   91.4875   67.7343    2.5513    5.1034    0.0870    1.7629   55.7132   84.5849    1.5184
   5476.7988   12.5623 -999.2500 -999.2500   84.2403   85.4208   84.8244   67.7313    2.5379    5.2164    0.0779    1.7758   55.4924   83.9171    1.5123
   5476.9512   11.3923 -999.2500 -999.2500   79.1532   78.8596   75.7596   67.7282    2.5251    5.0857    0.0589    1.8724   55.7845   83.5016    1.4969
   5477.1036   13.1129 -999.2500 -999.2500   78.8746   75.2252   72.9908   67.7252    2.5259    4.8491    0.0379    2.0656   55.8379   82.9627    1.4871
   5477.2560   11.9615 -999.2500 -999.2500   78.3513   70.1448   70.9949   67.7220    2.5319    5.0347    0.0401    2.2338   56.3003   82.2250    1.4625
   5477.4084   15.5264 -999.2500 -999.2500   73.5586   65.4565   65.7559   67.7187    2.5444    5.6081    0.0559    2.1624   56.7456   82.5323    1.4608
   5477.5608   17.1839 -999.2500 -999.2500   76.0423   70.3695   68.7459   67.7155    2.5748    7.0302    0.1013    2.4741   56.9826   83.4690    1.4672
   5477.7132   16.6470 -999.2500 -999.2500   90.6692   87.1665   85.3564   67.7122    2.5738    7.2810    0.1368    2.8277   57.2292   84.7584    1.4810
   5477.8656   18.0987 -999.2500 -999.2500  108.7760  108.7761  106.9154   67.7090    2.5443    6.6305    0.1149    2.7255   58.0726   86.1206    1.4830
   5478.0180   20.6374 -999.2500 -999.2500  119.5065  122.4597  119.8445   67.7058    2.5152    5.8447    0.0821    2.3409   58.4731   86.1870    1.4740
   5478.1704   19.8017 -999.2500 -999.2500  119.7365  121.2347  118.8390   67.7026    2.4951    4.7642    0.0473    2.0906   57.8233   85.3981    1.4769
   5478.3228   16.3493 -999.2500 -999.2500  112.8277  111.4579  109.0769   67.6993    2.5092    5.0754    0.0560    2.0838   57.0411   84.4338    1.4803
   5478.4752   16.6379 -999.2500 -999.2500  108.3219  105.5844  103.0031   67.6960    2.5192    5.1689    0.0586    2.1345   55.9934   83.1803    1.4856
   5478.6276   20.3733 -999.2500 -999.2500  106.2062  102.8170  100.5474   67.6928    2.5050    4.6933    0.0318    2.2836   55.6472   82.5573    1.4837
   5478.7800   21.2647 -999.2500 -999.2500   90.8733   88.7067   85.4139   67.6895    2.5018    4.3907    0.0259    2.5639   56.3346   82.1877    1.4591
   5478.9324   19.5718 -999.2500 -999.2500   66.8977   65.1868   61.1827   67.6864    2.5136    4.8198    0.0436    2.7065   56.8584   82.4790    1.4507
   5479.0848   18.1999 -999.2500 -999.2500   51.2806   48.9873   46.2114   67.6831    2.5145    5.0603    0.0483    2.9541   57.5863   82.9440    1.4403
   5479.2372   20.4611 -999.2500 -999.2500   48.6125   47.5905   45.5728   67.6799    2.5019    4.9550    0.0356    3.1293   58.1842   84.5329    1.4526
   5479.3896   19.9093 -999.2500 -999.2500   51.5773   54.2291   51.6576   67.6766    2.5074    5.0119    0.0397    2.9560   59.0119   87.4515    1.4818
   5479.5420   19.3512 -999.2500 -999.2500   53.5497   58.6090   55.6609   67.6734    2.5123    4.5565    0.0317    2.7419   59.4200   87.7918    1.4776
   5479.6944   15.2254 -999.2500 -999.2500   59.3765   65.2249   62.5148   67.6702    2.5037    3.3818   -0.0060    2.6403   59.6226   86.7791    1.4555
   5479.8468   15.5173 -999.2500 -999.2500   66.7019   71.3947   70.2021   67.6669    2.4834    2.6670   -0.0338    2.5468   58.8939   85.3600    1.4496
   5479.9992   14.7150 -999.2500 -999.2500   62.7895   64.0316   64.8603   67.6637    2.4703    2.7616   -0.0363    2.6193   57.3004   84.2675    1.4713
   5480.1516   15.9260 -999.2500 -999.2500   54.8862   55.3172   56.0389   67.6604    2.4787    3.3846   -0.0205    2.7939   56.4808   83.9880    1.4873
   5480.3040   17.6517 -999.2500 -999.2500   49.1096   50.7789   50.1744   67.6572    2.4756    3.1023   -0.0258    2.8083   57.6270   84.0196    1.4584
   5480.4564   18.8546 -999.2500 -999.2500   42.3143   44.6774   43.1797   67.6540    2.4758    2.7019   -0.0324    2.8354   58.0150   84.5149    1.4569
   5480.6088   18.6450 -999.2500 -999.2500   39.0983   42.1054   40.5106   67.6507    2.4878    2.4832   -0.0316    3.1520   57.7664   86.4545    1.4967
   5480.7612   16.7084 -999.2500 -999.2500   38.4602   41.8789   41.1152   67.6475    2.4835    2.5010   -0.0332    3.0870   57.6274   88.6720    1.5388
   5480.9136   13.7901 -999.2500 -999.2500   35.7154   38.2955   38.2574   67.6442    2.4945    2.8769   -0.0190    3.1886   57.6230   89.5869    1.5547
   5481.0660   11.9533 -999.2500 -999.2500   32.3348   34.0954   33.8231   67.6410    2.5226    3.6109    0.0110    3.3550   57.7563   89.4779    1.5493
   5481.2184   13.9669 -999.2500 -999.2500   31.3187   33.0359   32.5813   67.6378    2.4988    3.3231   -0.0150    3.4929   58.0056   88.7983    1.5309
   5481.3708   17.9526 -999.2500 -999.2500   32.0342   33.9134   33.6706   67.6345    2.4976    3.2474   -0.0256    3.5574   58.0454   88.1500    1.5186
