~Version
 VERS              .         3                             : CWLS LOG ASCII STANDARD - VERSION 3.0
 WRAP              .         NO                            : ONE LINE PER DEPTH STEP
 DLM               .         SPACE                         : DELIMITING CHARACTER(SPACE TAB OR COMMA)
~Well Information
#_______________________________________________________________________________
#
#PARAMETER_NAME    .UNIT     VALUE                         : DESCRIPTION
#_______________________________________________________________________________
STRT               .F        4494                          : First reference value
STOP               .F        7635                          : Last reference value
STEP               .F        0.5                           : Step increment
NULL               .         -9999                         : Missing value
WELL               .         SY027104H                     : Well name
ORIGINALWELLNAME   .         Well                          : 
RANG               .                                       : 
REGN               .         Abu Dhabi                     : 
AZTC               .deg      0.383835                      : 
GRDC               .deg      1.093917                      : 
WHEW               .ft       0.000000                      : 
TDL                .ft       3000.000000                   : 
TOWN               .                                       : 
NREF               .         2                             : 
DOE                .         AD-FE-0007255267              : 
EGL                .ft       407.799988                    : 
GVFD               .g        1.000000                      : 
COLG               .         186HAL_lg.bmp                 : 
WHNS               .ft       0.000000                      : 
CREF               .         Ellipsoid Clarke - 1880       : 
VSDR               .deg      55.740002                     : 
FTOP               .         Formation Tops                : 
LLGR               .         Latitude/Longitude            : 
EPD                .ft       0.000000                      : 
WDMS               .ft       0.000000                      : 
DFWL               .ft       0.000000                      : 
MFLD               .nT       42523.898438                  : 
GREF               .         Ellipsoid World Geodetic System: 
CTRY               .         UN                            : Two letter Internet country code
COUNTRY            .         United Arab Emirates          : 
DFWT               .                                       : 
CNTY               .         Abu Dhabi                     : 
VSEW               .ft       0.000000                      : 
UWI                .         AD-FE-0007255267              : 
CSGD               .ft       4170.000000                   : 
STAT               .         Abu Dhabi                     : 
APD                .ft       429.000000                    : 
BASE               .         Abu Dhabi                     : 
VSNS               .ft       0.000000                      : 
DCON               .         Al-Mansoory                   : 
API                .         AD-FE-0007255267              : 
GPMT               .                                       : 
CSGL               .ft       4170.000000                   : 
MDEC               .deg      1.477752                      : 
LONG               .deg      53.809174                     : 
CSGS               .in       9.625000                      : 
SPUD               .         20-Mar-10                     : 
MDS                .         Win MagUTM                    : 
CMER               .deg      51.000000                     : 
SRVC               .         NDC                           : 
CSGW               .lbpf     47.000000                     : 
SON                .         AD-FE-0007255267              : 
TVDS               .ft       429.000000                    : 
LMF                .         Kelly Bushing                 : 
CGSY               .         SS CLRK51                     : 
EKB                .ft       429.000000                    : 
HPTY               .         0                             : 
MWDS               .         Dubai                         : 
GGSY               .         LL                            : 
RCST               .$/da     0.000000                      : 
FLD                .         Shah                          : 
SVYD               .         Survey_DS                     : 
CCDE               .         UTM Clarke 1880 (CM 51), Meters: 
AGAP               .ft       0.000000                      : 
LOC                .                                       : 
DFSL               .ft       0.000000                      : 
EDF                .ft       428.000031                    : 
UNIT               .         166264                        : 
RIG                .         ND-50                         : 
VSC                .         0                             : 
LEAS               .                                       : 
XYGR               .         UTM Zones, Northern Hemisphere, Meters: 
GCDE               .         Generic Lat/Long's, Degrees, -180 ==> +180: 
DFST               .                                       : 
ILTD               .         Lithology                     : 
DMOD               .         Drill Model                   : 
JOBN               .         AD-FE-0007255267              : 
LATI               .deg      22.900974                     : 
DMF                .         Kelly Bushing                 : 
STIM               .         00.00.00 28-Mar-10            : 
CULG               .                                       : 
SECT               .                                       : 
PDAT               .         Mean Sea Level                : 
CPJM               .                                       : 
STRD               .ft       4648.000000                   : 
WTYP               .         2                             : 
COMP               .         ADCO                          : 
MAGU               .         1453103                       : 
PROV               .         Abu Dhabi                     : 
MMDL               .         bggm2009.dat                  : 
UTMX               .m        788186.312500                 : 
UTMY               .m        2535096.000000                : 
DATE               .         00.00.00 03-Apr-10            : 
TDD                .ft       7648.000000                   : 
MDIP               .deg      34.939442                     : 
GDAT               .                                       : 
LIC                .                                       : 
~Parameter Information Block
#_______________________________________________________________________________
#
#PARAMETER_NAME    .UNIT     VALUE                         : DESCRIPTION
#_______________________________________________________________________________
SET                .         WL_FINAL                      : 
LMF                .         ORTKB                         : Logging Measured From (Name of Logging Elevation Reference)
APD                .F        428.000000                    : Elevation of Depth Reference (LMF) above Permanent Datum
EPD                .F        0.000000                      : Elevation of Permanent Datum above Mean Sea Level
RUN                .         1                             : RUN NUMBER
PDAT               .         MSL                           : Permanent Datum
~Curve Information
#_______________________________________________________________________________
#
#LOGNAME           .UNIT     LOG_ID                        : DESCRIPTION
#_______________________________________________________________________________
DEPT               .F                                      : DEPTH (BOREHOLE) -F10 {F}
C1                 .IN                                     : Caliper 1 -F13 {F}
C2                 .IN                                     : Caliper 2 -F13 {F}
HCGR               .GAPI                                   : HNGS Computed Gamma Ray -F13 {F}
HSGR               .GAPI                                   : HNGS Standard Gamma Ray -F13 {F}
RT_HRLT            .OHMM                                   : HRLT Computed True Resistivity -F13 {F}
RXO_HRLT           .OHMM                                   : HRLT Computed Invaded Zone Resistivity -F13 {F}
TENS               .LBF                                    : Cable Tension -F13 {F}
~Ascii
# ...
7588       5.9255     5.8961     22.1275    50.0478    6.9111     7.1485     3167      
7588.5     5.9331     5.8889     22.129     50.0511    7.1858     7.4416     3167      
7589       5.9368     5.8853     22.129     50.0511    7.0255     7.1055     3159      
7589.5     5.9255     5.9176     22.1246    50.0411    6.7957     6.851      3084      
7590       5.9217     5.8817     22.1157    50.0211    6.4492     6.6419     2960      
7590.5     5.9141     5.8889     22.1202    50.0311    6.1363     6.451      2984      
7591       5.9368     5.8853     22.132     50.0578    5.8091     6.5157     3007      
7591.5     5.952      5.8961     22.1379    50.0711    5.4097     6.1514     3156      
7592       5.9293     5.8889     22.1555    50.1111    5.0791     5.887      3218      
7592.5     5.9823     5.9032     22.1703    50.1444    4.6124     5.5746     3143      
7593       5.9899     5.9104     22.1938    50.1978    4.6611     5.5377     3059      
7593.5     5.9899     5.9248     22.1938    50.1978    4.7963     5.6849     2969      
7594       5.9823     5.9176     22.1968    50.2044    4.4973     5.5787     2941      
7594.5     5.9975     5.9176     22.1997    50.2111    5.4134     6.2602     3059      
7595       5.9975     5.9176     22.1997    50.2111    5.3458     6.0515     3149      
7595.5     5.9823     5.9176     22.1909    50.1911    4.7872     5.6469     3152      
7596       5.9747     5.9392     22.1821    50.1711    5.3088     6.0766     3134      
7596.5     5.9747     5.9104     22.1614    50.1245    5.5267     6.1953     3143      
7597       5.9293     5.9176     22.1408    50.0778    5.4937     5.9409     3091      
7597.5     5.9217     5.8961     22.1113    50.0111    5.5388     5.8373     3057      
7598       5.899      5.8961     22.0936    49.971     6.1945     6.4516     3002      
7598.5     5.8838     5.9104     22.0611    49.8975    6.338      6.7355     3112      
7599       5.8383     5.9104     22.0374    49.844     6.0184     6.6642     3115      
7599.5     5.8383     5.9104     22.0197    49.8039    6.0472     6.8002     3217      
7600       5.8383     5.9032     22.0227    49.8106    5.7057     6.1442     3119      
7600.5     5.8459     5.9104     22.0197    49.8039    5.6854     6.1554     3049      
7601       5.8308     5.9032     22.0167    49.7972    5.685      6.1438     2978      
7601.5     5.8308     5.9104     22.0049    49.7704    5.6842     6.1384     3016      
7602       5.8156     5.8961     22.0049    49.7704    5.6844     6.1344     3204      
7602.5     5.8308     5.8889     22.0034    49.7671    5.6842     6.1307     3195      
7603       5.827      5.8889     22.0005    49.7604    5.6849     6.1295     3228      
7603.5     5.808      5.8961     22.0005    49.7604    5.6849     6.1387     3064      
7604       5.8308     5.8745     22.0079    49.7771    5.6855     6.1371     3000      
7604.5     5.8459     5.9032     22.0197    49.8039    5.687      6.1432     3048      
7605       5.8383     5.8961     22.0212    49.8072    5.687      6.1498     3026      
7605.5     5.8345     5.8745     22.0197    49.8039    5.6858     6.1496     3146      
7606       5.8421     5.8961     22.0182    49.8005    5.6859     6.148      3164      
7606.5     5.8345     5.8817     22.0227    49.8106    5.6865     6.1517     3220      
7607       5.8459     5.8781     22.0241    49.8139    5.686      6.1514     3094      
7607.5     5.8459     5.8996     22.0212    49.8072    5.6857     6.1473     3040      
7608       5.827      5.9104     22.0123    49.7871    5.6845     6.1421     2942      
7608.5     5.8232     5.8889     22.0005    49.7604    5.6834     6.1341     3129      
7609       5.8156     5.8961     22.0005    49.7604    5.6834     6.1322     3094      
7609.5     5.827      5.8853     21.9975    49.7537    5.6843     6.126      3186      
7610       5.8156     5.9104     22.0005    49.7604    5.6853     6.1289     3176      
7610.5     5.8232     5.9104     22.0049    49.7704    5.686      6.1369     3099      
7611       5.8383     5.9032     22.0197    49.8039    5.6874     6.1458     3038      
7611.5     5.8535     5.9104     22.0315    49.8307    5.6884     6.1572     3070      
7612       5.8535     5.9032     22.0374    49.844     5.6878     6.1633     3035      
7612.5     5.8535     5.8889     22.0315    49.8307    5.6862     6.1587     3188      
7613       5.8383     5.9248     22.0197    49.8039    5.6859     6.1547     3132      
7613.5     5.8232     5.8961     22.0227    49.8106    5.6865     6.1581     3248      
7614       5.8611     5.9248     22.036     49.8407    5.6886     6.1659     3119      
7614.5     5.8724     5.9248     22.0596    49.8942    5.6913     6.1825     3104      
7615       5.8838     5.914      22.0685    49.9142    5.6904     6.2031     2925      
7615.5     5.8838     5.9176     22.07      49.9176    5.6899     6.2012     3005      
7616       5.8762     5.9248     22.07      49.9176    5.6891     6.2045     3121      
7616.5     5.8838     5.9356     22.07      49.9176    5.6881     6.1981     3215      
7617       5.8838     5.9428     22.0596    49.8942    5.6875     6.1897     3206      
7617.5     5.8497     5.9176     22.0478    49.8674    5.6862     6.1809     3132      
7618       5.8535     5.932      22.033     49.834     5.6852     6.1684     3085      
7618.5     5.8459     5.9248     22.0315    49.8307    5.6861     6.1602     3075      
7619       5.8459     5.9176     22.0315    49.8307    5.6862     6.1604     3115      
7619.5     5.8535     5.9176     22.0286    49.824     5.6857     6.1582     3162      
7620       5.8383     5.9463     22.0227    49.8106    5.6852     6.1493     3211      
7620.5     5.8308     5.9248     22.0079    49.7771    5.684      6.141      3224      
7621       5.8156     5.9176     22.0034    49.7671    5.6842     6.1355     3173      
7621.5     5.827      5.9248     22.0064    49.7738    5.6848     6.1357     3074      
7622       5.8383     5.9248     22.0123    49.7872    5.6856     6.1351     3072      
7622.5     5.8308     5.9068     22.0079    49.7771    5.6852     6.1363     3066      
7623       5.8156     5.8961     22.0019    49.7637    5.684      6.135      2998      
7623.5     5.8232     5.9176     21.999     49.757     5.6838     6.1277     3257      
7624       5.8232     5.9176     21.999     49.757     5.6847     6.1274     3242      
7624.5     5.8156     5.9068     22.0019    49.7637    5.6847     6.1325     3313      
7625       5.8308     5.914      22.0019    49.7637    5.6827     6.129      3123      
7625.5     5.8232     5.9392     21.9842    49.7235    5.6818     6.1101     3115      
7626       5.7701     5.8961     21.9634    49.6766    5.6802     6.0992     3163      
7626.5     5.7777     5.8781     21.9486    49.6431    5.68       6.0903     3195      
7627       5.7853     5.9032     21.9664    49.6833    5.683      6.091      3248      
7627.5     5.8156     5.9032     21.9842    49.7235    5.6855     6.1083     3301      
7628       5.8232     5.8961     21.999     49.757     5.6863     6.1231     3257      
7628.5     5.8232     5.9032     22.0019    49.7637    5.6848     6.1305     3204      
7629       5.8232     5.9104     21.993     49.7436    5.6828     6.1196     3035      
7629.5     5.8004     5.9212     21.9782    49.7101    5.6811     6.1095     3034      
7630       5.7853     5.9104     21.9634    49.6766    5.6801     6.0972     3113      
7630.5     5.7853     5.8961     21.9575    49.6632    5.6796     6.0854     3133      
7631       5.7853     5.9032     21.953     49.6531    5.6801     6.0808     3173      
7631.5     5.7739     5.8996     21.9501    49.6464    5.6806     6.083      3164      
7632       5.7777     5.9176     21.956     49.6598    5.6803     6.0857     3102      
7632.5     5.8004     5.9176     21.9545    49.6565    5.6813     6.0819     2992      
7633       5.7701     5.9176     21.9605    49.6699    5.6812     6.0898     2978      
