~Version
 VERS              .         3                             : CWLS LOG ASCII STANDARD - VERSION 3.0
 WRAP              .         NO                            : ONE LINE PER DEPTH STEP
 DLM               .         SPACE                         : DELIMITING CHARACTER(SPACE TAB OR COMMA)
~Well Information
#_______________________________________________________________________________
#
#PARAMETER_NAME    .UNIT     VALUE                         : DESCRIPTION
#_______________________________________________________________________________
STRT               .F        4494                          : First reference value
STOP               .F        7635                          : Last reference value
STEP               .F        0.5                           : Step increment
NULL               .         -9999                         : Missing value
WELL               .         SY027104H                     : Well name
ORIGINALWELLNAME   .         Well                          : 
RANG               .                                       : 
REGN               .         Abu Dhabi                     : 
AZTC               .deg      0.383835                      : 
GRDC               .deg      1.093917                      : 
WHEW               .ft       0.000000                      : 
TDL                .ft       3000.000000                   : 
TOWN               .                                       : 
NREF               .         2                             : 
DOE                .         AD-FE-0007255267              : 
EGL                .ft       407.799988                    : 
GVFD               .g        1.000000                      : 
COLG               .         186HAL_lg.bmp                 : 
WHNS               .ft       0.000000                      : 
CREF               .         Ellipsoid Clarke - 1880       : 
VSDR               .deg      55.740002                     : 
FTOP               .         Formation Tops                : 
LLGR               .         Latitude/Longitude            : 
EPD                .ft       0.000000                      : 
WDMS               .ft       0.000000                      : 
DFWL               .ft       0.000000                      : 
MFLD               .nT       42523.898438                  : 
GREF               .         Ellipsoid World Geodetic System: 
CTRY               .         UN                            : Two letter Internet country code
COUNTRY            .         United Arab Emirates          : 
DFWT               .                                       : 
CNTY               .         Abu Dhabi                     : 
VSEW               .ft       0.000000                      : 
UWI                .         AD-FE-0007255267              : 
CSGD               .ft       4170.000000                   : 
STAT               .         Abu Dhabi                     : 
APD                .ft       429.000000                    : 
BASE               .         Abu Dhabi                     : 
VSNS               .ft       0.000000                      : 
DCON               .         Al-Mansoory                   : 
API                .         AD-FE-0007255267              : 
GPMT               .                                       : 
CSGL               .ft       4170.000000                   : 
MDEC               .deg      1.477752                      : 
LONG               .deg      53.809174                     : 
CSGS               .in       9.625000                      : 
SPUD               .         20-Mar-10                     : 
MDS                .         Win MagUTM                    : 
CMER               .deg      51.000000                     : 
SRVC               .         NDC                           : 
CSGW               .lbpf     47.000000                     : 
SON                .         AD-FE-0007255267              : 
TVDS               .ft       429.000000                    : 
LMF                .         Kelly Bushing                 : 
CGSY               .         SS CLRK51                     : 
EKB                .ft       429.000000                    : 
HPTY               .         0                             : 
MWDS               .         Dubai                         : 
GGSY               .         LL                            : 
RCST               .$/da     0.000000                      : 
FLD                .         Shah                          : 
SVYD               .         Survey_DS                     : 
CCDE               .         UTM Clarke 1880 (CM 51), Meters: 
AGAP               .ft       0.000000                      : 
LOC                .                                       : 
DFSL               .ft       0.000000                      : 
EDF                .ft       428.000031                    : 
UNIT               .         166264                        : 
RIG                .         ND-50                         : 
VSC                .         0                             : 
LEAS               .                                       : 
XYGR               .         UTM Zones, Northern Hemisphere, Meters: 
GCDE               .         Generic Lat/Long's, Degrees, -180 ==> +180: 
DFST               .                                       : 
ILTD               .         Lithology                     : 
DMOD               .         Drill Model                   : 
JOBN               .         AD-FE-0007255267              : 
LATI               .deg      22.900974                     : 
DMF                .         Kelly Bushing                 : 
STIM               .         00.00.00 28-Mar-10            : 
CULG               .                                       : 
SECT               .                                       : 
PDAT               .         Mean Sea Level                : 
CPJM               .                                       : 
STRD               .ft       4648.000000                   : 
WTYP               .         2                             : 
COMP               .         ADCO                          : 
MAGU               .         1453103                       : 
PROV               .         Abu Dhabi                     : 
MMDL               .         bggm2009.dat                  : 
UTMX               .m        788186.312500                 : 
UTMY               .m        2535096.000000                : 
DATE               .         00.00.00 03-Apr-10            : 
TDD                .ft       7648.000000                   : 
MDIP               .deg      34.939442                     : 
GDAT               .                                       : 
LIC                .                                       : 
~Parameter Information Block
#_______________________________________________________________________________
#
#PARAMETER_NAME    .UNIT     VALUE                         : DESCRIPTION
#_______________________________________________________________________________
SET                .         WL_FINAL                      : 
LMF                .         ORTKB                         : Logging Measured From (Name of Logging Elevation Reference)
APD                .F        428.000000                    : Elevation of Depth Reference (LMF) above Permanent Datum
EPD                .F        0.000000                      : Elevation of Permanent Datum above Mean Sea Level
RUN                .         1                             : RUN NUMBER
PDAT               .         MSL                           : Permanent Datum
~Curve Information
#_______________________________________________________________________________
#
#LOGNAME           .UNIT     LOG_ID                        : DESCRIPTION
#_______________________________________________________________________________
DEPT               .F                                      : DEPTH (BOREHOLE) -F10 {F}
C1                 .IN                                     : Caliper 1 -F13 {F}
C2                 .IN                                     : Caliper 2 -F13 {F}
HCGR               .GAPI                                   : HNGS Computed Gamma Ray -F13 {F}
HSGR               .GAPI                                   : HNGS Standard Gamma Ray -F13 {F}
RT_HRLT            .OHMM                                   : HRLT Computed True Resistivity -F13 {F}
RXO_HRLT           .OHMM                                   : HRLT Computed Invaded Zone Resistivity -F13 {F}
TENS               .LBF                                    : Cable Tension -F13 {F}
~Ascii
# ...
5950       6.0278     5.9823     0.3873     68.6193    24.4008    9.8664     2814      
5950.5     6.0202     5.9607     0.7516     71.012     26.9207    10.6909    2979      
5951       6.0202     5.9895     0.5148     69.9151    21.7473    7.9385     2643      
5951.5     6.0281     5.9602     0.624      67.9507    23.878     8.5088     2215      
5952       6.0297     5.9703     0.1607     64.9851    31.2944    11.7689    1956      
5952.5     6.0303     5.9661     0.5625     66.1295    37.0714    14.7478    1821      
5953       6.0316     5.9751     0.478      70.684     24.476     9.5065     2957      
5953.5     6.0278     5.9823     0.9935     74.1458    26.3361    9.1831     3032      
5954       6.0202     5.9751     1.1667     76.7962    23.622     8.32       2849      
5954.5     6.0278     5.9535     0.6954     73.8438    28.2753    10.3906    2946      
5955       6.0202     5.9679     0.9467     74.3198    33.8192    12.1105    3031      
5955.5     6.0354     6.0254     0.7721     72.7319    30.4788    11.0995    3017      
5956       6.0354     6.0398     1.4596     74.8773    25.2977    8.7949     2948      
5956.5     6.0354     6.0541     1.3455     73.1004    22.2761    8.1829     2860      
5957       6.0354     5.9823     1.6873     78.1644    20.544     8.0825     2883      
5957.5     6.005      5.9751     2.828      79.2568    24.8412    9.3743     2830      
5958       6.0202     5.9823     2.739      82.7984    22.1631    8.2172     2898      
5958.5     6.0354     5.9895     2.6091     78.6456    21.4355    8.1986     3010      
5959       5.9899     5.9751     2.6267     79.9479    21.0797    8.4694     2984      
5959.5     5.952      5.9823     2.0099     77.4788    21.8669    8.3907     2993      
5960       5.9141     5.9679     3.6523     79.0137    17.6811    6.9158     2808      
5960.5     5.9293     5.9607     3.6181     77.0052    27.6525    10.4878    2839      
5961       5.9217     5.9392     3.7289     77.7957    28.8579    11.7893    2839      
5961.5     5.9368     5.9571     3.4553     79.0982    24.7721    9.5868     2849      
5962       5.9065     5.9535     4.6503     78.8981    26.6838    9.4313     2979      
5962.5     5.9141     5.9607     4.2743     78.3115    27.5795    10.6044    2966      
5963       5.9141     5.9751     2.8562     75.7217    35.1171    14.1436    3028      
5963.5     5.9141     5.9392     2.9921     74.1059    33.7642    14.2809    2924      
5964       5.9141     5.9356     3.242      74.7111    27.7983    11.8452    2924      
5964.5     5.9217     5.9535     3.6069     74.2973    25.0601    11.1516    2855      
5965       5.9179     5.932      3.6289     74.2402    35.2131    15.4049    2924      
5965.5     5.9293     5.932      2.1489     74.2885    27.3242    12.643     2919      
5966       5.9217     5.9176     1.7911     74.6084    28.9243    13.0504    3056      
5966.5     5.9179     5.9392     2.0254     74.0034    24.9635    11.9072    3045      
5967       5.9293     5.9248     1.5338     70.3498    31.9798    15.1767    3005      
5967.5     5.9065     5.9535     0.2158     68.7156    32.0436    14.8197    2962      
5968       5.9141     5.9715     0.4486     68.1122    34.2801    14.0454    2887      
5968.5     5.9217     5.9032     0.8884     68.0265    34.0056    13.1603    2892      
5969       5.9217     5.932      1.2079     68.802     42.3309    15.7345    2922      
5969.5     5.9368     5.9463     1.0193     68.0763    36.4797    14.558     3017      
5970       5.9368     5.9463     1.8281     68.951     36.834     15.6172    3015      
5970.5     5.9293     5.9428     1.8792     68.3288    32.2177    13.3921    2977      
5971       5.9293     5.9463     1.96       68.1032    21.4802    10.3657    2876      
5971.5     5.9217     5.9607     2.1154     66.7214    21.618     11.0774    2898      
5972       5.9368     5.9643     1.1041     66.4745    36.68      16.4603    2850      
5972.5     5.9141     5.932      1.5687     68.9837    34.8718    14.4608    2898      
5973       5.9368     5.9463     2.8158     69.7233    30.2669    11.4235    3010      
5973.5     5.9217     5.9535     2.6736     70.4205    36.5319    13.3619    3046      
5974       5.9065     5.9392     2.9154     69.8994    34.0602    13.5768    3086      
5974.5     5.9293     5.9571     1.6869     70.225     31.7731    12.987     2956      
5975       5.9217     5.932      1.928      69.6887    54.4473    20.2871    2945      
5975.5     5.9293     5.932      1.0643     70.5538    36.0631    14.99      2892      
5976       5.9217     5.9248     1.0277     70.8327    26.2831    11.7385    2839      
5976.5     5.9293     5.9176     1.1975     72.2511    38.9931    16.7488    2973      
5977       5.9141     5.9176     1.7864     70.43      33.9953    14.853     3048      
5977.5     5.9141     5.9284     3.2034     70.6422    28.8595    12.4502    3080      
5978       5.9141     5.9284     1.3208     69.811     31.8116    12.0253    3025      
5978.5     5.9368     5.932      1.1685     72.1429    36.9382    15.8711    3010      
5979       5.9065     5.9248     -0.0081    72.4239    31.102     13.525     2925      
5979.5     5.9217     5.9284     1.0624     72.7774    33.3967    12.7761    2914      
5980       5.9255     5.932      1.7462     73.6879    27.8061    10.096     2892      
5980.5     5.9217     5.932      1.6056     76.5919    33.5767    13.2946    2889      
5981       5.9293     5.9032     1.7562     77.1088    31.1993    12.4598    3088      
5981.5     5.9141     5.9248     1.9047     75.4114    31.5233    12.0924    2959      
5982       5.9141     5.9176     1.5821     74.4295    31.9218    10.9617    3053      
5982.5     5.9141     5.9392     1.3533     75.4066    37.4578    12.4756    2951      
5983       5.9065     5.932      0.7404     75.8613    38.2838    12.4121    2994      
5983.5     5.9293     5.9248     2.2041     76.2715    27.8449    9.8542     2979      
5984       5.9293     5.9607     1.4212     75.0195    25.385     9.8354     2973      
5984.5     5.9217     5.9607     2.4529     75.3089    25.6711    11.0043    3091      
5985       5.9217     5.9679     0.8803     74.7981    20.0402    8.4336     3052      
5985.5     5.9255     5.9248     0.2625     75.1803    20.949     8.4103     2959      
5986       5.9217     5.9248     -0.1924    77.5454    24.6816    9.2926     2953      
5986.5     5.9293     5.9248     -0.1747    77.1112    29.5066    11.4064    2941      
5987       5.9293     5.9463     -0.1405    77.4378    23.6931    9.4994     2898      
5987.5     5.9027     5.9392     0.6887     73.0834    30.1219    11.6443    3056      
5988       5.9293     5.932      0.0486     73.9748    26.9067    10.3209    3094      
5988.5     5.9368     5.9032     0.3105     72.9584    26.2756    10.379     3085      
5989       5.9141     5.9032     1.0615     75.4642    36.3655    14.7168    3040      
5989.5     5.9141     5.8925     0.1543     76.7408    37.969     16.504     2998      
5990       5.9065     5.8925     0.0404     77.7058    34.4758    15.3568    2856      
5990.5     5.9141     5.8961     1.5868     75.5026    45.0304    18.638     2924      
5991       5.9293     5.8961     1.8586     70.8674    34.0272    16.1871    2844      
5991.5     5.9065     5.9032     1.879      70.0404    40.7787    20.6988    3010      
5992       5.9293     5.9176     1.2005     69.6653    57.3166    28.721     3081      
5992.5     5.9141     5.9176     1.0805     69.4933    40.6487    21.3883    3121      
5993       5.9217     5.9176     0.2717     66.5165    35.78      17.6311    2996      
5993.5     5.9217     5.8961     1.4681     63.8236    60.4456    30.6324    2986      
5994       5.9179     5.9176     0.7727     61.7624    43.9387    24.2259    2924      
5994.5     5.9141     5.9104     -0.2787    63.034     56.8017    26.6457    2983      
5995       5.9293     5.8996     0.249      64.697     60.9085    26.634     2916      
