~Version
 VERS              .         3                             : CWLS LOG ASCII STANDARD - VERSION 3.0
 WRAP              .         NO                            : ONE LINE PER DEPTH STEP
 DLM               .         SPACE                         : DELIMITING CHARACTER(SPACE TAB OR COMMA)
~Well Information
#_______________________________________________________________________________
#
#PARAMETER_NAME    .UNIT     VALUE                         : DESCRIPTION
#_______________________________________________________________________________
STRT               .F        4494                          : First reference value
STOP               .F        7635                          : Last reference value
STEP               .F        0.5                           : Step increment
NULL               .         -9999                         : Missing value
WELL               .         SY027104H                     : Well name
ORIGINALWELLNAME   .         Well                          : 
RANG               .                                       : 
REGN               .         Abu Dhabi                     : 
AZTC               .deg      0.383835                      : 
GRDC               .deg      1.093917                      : 
WHEW               .ft       0.000000                      : 
TDL                .ft       3000.000000                   : 
TOWN               .                                       : 
NREF               .         2                             : 
DOE                .         AD-FE-0007255267              : 
EGL                .ft       407.799988                    : 
GVFD               .g        1.000000                      : 
COLG               .         186HAL_lg.bmp                 : 
WHNS               .ft       0.000000                      : 
CREF               .         Ellipsoid Clarke - 1880       : 
VSDR               .deg      55.740002                     : 
FTOP               .         Formation Tops                : 
LLGR               .         Latitude/Longitude            : 
EPD                .ft       0.000000                      : 
WDMS               .ft       0.000000                      : 
DFWL               .ft       0.000000                      : 
MFLD               .nT       42523.898438                  : 
GREF               .         Ellipsoid World Geodetic System: 
CTRY               .         UN                            : Two letter Internet country code
COUNTRY            .         United Arab Emirates          : 
DFWT               .                                       : 
CNTY               .         Abu Dhabi                     : 
VSEW               .ft       0.000000                      : 
UWI                .         AD-FE-0007255267              : 
CSGD               .ft       4170.000000                   : 
STAT               .         Abu Dhabi                     : 
APD                .ft       429.000000                    : 
BASE               .         Abu Dhabi                     : 
VSNS               .ft       0.000000                      : 
DCON               .         Al-Mansoory                   : 
API                .         AD-FE-0007255267              : 
GPMT               .                                       : 
CSGL               .ft       4170.000000                   : 
MDEC               .deg      1.477752                      : 
LONG               .deg      53.809174                     : 
CSGS               .in       9.625000                      : 
SPUD               .         20-Mar-10                     : 
MDS                .         Win MagUTM                    : 
CMER               .deg      51.000000                     : 
SRVC               .         NDC                           : 
CSGW               .lbpf     47.000000                     : 
SON                .         AD-FE-0007255267              : 
TVDS               .ft       429.000000                    : 
LMF                .         Kelly Bushing                 : 
CGSY               .         SS CLRK51                     : 
EKB                .ft       429.000000                    : 
HPTY               .         0                             : 
MWDS               .         Dubai                         : 
GGSY               .         LL                            : 
RCST               .$/da     0.000000                      : 
FLD                .         Shah                          : 
SVYD               .         Survey_DS                     : 
CCDE               .         UTM Clarke 1880 (CM 51), Meters: 
AGAP               .ft       0.000000                      : 
LOC                .                                       : 
DFSL               .ft       0.000000                      : 
EDF                .ft       428.000031                    : 
UNIT               .         166264                        : 
RIG                .         ND-50                         : 
VSC                .         0                             : 
LEAS               .                                       : 
XYGR               .         UTM Zones, Northern Hemisphere, Meters: 
GCDE               .         Generic Lat/Long's, Degrees, -180 ==> +180: 
DFST               .                                       : 
ILTD               .         Lithology                     : 
DMOD               .         Drill Model                   : 
JOBN               .         AD-FE-0007255267              : 
LATI               .deg      22.900974                     : 
DMF                .         Kelly Bushing                 : 
STIM               .         00.00.00 28-Mar-10            : 
CULG               .                                       : 
SECT               .                                       : 
PDAT               .         Mean Sea Level                : 
CPJM               .                                       : 
STRD               .ft       4648.000000                   : 
WTYP               .         2                             : 
COMP               .         ADCO                          : 
MAGU               .         1453103                       : 
PROV               .         Abu Dhabi                     : 
MMDL               .         bggm2009.dat                  : 
UTMX               .m        788186.312500                 : 
UTMY               .m        2535096.000000                : 
DATE               .         00.00.00 03-Apr-10            : 
TDD                .ft       7648.000000                   : 
MDIP               .deg      34.939442                     : 
GDAT               .                                       : 
LIC                .                                       : 
~Parameter Information Block
#_______________________________________________________________________________
#
#PARAMETER_NAME    .UNIT     VALUE                         : DESCRIPTION
#_______________________________________________________________________________
SET                .         WL_FINAL                      : 
LMF                .         ORTKB                         : Logging Measured From (Name of Logging Elevation Reference)
APD                .F        428.000000                    : Elevation of Depth Reference (LMF) above Permanent Datum
EPD                .F        0.000000                      : Elevation of Permanent Datum above Mean Sea Level
RUN                .         1                             : RUN NUMBER
PDAT               .         MSL                           : Permanent Datum
~Curve Information
#_______________________________________________________________________________
#
#LOGNAME           .UNIT     LOG_ID                        : DESCRIPTION
#_______________________________________________________________________________
DEPT               .F                                      : DEPTH (BOREHOLE) -F10 {F}
C1                 .IN                                     : Caliper 1 -F13 {F}
C2                 .IN                                     : Caliper 2 -F13 {F}
HCGR               .GAPI                                   : HNGS Computed Gamma Ray -F13 {F}
HSGR               .GAPI                                   : HNGS Standard Gamma Ray -F13 {F}
RT_HRLT            .OHMM                                   : HRLT Computed True Resistivity -F13 {F}
RXO_HRLT           .OHMM                                   : HRLT Computed Invaded Zone Resistivity -F13 {F}
TENS               .LBF                                    : Cable Tension -F13 {F}
~Ascii
# ...
6132       5.9444     5.9679     0.3728     39.1039    197.307    23.2051    2919      
6132.5     5.9406     5.9895     0.4364     39.852     156.828    23.3027    2968      
6133       5.9293     5.9823     0.4149     40.4853    157.209    38.2558    2951      
6133.5     5.9368     5.9823     0.9795     39.4045    175.172    31.9395    2946      
6134       5.9823     5.9931     1.3878     38.3606    209.503    19.3429    2751      
6134.5     5.9823     5.9715     1.8584     36.6091    193.335    17.0554    2806      
6135       5.9823     6.0541     1.8461     35.7001    294.568    28.8653    2891      
6135.5     5.9747     6.0398     1.2582     34.8845    407.17     43.636     2925      
6136       5.9672     6.029      1.0855     34.8666    195.36     28.146     2960      
6136.5     5.9596     5.9823     0.9392     35.2302    311.949    36.0904    2994      
6137       5.9596     6.0074     1.8568     37.1154    437.577    42.0432    2888      
6137.5     5.9596     5.9895     2.1285     39.0743    205.213    21.3051    2855      
6138       5.9672     6.0541     2.2188     40.0159    146.807    16.7635    2748      
6138.5     5.9747     6.0541     2.1628     39.3928    120.953    17.4604    2922      
6139       5.9596     6.0541     1.9827     39.0988    134.255    23.222     2784      
6139.5     5.9689     6.044      1.6127     37.3338    135.836    21.9191    2418      
6140       5.9747     5.9823     1.5674     36.8984    159.668    17.9566    2155      
6140.5     5.9596     5.9751     1.1611     36.0511    139.366    15.8484    2010      
6141       5.9596     5.9823     2.3866     38.59      187.004    28.4841    2908      
6141.5     5.9747     5.9823     2.355      40.1942    274.909    53.9665    2695      
6142       5.9722     5.9463     2.3416     39.4529    223.228    91.9089    2276      
6142.5     5.9634     5.9787     1.9409     37.7936    125.26     77.9196    1960      
6143       6.0354     6.0577     2.4632     37.3136    127.612    72.5299    1950      
6143.5     6.0429     5.9751     2.4675     40.2367    192.401    215.954    2928      
6144       6.0429     5.9535     3.2017     39.8361    200.237    325.202    2898      
6144.5     6.0278     5.9823     3.5554     39.6635    144.559    233.904    2832      
6145       6.0354     5.9751     3.179      39.6204    142.467    209.823    2725      
6145.5     6.0202     5.9895     2.5706     40.5558    123.416    221.061    2839      
6146       6.0354     5.9715     3.0165     41.9451    119.979    221.081    2795      
6146.5     5.9596     5.9679     2.7462     41.4656    118.113    187.591    2926      
6147       5.9444     5.932      2.8004     41.5683    206.515    183.557    2856      
6147.5     5.9444     5.9463     2.5705     40.309     358.857    71.7953    2849      
6148       5.9368     5.9248     2.0635     41.3081    355.503    42.3633    2817      
6148.5     5.9368     5.9463     1.4581     40.945     316.779    64.4075    2744      
6149       5.9368     5.932      1.5028     39.9701    206.148    86.3273    2819      
6149.5     5.9368     5.932      1.1142     38.0803    120.641    91.1101    2794      
6150       5.9444     5.9392     0.6726     39.6899    154.049    58.9627    2914      
6150.5     5.952      5.9392     0.7582     40.2952    249.779    32.7832    2892      
6151       5.9444     5.932      1.379      40.567     257.58     32.0249    2908      
6151.5     5.9368     5.9248     1.6485     40.6972    256.535    84.5182    2831      
6152       5.9444     5.932      1.5601     41.4577    294.167    111.953    2823      
6152.5     5.9368     5.9248     2.0495     42.0883    285.588    41.04      2826      
6153       5.9368     5.9176     2.5473     41.2387    277.996    37.56      2818      
6153.5     5.9444     5.932      2.753      40.0209    219.831    62.9267    2880      
6154       5.9368     5.9392     2.9859     38.8853    148.945    98.6675    2940      
6154.5     5.9293     5.9463     3.2083     38.5454    160.857    59.4799    2908      
6155       5.9368     5.932      2.9249     39.147     130.763    90.6759    2843      
6155.5     5.9444     5.9248     2.6105     38.7047    148.026    61.3346    2812      
6156       5.9444     5.9248     2.953      37.7073    141.968    38.2319    2814      
6156.5     5.9293     5.9392     3.0368     36.635     140.691    63.1566    2764      
6157       5.9368     5.932      2.8735     37.1775    114.146    165.431    2879      
6157.5     5.9368     5.9392     2.8898     36.0338    186.385    60.5131    2896      
6158       5.9368     5.9392     2.7578     35.5448    93.7274    73.5341    2916      
6158.5     5.9444     5.9176     1.5985     35.2727    28.146     92.2179    2898      
6159       5.9444     5.9392     1.3611     34.5968    56.8154    161.294    2829      
6159.5     5.9444     5.9392     1.0537     35.3397    60.5954    186.218    2777      
6160       5.9293     5.932      0.9332     34.9758    71.8336    163.967    2779      
6160.5     5.952      5.9463     0.8603     36.1681    38.8142    112.087    2782      
6161       5.9444     5.9463     1.4064     35.4856    49.6162    129.94     2884      
6161.5     5.9368     5.9392     1.4059     36.3694    55.4293    146.758    2920      
6162       5.9368     5.9392     1.0018     36.624     52.3164    149.491    2940      
6162.5     5.9293     5.9284     0.8686     35.4827    53.9936    140.181    2867      
6163       5.9368     5.9248     0.8692     35.2889    51.9027    135.816    2802      
6163.5     5.9444     5.9356     0.428      35.1826    59.6162    154.551    2757      
6164       5.9368     5.932      0.9379     35.9917    103.406    152.052    2768      
6164.5     5.9444     5.932      1.2744     34.8091    40.5917    135.577    2894      
6165       5.9217     5.9392     1.6776     34.9621    39.3083    149.521    2866      
6165.5     5.9368     5.9392     1.7557     35.1194    59.1067    194.994    2882      
6166       5.9406     5.9392     1.2664     34.7201    91.1028    217.764    2912      
6166.5     5.9406     5.9463     1.0582     33.7833    72.6908    213.106    2783      
6167       5.9444     5.9284     0.5129     34.8099    51.4294    206.183    2844      
6167.5     5.9596     5.932      0.309      33.802     46.837     175.555    2760      
6168       5.9368     5.9248     0.6852     35.6723    49.3871    168.891    2727      
6168.5     5.9293     5.9248     0.4824     34.5789    23.3355    103.847    2898      
6169       5.952      5.932      0.8008     36.4906    32.8554    125.029    2912      
6169.5     5.9368     5.9356     0.8282     35.7163    39.126     143.519    2888      
6170       5.9444     5.9463     0.7538     36.6551    31.2191    122.553    2918      
6170.5     5.9444     5.9392     0.7158     38.0581    33.8077    116.387    2814      
6171       5.9444     5.9392     0.2484     39.3351    28.5868    103.27     2757      
6171.5     5.9368     5.9463     0.9724     39.2826    28.3951    97.7997    2807      
6172       5.952      5.9535     0.5739     38.5296    30.6909    107.819    2832      
6172.5     5.9368     5.9679     0.5613     37.2422    26.8883    93.9604    2868      
6173       5.952      5.9607     0.7948     38.4093    22.1799    71.1673    2930      
6173.5     5.9444     5.9463     1.2815     37.549     18.7442    59.0012    2922      
6174       5.952      5.9823     1.9819     39.3975    20.9817    68.3885    2843      
6174.5     5.9672     5.9607     1.7896     41.0314    29.6426    85.3724    2761      
6175       5.9672     5.9463     1.762      41.9974    27.7686    77.0617    2753      
6175.5     5.9747     5.9535     1.4274     40.961     27.6024    69.6798    2770      
6176       5.9672     5.932      0.9487     38.6375    25.5892    59.7373    2756      
6176.5     5.9747     5.9463     1.772      39.7202    18.1355    41.8795    2972      
6177       5.9747     5.9392     1.8658     40.2943    15.5125    36.6385    2931      
