~Version Information
 VERS.                  2.0:   CWLS log ASCII Standard -VERSION 2.0
 WRAP.                   NO:   One line per depth step
~Well Information Block
#MNEM.UNIT     VALUE/NAME     DESCRIPTION
#---------     -----------    ---------------------------
 STRT.M              5223.0528: START DEPTH
 STOP.M              5533.9488: STOP DEPTH
 STEP.M                 0.1524: STEP DEPTH
 NULL.               -999.2500: NULL VALUE
 DFWT.                        :  DIST FWL TEXT
 DFST.                        :  DIST FSL TEXT
 DMF .             Drill Floor:  DRILL MEAS FROM
 STIM.      11.30.00 09-Jul-16:  START TIME
 DATE.      11.29.04 14-Aug-16:  END TIME
 SPUD.               17-Aug-15:  SPUD DATE
 NREF.                    Grid:  NORTH REFERENCE
 HPTY.       Minimum Curvature:  HOLE POS TYPE
 DMOD.             Drill Model:  DRILL MOD DESC
 SVYD.                  Survey:  SURVEY DESC
 ILTD.               Lithology:  INTERP LTH DESC
 FTOP.          Formation Tops:  FORM TOPS DESC
 WELL.              AF011-3D-1:  WELL NAME
 COMP.               TOTAL-ABK:  COMPANY
 SON .        AD-XX-0902156848:  JOB NUMBER
 GCDE.     Generic Lat/Long's, Degrees, -180 ==> +180:  GEO COORD DESC
 CCDE.     UTM Clarke 1880 (CM 51), Meters:  CART COORD DESC
 GGSY.                      LL:  GEO GRID SYS
 CGSY.               SS CLRK51:  CART GRID SYS
 GREF.     Ellipsoid World Geodetic System :  GEO REFERENCE
 CREF.     Ellipsoid Clarke - 1880:  CART REFERENCE
 MMDL.            bggm2016.dat:  MAGNETIC MODEL
 MMDD.            20 May, 2016:  MAG DATA DATE
 MDS .              Win MagUTM:  MAG DATA SOURCE
 LLGR.      Latitude/Longitude:  LLGROUP
 XYGR.     UTM Zones, Northern Hemisphere, Meters:  XYGROUP
 PDAT.          Mean Sea Level:  PERMANENT DATUM
 WTYP.                Deviated:  WELL TYPE
 BASE.               Abu Dhabi:  LOGGING EQUIPMENT BASE LOCATION
 REGN.     Middle East/North Africa:  REGION
 PROV.               Abu Dhabi:  PROVINCE
 STAT.               Abu Dhabi:  STATE NAME
 CTRY.     United Arab Emirates:  COUNTRY NAME
 FLD .         Abu Al Bukhoosh:  FIELD NAME
 SRVC.                  SAIPEM:  CONTRACTOR
 MWDS.                Musaffah:  MWD SHOP
 RIG .           Perro Negro 8:  RIG NAME
 CNTY.               Abu Dhabi:  COUNTY NAME
 DCON.             HALLIBURTON:  DIRECTNL CONTR
 UNIT.                    9804:  LOGGING EQUIPMENT ID
 DOE .        AD-XX-0902156848:  DOE NUMBER
 API .                        :  API NUMBER
 UWI .                        :  UNIQUE WELL IDENTIFIER
 LOC .                        :  LOCATION
 LMF .             Drill Floor:  LOG MEASURED FROM
 TVDS.m              43.899999:  TVDSS CORRECTN
 LATI.deg            25.504513:  LATITUDE
 LONG.deg            53.120396:  LONGITUDE
 WHNS.m               0.000000:  WELL HEAD N/S
 WHEW.m               0.000000:  WELL HEAD E/W
 UTMX.m          713123.300043:  UTM X
 UTMY.m         2822281.299893:  UTM Y
 DFWL.m               0.000000:  DISTANCE FWL
 DFSL.m               0.000000:  DISTANCE FSL
 SDEP.m            5253.990000:  START DEPTH
 TDD .m            5543.669658:  TOTAL DEPTH (DRILLER)
 VSDR.deg           249.940002:  VERT SEC DIRECT
 GVFD.g               1.000000:  GRAVITY FIELD
 MFLD.nT          43940.839844:  MAGNETIC FIELD
 MDIP.deg            39.918472:  MAGNETIC DIP
 MDEC.deg             2.250056:  MAGNETIC DECL
 GRDC.deg             0.913350:  GRID CORRECTION
 AZTC.deg             1.336706:  AZM TOTAL CORR
 EPD .m               0.000000:  ELEVATION
 EGL .m             -45.400001:  GROUND ELEVATION
 WDMS.m              45.400001:  WD ELEV
 APD .m              43.899999:  DEPTH ABOVE PD
 MMDE.m               0.000000:  MAGUTM CALC DEP
 CMER.deg            51.000000:  CENTRL MERIDIAN
 AGAP.m              23.099999:  AIR GAP
 EKB .m              43.899999:  KB ELEVATION
 EDF .m              43.899999:  DF ELEVATION
 VSC .                       0:  VS TO CLOSURE
 MAGU.                 1527179:  MAGUTM CHECKSUM
~Parameter Information Block
#MNEM.UNIT       Value        Description
#---------     -----------    ---------------------------
 AV  .mps             1.500000:  Ann Velocity 
 AVMX.mps             2.400000:  Max Ann Veloc 
 AZIF.deg           257.739990:  Azm, Final 
 BHAT.                 Turbine:  BHA Type 
 BROT.°/100'          0.000000:  Build Rotating 
 BS  .in              8.500000:  Bit Size 
 BSZ .in              8.500000:  Bit Size 
 BTPL.psig           43.511005:  Bit Press Loss 
 CABU.                      No:  Customer Abuse 
 TCS .hr            149.515671:  Time Ciculation Ended 
 CV  .mps             3.000000:  Crit Velocity 
 CVMX.mps             4.000000:  Max Crit Veloc 
 DD1 .            Ahmed Bayoud:  Direct Drillr 1 
 DD2 .        Hany Abdel Hafez:  Direct Drillr 2 
 DDSV.                 Turbine:  DD Service 
 DEFF.%              98.000000:  % Det Eff 
 DLRX.°/100'          0.000000:  Dogleg Rot Max 
 DLSO.°/100'          0.000000:  Dogleg Oriented 
 DLSX.°/100'          0.000000:  Dogleg Str Max 
 DRET.      12.28.32 23-Jun-16:  Drill End Time 
 DRST.      14.30.00 17-Jun-16:  Drill Start Tim 
 DTIM.hr            102.349998:  Time Drilling 
 EDEP.m            5254.000000:  End Depth 
 ENG1.         Ahmed Montasser:  Engineer 1 
 ENG2.              Do Dang Sa:  Engineer 2 
 ENG3.           Khaled Khalaf:  Engineer 3 
 ENG4.         Muhammad Mubeen:  Engineer 4 
 ETIM.      05.40.54 26-Jun-16:  End Time 
 FLOI.lpm          1800.000122:  Flow In 
 FLON.lpm          1500.000000:  Flow In Min 
 FLOS.lpm             0.000000:  Fluid Loss 
 FLOX.lpm          1800.000122:  Flow In Max 
 DFT .                   Other:  Mud Type 
 HFLO.                      No:  High Flow 
 HPRE.                      No:  High Pressure 
 HTEM.                      No:  High Temp 
 HYDO.m               1.400000:  Hydro Offset 
 IFIN.deg            10.460000:  Inc, Final 
 IMAX.deg            32.367214:  Inc Max 
 IMIN.deg            11.447388:  Inc Min 
 IMND.m            5236.799805:  Inc Min Depth 
 IMXD.m            4790.299805:  Inc Max Depth 
 JARR.                      No:  Jarring 
 LETM.      12.28.32 23-Jun-16:  Log End Time 
 LOST.hr                     0:  Lost Rig Time 
 LSTM.      14.30.00 17-Jun-16:  Log Start Time 
 MDCL.ppm         23000.000000:  Mud Chlorides 
 MDES.             Fresh Water:  Mud Desc 
 DFD .g/c3            1.170004:  Mud Density 
 MDMN.g/c3            1.160004:  Dens Mud Min 
 MDMX.g/c3            1.170004:  Dens Mud Max 
 PH  .pH              9.400000:  Mud pH 
 MOIL.                       0:  Run Mud Oil % 
 MOWR.                    1 91:  Run Mud OWR 
 MSND.                     0.1:  Run Mud Sand % 
 MSOL.                     6.2:  Run Mud Solids% 
 DFV .spl            73.000000:  Mud Viscosity 
 MWOD.in              6.750000:  MWD Tool OD 
 MWSI.                      No:  Serv Intrp, MWD 
 OTIM.hr            238.111023:  Time Operating 
 PMAX.psig         4000.000000:  Press Op, Max 
 PV  .mPsec          36.000000:  Mud PV 
 RMS .ohmm            0.299000:  Mud Resistivity 
 RMCS.ohmm            0.397000:  Mud Cake Resistivity 
 MCST.degC           35.000000:  Mud Cake Sample Temperature 
 RMFS.ohmm            0.200000:  Mud Filtrate Resistivity 
 RMFT.degC           35.000000:  Mud Filtrate Sample Temperature 
 RMMT.ohmm            0.118100:  Rm @ Max Temp 
 MST .degC           35.000000:  Mud Sample Temperature 
 RUN .                    3300:  Run Number 
 ROPA.m/hr            4.450000:  ROP Avg 
 ROPN.m/hr            2.000000:  ROP Min 
 ROPX.m/hr            7.000000:  ROP Max 
 RPMA.rpm            78.000000:  RPM Surface Avg 
 RPMN.rpm            35.000000:  RPM Surface Min 
 RPMX.rpm            80.000000:  RPM Surface Max 
 RRUN.                    3300:  Rig Run Number 
 RTIM.hr              7.150000:  Time Reaming 
 SAZI.deg           249.699997:  Azm, Start 
 SDEP.m            4799.000000:  Start Depth 
 SIDD.                      No:  Serv Intrp, DD 
 SINC.deg            30.049999:  Inc, Start 
 SPPA.psig         4543.999023:  SPP Avg 
 SPPN.psig         4264.078613:  SPP Min 
 SPPX.psig         4641.173828:  SPP Max 
 STIM.      09.00.00 16-Jun-16:  Start Time 
 SVCS.                 DD, MWD:  Services 
 SVER.                8.300000:  Sperry Version 
 TDAT.m             455.000000:  Tot Depth Attmp 
 TDDF.                      No:  Trip for DD 
 TDLG.m             455.000000:  Tot Depth Loggd 
 TFF .                      No:  Trip for Fail 
 TQAA.f-p         37070.000000:  Torque Abs Avg 
 TQAN.f-p         35000.000000:  Torque Abs Min 
 TQAX.f-p         39000.000000:  Torque Abs Max 
 TRRT.°/100'          0.000000:  Turn Rotating 
 MRT .                     PWD:  Maximum Recorded Temperature 
 TTMX.degC          121.568352:  Max Tool Temp 
 VS01.     AD90473258H2V5WGV2COXF1(6):  Virtual Str1 SN 
 WBMN.klb             4.409245:  WOB Min 
 WITN.           Roger Butters:  Customer Rep 
 WOBA.klb             9.788525:  WOB Avg 
 WOBX.klb            13.227736:  WOB Max 
 YP  .pa             43.000000:  Yield Point 
~Curve Information Block
#MNEM.UNIT                 API CODE     Curve Description
#---------               -----------    ---------------------------
 DEPT.M                 00 000 000 000:  Depth
 DGRCC.api              00 000 000 000:  DGR Comb Gamma Ray BCorr
 ALHSI.in               00 000 000 000:  ALD Hole Size Indicator
 ABR .ohmm              00 000 000 000:  At-Bit Resistivity
 AFRSA.ohmm             00 000 000 000:  AFR Shallow Avg Res
 AFRMA.ohmm             00 000 000 000:  AFR Medium Avg Res
 AFRDA.ohmm             00 000 000 000:  AFR Deep Avg Res
 AFXT.hr                00 000 000 000:  AFR Form Exp Time
 ALCDLC.g/c3            00 000 000 000:  ALD LCRB Comp Density
 ALPELC.NONE            00 000 000 000:  ALD LCRB Pe Factor
 ALDCLC.g/c3            00 000 000 000:  ALD LCRB Den Correction
 TNPL.pu                00 000 000 000:  CTN Porosity Limestone
 DTC .uspf              00 000 000 000:  BAT DTC
 DTRS.uspf              00 000 000 000:  BAT Refracted Shear
 VPVS.NONE              00 000 000 000:  BAT VP/VS
#Other Information
#
#WARRANTY: Halliburton will use its best efforts to furnish customers with 
#accurate information and interpretations that are part of, and incident to, the services 
#provided.  However, Halliburton cannot and does not warrant the accuracy 
#or correctness of such information and interpretations.  Under no circumstances should any 
#such information or interpretation be relied upon as the sole basis for any drilling, 
#completion, production, or financial decision or any procedure involving any risk to the 
#safety of any drilling venture, drilling rig or its crew or any other third party.  The 
#Customer has full responsibility for all drilling, completion and production operation.  
#Halliburton makes no representations or warranties, either expressed or 
#implied, including, but not limited to, the implied warranties of merchantability or fitness 
#for a particular purpose, with respect to the services rendered.  In no event will 
#Halliburton be liable for failure to obtain any particular results or for 
#any damages, including, but not limited to, indirect, special or consequential damages, 
#resulting from the use of any information or interpretation provided by Halliburton.
#
~A   DEPT      DGRCC     ALHSI      ABR      AFRSA     AFRMA     AFRDA     AFXT     ALCDLC    ALPELC    ALDCLC     TNPL       DTC      DTRS      VPVS    
# ...
   5441.1372   19.6114 -999.2500 -999.2500   55.1715   53.4162   53.6301   68.5870    2.6405    8.3235    0.0998    2.6370   54.9716   86.6755    1.5770
   5441.2896   22.6409 -999.2500 -999.2500   47.7626   48.3130   48.0425   68.5838    2.6087    7.3566    0.0762    2.5624   55.4502   87.2453    1.5737
   5441.4420   18.3334 -999.2500 -999.2500   41.0755   42.6691   41.6858   68.5803    2.5555    4.6009    0.0360    2.5865   55.4447   87.4266    1.5771
   5441.5944   14.2459 -999.2500 -999.2500   38.2570   39.2047   39.0920   68.5770    2.5293    3.5906    0.0168    2.6849   54.1265   86.7794    1.6036
   5441.7468   13.6979 -999.2500 -999.2500   37.5014   37.5441   38.6349   68.5740    2.5342    3.6154    0.0199    2.6831   54.0964   86.1361    1.5923
   5441.8992   13.2122 -999.2500 -999.2500   38.1081   37.9172   39.6240   68.5707    2.5449    3.5965    0.0246    2.5137   54.2692   85.7353    1.5799
   5442.0516   13.0884 -999.2500 -999.2500   38.3472   38.3360   40.5764   68.5671    2.5558    3.4565    0.0247    2.5627   54.6502   85.5499    1.5657
   5442.2040   13.7495 -999.2500 -999.2500   37.3214   38.3213   40.2987   68.5639    2.5435    3.4131    0.0173    2.7072   54.9845   85.6825    1.5591
   5442.3564   13.0039 -999.2500 -999.2500   36.0488   37.8575   39.5923   68.5607    2.5452    3.4710    0.0211    2.8922   53.7521   85.8178    1.5979
   5442.5088   12.2320 -999.2500 -999.2500   33.8826   35.3517   37.2675   68.5573    2.5494    3.4788    0.0257    3.0150   53.7776   85.8496    1.5972
   5442.6612   14.3530 -999.2500 -999.2500   31.5971   33.2896   34.6158   68.5539    2.5474    3.4621    0.0268    3.1324   54.4753   85.8038    1.5754
   5442.8136   14.6401 -999.2500 -999.2500   29.8025   31.9927   33.0395   68.5509    2.5243    3.4494    0.0159    3.1930   54.5600   85.8766    1.5741
   5442.9660   13.6083 -999.2500 -999.2500   29.5584   31.5807   33.5347   68.5480    2.5147    3.5008    0.0084    3.5297   54.6871   85.9890    1.5725
   5443.1184   11.5122 -999.2500 -999.2500   30.6493   33.4515   34.8771   68.5443    2.5164    3.5720    0.0095    3.6806   54.3779   86.2882    1.5869
   5443.2708    8.2718 -999.2500 -999.2500   28.8442   31.1127   32.1104   68.5406    2.5164    3.7493    0.0088    4.0388   54.8745   86.7915    1.5817
   5443.4232    8.9943 -999.2500 -999.2500   25.2728   26.7887   27.7365   68.5375    2.5138    3.9817    0.0077    4.2524   55.2511   87.5686    1.5849
   5443.5756   14.7252 -999.2500 -999.2500   24.2442   25.9693   26.4262   68.5346    2.5059    4.1944    0.0117    4.3900   55.6838   88.3093    1.5861
   5443.7280   21.6570 -999.2500 -999.2500   24.9334   25.5483   26.6934   68.5310    2.4961    4.4094    0.0045    4.3548   55.4723   88.6425    1.5985
   5443.8804   18.7253 -999.2500 -999.2500   25.0025   24.9402   26.2482   68.5275    2.4960    4.4087    0.0047    4.0314   54.8408   88.8139    1.6205
   5444.0328   11.2506 -999.2500 -999.2500   24.8541   26.2154   26.3500   68.5243    2.5041    4.3809    0.0082    3.7781   56.1608   88.7269    1.5804
   5444.1852   10.1494 -999.2500 -999.2500   31.2117   36.2492   33.6317   68.5207    2.5241    5.2236    0.0181    3.4587   56.3827   88.3938    1.5679
   5444.3376   11.8797 -999.2500 -999.2500   43.2068   52.2312   46.5347   68.5171    2.5726    7.5891    0.0640    3.2426   56.7611   87.6675    1.5446
   5444.4900   12.5639 -999.2500 -999.2500   49.0529   55.0042   51.6528   68.5144    2.7361    7.5603    0.2501    3.4483   56.8059   86.5582    1.5238
   5444.6424   12.7006 -999.2500 -999.2500   48.7406   49.2556   50.4088   68.5115    2.7584    9.0667    0.3376    4.3218   56.5047   85.7253    1.5174
   5444.7948   22.8802 -999.2500 -999.2500   50.4651   53.5209   55.0234   68.5074    2.6645    9.7231    0.2861    5.3962   55.7633   85.6685    1.5366
   5444.9472   48.9766 -999.2500 -999.2500   53.4493   62.9849   63.4697   68.5042    2.4565    8.2382    0.0589    5.9407   55.8783   86.7074    1.5517
   5445.0996   50.4762 -999.2500 -999.2500   46.5040   57.9208   57.7896   68.5011    2.4867    5.9693    0.0117    6.2692   56.2692   88.5306    1.5733
   5445.2520   48.6252 -999.2500 -999.2500   32.5291   38.9023   40.0248   68.4977    2.4841    4.6213   -0.0027    6.6359   56.8079   90.5680    1.5942
   5445.4044   40.3614 -999.2500 -999.2500   22.7702   26.9089   27.8864   68.4946    2.4703    4.5221   -0.0077    6.9296   57.2878   92.1597    1.6087
   5445.5568   26.9821 -999.2500 -999.2500   17.3138   20.9481   21.0686   68.4913    2.4638    4.6209   -0.0069    6.9486   57.1275   93.2692    1.6327
   5445.7092   20.5581 -999.2500 -999.2500   14.1095   16.5219   16.6668   68.4878    2.4696    4.5813   -0.0013    6.4083   57.0270   94.1611    1.6512
   5445.8616   16.7240 -999.2500 -999.2500   13.1347   15.0272   15.3176   68.4846    2.4657    4.0260   -0.0127    5.5147   57.0000   93.9960    1.6491
   5446.0140   12.8992 -999.2500 -999.2500   15.2507   18.6198   19.1016   68.4814    2.4750    3.7905   -0.0123    4.6995   57.0968   92.8537    1.6263
   5446.1664   14.5426 -999.2500 -999.2500   23.2457   31.1864   32.6721   68.4778    2.4814    3.7428   -0.0120    3.7554   56.9726   91.4268    1.6055
   5446.3188   17.6787 -999.2500 -999.2500   34.8722   47.6997   52.4313   68.4748    2.4871    3.6617   -0.0133    3.0994   54.6368   89.8394    1.6461
   5446.4712   14.4913 -999.2500 -999.2500   38.5612   49.5468   57.0386   68.4717    2.4978    3.4078   -0.0054    3.0211   53.3160   88.5851    1.6629
   5446.6236   15.3966 -999.2500 -999.2500   35.9558   42.2184   49.1934   68.4682    2.5071    3.4141   -0.0009    3.2377   54.0043   87.9714    1.6298
   5446.7760   18.4459 -999.2500 -999.2500   35.2517   37.8848   44.8752   68.4652    2.5123    3.5109    0.0002    3.1338   54.0059   87.6554    1.6232
   5446.9284   17.3718 -999.2500 -999.2500   35.8245   36.4089   42.6451   68.4623    2.5140    3.7359   -0.0028    2.8322   54.1641   87.5298    1.6162
   5447.0808   14.0170 -999.2500 -999.2500   37.4512   37.7397   41.8337   68.4589    2.5009    3.7640   -0.0119    2.5489   55.4380   87.1011    1.5718
   5447.2332   13.3984 -999.2500 -999.2500   40.8704   41.2905   44.2378   68.4558    2.5123    3.6440   -0.0103    2.1111   56.3874   86.4817    1.5341
   5447.3856   13.1899 -999.2500 -999.2500   49.0348   49.5957   52.4513   68.4529    2.5327    3.4291   -0.0043    1.6711   55.5216   85.7144    1.5442
   5447.5380   12.8874 -999.2500 -999.2500   59.6095   59.7820   63.8394   68.4496    2.5383    3.2543   -0.0034    1.5763   54.2193   85.0827    1.5695
   5447.6904   15.9955 -999.2500 -999.2500   67.2396   67.7672   72.5441   68.4465    2.5348    3.6664   -0.0080    1.6068   53.4814   84.4647    1.5795
   5447.8428   16.7617 -999.2500 -999.2500   70.2256   73.1208   75.7411   68.4436    2.5361    3.6862   -0.0113    1.5921   53.5803   84.0418    1.5687
   5447.9952   14.8522 -999.2500 -999.2500   61.9094   66.2844   65.1530   68.4406    2.5415    3.5074   -0.0142    1.5970   54.4832   83.9784    1.5422
   5448.1476   13.5911 -999.2500 -999.2500   55.8800   60.2839   58.5789   68.4373    2.5447    3.5790   -0.0128    1.5956   56.3517   83.7635    1.4872
   5448.3000   14.9061 -999.2500 -999.2500   60.7824   64.7774   64.5352   68.4344    2.5391    3.5975   -0.0116    1.5618   56.7209   83.7384    1.4765
   5448.4524   16.6209 -999.2500 -999.2500   66.8351   71.3554   71.4516   68.4313    2.5359    3.6940   -0.0113    1.5560   56.4998   83.9049    1.4854
   5448.6048   14.4417 -999.2500 -999.2500   68.7981   73.2140   72.5485   68.4280    2.5286    3.7866   -0.0135    1.6721   55.0256   84.0605    1.5298
   5448.7572   15.7089 -999.2500 -999.2500   65.7841   66.5102   66.7304   68.4249    2.5014    3.0816   -0.0227    1.8090   52.8524   84.1611    1.5946
   5448.9096   15.9543 -999.2500 -999.2500   55.9525   53.3414   55.4124   68.4216    2.5047    2.9385   -0.0212    1.8247   53.5288   84.2811    1.5763
   5449.0620   20.5076 -999.2500 -999.2500   52.9687   50.1661   52.1580   68.4182    2.5160    2.9024   -0.0191    1.8540   52.1745   84.6258    1.6230
