~Version
 VERS              .         3                             : CWLS LOG ASCII STANDARD - VERSION 3.0
 WRAP              .         NO                            : ONE LINE PER DEPTH STEP
 DLM               .         SPACE                         : DELIMITING CHARACTER(SPACE TAB OR COMMA)
~Well Information
#_______________________________________________________________________________
#
#PARAMETER_NAME    .UNIT     VALUE                         : DESCRIPTION
#_______________________________________________________________________________
STRT               .F        4494                          : First reference value
STOP               .F        7635                          : Last reference value
STEP               .F        0.5                           : Step increment
NULL               .         -9999                         : Missing value
WELL               .         SY027104H                     : Well name
ORIGINALWELLNAME   .         Well                          : 
RANG               .                                       : 
REGN               .         Abu Dhabi                     : 
AZTC               .deg      0.383835                      : 
GRDC               .deg      1.093917                      : 
WHEW               .ft       0.000000                      : 
TDL                .ft       3000.000000                   : 
TOWN               .                                       : 
NREF               .         2                             : 
DOE                .         AD-FE-0007255267              : 
EGL                .ft       407.799988                    : 
GVFD               .g        1.000000                      : 
COLG               .         186HAL_lg.bmp                 : 
WHNS               .ft       0.000000                      : 
CREF               .         Ellipsoid Clarke - 1880       : 
VSDR               .deg      55.740002                     : 
FTOP               .         Formation Tops                : 
LLGR               .         Latitude/Longitude            : 
EPD                .ft       0.000000                      : 
WDMS               .ft       0.000000                      : 
DFWL               .ft       0.000000                      : 
MFLD               .nT       42523.898438                  : 
GREF               .         Ellipsoid World Geodetic System: 
CTRY               .         UN                            : Two letter Internet country code
COUNTRY            .         United Arab Emirates          : 
DFWT               .                                       : 
CNTY               .         Abu Dhabi                     : 
VSEW               .ft       0.000000                      : 
UWI                .         AD-FE-0007255267              : 
CSGD               .ft       4170.000000                   : 
STAT               .         Abu Dhabi                     : 
APD                .ft       429.000000                    : 
BASE               .         Abu Dhabi                     : 
VSNS               .ft       0.000000                      : 
DCON               .         Al-Mansoory                   : 
API                .         AD-FE-0007255267              : 
GPMT               .                                       : 
CSGL               .ft       4170.000000                   : 
MDEC               .deg      1.477752                      : 
LONG               .deg      53.809174                     : 
CSGS               .in       9.625000                      : 
SPUD               .         20-Mar-10                     : 
MDS                .         Win MagUTM                    : 
CMER               .deg      51.000000                     : 
SRVC               .         NDC                           : 
CSGW               .lbpf     47.000000                     : 
SON                .         AD-FE-0007255267              : 
TVDS               .ft       429.000000                    : 
LMF                .         Kelly Bushing                 : 
CGSY               .         SS CLRK51                     : 
EKB                .ft       429.000000                    : 
HPTY               .         0                             : 
MWDS               .         Dubai                         : 
GGSY               .         LL                            : 
RCST               .$/da     0.000000                      : 
FLD                .         Shah                          : 
SVYD               .         Survey_DS                     : 
CCDE               .         UTM Clarke 1880 (CM 51), Meters: 
AGAP               .ft       0.000000                      : 
LOC                .                                       : 
DFSL               .ft       0.000000                      : 
EDF                .ft       428.000031                    : 
UNIT               .         166264                        : 
RIG                .         ND-50                         : 
VSC                .         0                             : 
LEAS               .                                       : 
XYGR               .         UTM Zones, Northern Hemisphere, Meters: 
GCDE               .         Generic Lat/Long's, Degrees, -180 ==> +180: 
DFST               .                                       : 
ILTD               .         Lithology                     : 
DMOD               .         Drill Model                   : 
JOBN               .         AD-FE-0007255267              : 
LATI               .deg      22.900974                     : 
DMF                .         Kelly Bushing                 : 
STIM               .         00.00.00 28-Mar-10            : 
CULG               .                                       : 
SECT               .                                       : 
PDAT               .         Mean Sea Level                : 
CPJM               .                                       : 
STRD               .ft       4648.000000                   : 
WTYP               .         2                             : 
COMP               .         ADCO                          : 
MAGU               .         1453103                       : 
PROV               .         Abu Dhabi                     : 
MMDL               .         bggm2009.dat                  : 
UTMX               .m        788186.312500                 : 
UTMY               .m        2535096.000000                : 
DATE               .         00.00.00 03-Apr-10            : 
TDD                .ft       7648.000000                   : 
MDIP               .deg      34.939442                     : 
GDAT               .                                       : 
LIC                .                                       : 
~Parameter Information Block
#_______________________________________________________________________________
#
#PARAMETER_NAME    .UNIT     VALUE                         : DESCRIPTION
#_______________________________________________________________________________
SET                .         WL_FINAL                      : 
LMF                .         ORTKB                         : Logging Measured From (Name of Logging Elevation Reference)
APD                .F        428.000000                    : Elevation of Depth Reference (LMF) above Permanent Datum
EPD                .F        0.000000                      : Elevation of Permanent Datum above Mean Sea Level
RUN                .         1                             : RUN NUMBER
PDAT               .         MSL                           : Permanent Datum
~Curve Information
#_______________________________________________________________________________
#
#LOGNAME           .UNIT     LOG_ID                        : DESCRIPTION
#_______________________________________________________________________________
DEPT               .F                                      : DEPTH (BOREHOLE) -F10 {F}
C1                 .IN                                     : Caliper 1 -F13 {F}
C2                 .IN                                     : Caliper 2 -F13 {F}
HCGR               .GAPI                                   : HNGS Computed Gamma Ray -F13 {F}
HSGR               .GAPI                                   : HNGS Standard Gamma Ray -F13 {F}
RT_HRLT            .OHMM                                   : HRLT Computed True Resistivity -F13 {F}
RXO_HRLT           .OHMM                                   : HRLT Computed Invaded Zone Resistivity -F13 {F}
TENS               .LBF                                    : Cable Tension -F13 {F}
~Ascii
# ...
7178.5     6.1566     5.9751     16.5083    111.01     4.8535     2.7375     3037      
7179       6.1566     5.9679     17.4674    110.807    4.5659     2.2911     3020      
7179.5     6.1642     5.9535     19.2942    114.401    5.1702     2.581      2761      
7180       6.1566     5.9392     20.7376    118.135    5.1746     2.6617     2455      
7180.5     6.1566     5.9463     21.0636    117.716    4.9182     2.5896     2383      
7181       6.0859     5.8721     21.3924    117.565    4.0567     2.1202     2250      
7181.5     6.0808     5.8889     22.9869    121.73     3.6828     1.9263     2004      
7182       6.149      5.9248     22.8158    122.296    3.9553     2.0521     1766      
7182.5     6.1869     6.0469     21.8519    120.897    4.4798     2.3234     2944      
7183       6.2665     5.9787     21.1506    118.309    3.3261     1.7609     2891      
7183.5     6.168      6.0541     19.5342    115.58     2.6382     1.5941     2933      
7184       6.1187     5.9799     18.2201    109.579    2.6672     1.7197     3048      
7184.5     6.0808     5.9104     16.5461    102.148    2.84       1.6996     2994      
7185       6.0808     5.9212     16.3919    97.8476    4.5501     2.4135     2723      
7185.5     6.1036     5.9823     17.0058    101.493    5.8699     2.7262     2803      
7186       6.1036     6.0613     18.2517    108.255    5.4708     2.4313     2896      
7186.5     6.1339     6.0541     20.7694    122.521    4.9415     2.2714     3086      
7187       6.1566     5.9823     21.4503    132.763    5.3055     2.6859     3046      
7187.5     6.1414     6.0685     21.1647    138.302    4.8858     2.6362     2960      
7188       6.0884     6.1978     21.5755    136.26     4.0595     2.1805     2925      
7188.5     6.0126     6.1907     21.1458    133.601    4.1424     2.2089     2813      
7189       5.9785     6.1763     22.5379    133.061    4.7666     2.6192     2822      
7189.5     5.952      6.1978     22.5652    133.636    5.4721     2.5526     2956      
7190       6.0088     6.1547     22.6718    135.193    3.3857     1.8697     3043      
7190.5     6.005      6.1835     21.2775    136.623    2.9284     1.6265     2977      
7191       6.0808     6.0972     20.0125    137.162    3.942      2.1018     2978      
7191.5     6.1339     6.0613     19.7596    134.962    3.5275     1.7869     2812      
7192       6.1414     6.0541     18.444     136.58     5.554      2.2422     2849      
7192.5     6.1339     6.0613     19.4317    142.381    4.9032     1.9337     2828      
7193       6.2172     6.0757     21.714     150.377    4.6029     1.997      2945      
7193.5     6.2627     5.9607     20.2701    149.462    5.1033     2.2521     2945      
7194       6.2172     5.9823     18.6698    143.8      3.9079     1.9318     2946      
7194.5     6.2324     5.9751     17.1433    146.368    3.8823     1.8335     2862      
7195       6.2551     6.0541     18.2703    150.892    3.844      1.7968     2894      
7195.5     6.221      5.9751     19.3979    153.273    4.2889     2.1027     2868      
7196       6.1945     5.9679     18.0658    145.278    5.6141     2.6639     2879      
7196.5     6.2854     5.9679     20.1331    152.673    5.2826     2.4078     2903      
7197       6.1718     6.0398     19.9071    155.027    3.5629     1.7272     3011      
7197.5     6.1566     6.1547     19.4524    146.857    3.5867     1.8762     3016      
7198       6.096      6.1978     17.6988    129.904    4.5721     2.5077     3017      
7198.5     6.096      5.932      15.5672    117.429    3.5232     2.0004     2869      
7199       6.0316     5.8601     15.3222    114.845    3.5434     2.0014     2894      
7199.5     6.0202     5.8745     14.922     106.047    3.8272     2.1825     2887      
7200       6.005      5.8745     14.661     99.8006    4.3668     2.4718     2912      
7200.5     6.0126     5.8673     15.0635    97.4459    5.1103     2.5377     2997      
7201       5.9899     5.8529     15.8687    101.106    5.6682     2.6454     3056      
7201.5     6.0884     5.8529     18.1442    109.327    4.794      2.1959     2876      
7202       6.096      5.9032     19.1397    114.891    4.3961     2.1424     2922      
7202.5     6.1263     5.9463     19.3239    119.575    4.0461     2.2317     2842      
7203       6.1414     6.0613     20.1538    119.034    3.4457     2.0112     2860      
7203.5     6.149      6.0469     20.5116    118.268    3.3708     1.9946     2827      
7204       6.1339     6.1116     20.4234    109.695    3.1542     1.9605     2896      
7204.5     6.0429     6.1475     18.7804    100.348    3.574      2.138      2944      
7205       5.9444     6.1044     17.084     90.5583    3.0448     1.8525     3000      
7205.5     5.9293     6.1188     15.3322    84.7238    3.5126     2.1113     2871      
7206       5.9217     6.1188     13.5291    80.4253    5.8668     3.2854     2914      
7206.5     5.9217     6.1152     12.1885    78.6074    5.0129     2.7117     2856      
7207       5.9141     6.1871     13.687     81.1166    4.2222     2.3164     2903      
7207.5     5.9141     6.0829     13.5506    85.7119    3.4328     2.0098     2940      
7208       5.9444     6.0398     14.9289    93.722     3.1238     1.8517     3022      
7208.5     5.9444     6.1116     15.9644    101.927    2.605      1.5747     3003      
7209       5.9255     6.126      16.0185    109.317    3.0675     1.8929     2980      
7209.5     5.9065     6.0577     15.6395    110.903    4.1559     2.3141     2803      
7210       5.8914     6.0721     17.5576    110.674    3.321      1.7753     2924      
7210.5     5.9065     5.9823     17.0988    103.752    2.6977     1.4556     2804      
7211       5.899      5.9176     17.3636    101.048    3.177      1.7909     2874      
7211.5     5.8914     5.9823     16.9373    98.5133    3.5202     1.9242     2984      
7212       5.8762     5.9751     17.753     100.865    3.1988     1.6485     2999      
7212.5     5.8686     5.9895     16.6809    100.019    3.214      1.5329     2960      
7213       5.8686     5.9679     16.1616    96.2691    3.6831     1.9147     2925      
7213.5     5.8724     5.9823     15.78      93.3367    3.3023     1.7585     2856      
7214       5.8762     5.9751     16.0124    92.7683    3.4282     1.8493     2880      
7214.5     5.9596     6.0326     15.7719    93.0208    4.0796     2.0915     2873      
7215       5.9823     6.0469     15.6978    94.0987    4.1586     2.1494     2980      
7215.5     5.9785     5.9823     15.3594    93.5277    5.2704     2.7166     2963      
7216       5.9747     5.9787     15.414     94.2312    4.6537     2.575      3100      
7216.5     5.9823     5.9859     15.6176    94.3446    4.1228     2.6678     2931      
7217       5.9823     5.9823     15.8385    93.392     3.9691     2.5715     2936      
7217.5     5.9747     6.0326     15.2898    93.3431    2.7819     1.9904     2890      
7218       6.0202     6.0398     14.9735    88.2767    2.7978     2.1622     2993      
7218.5     6.0126     6.0398     14.8828    84.97      4.0349     2.7192     2916      
7219       6.0126     6.0469     13.3584    79.0831    4.1697     2.6976     3007      
7219.5     6.005      6.0326     11.9345    77.4429    5.2843     3.0208     2978      
7220       6.0202     5.9823     12.8531    75.2139    6.5713     3.7511     2908      
7220.5     5.9975     5.9895     11.9845    70.3505    6.548      3.8799     2891      
7221       5.9444     5.9751     9.8873     67.0853    5.9054     3.7116     2885      
7221.5     5.9217     5.9248     8.7275     63.2185    5.6342     3.5241     2882      
7222       5.9406     5.9104     8.9387     64.8291    4.6858     2.9302     2884      
7222.5     5.9406     5.8889     8.2001     68.7238    5.0518     3.2257     2962      
7223       5.952      5.8853     9.0373     73.2385    6.3063     4.0254     3000      
7223.5     5.9823     5.8961     8.5636     78.1893    6.5377     4.1607     2955      
