~Version Information
 VERS.                  2.0:   CWLS log ASCII Standard -VERSION 2.0
 WRAP.                   NO:   One line per depth step
~Well Information Block
#MNEM.UNIT     VALUE/NAME     DESCRIPTION
#---------     -----------    ---------------------------
 STRT.M              5223.0528: START DEPTH
 STOP.M              5533.9488: STOP DEPTH
 STEP.M                 0.1524: STEP DEPTH
 NULL.               -999.2500: NULL VALUE
 DFWT.                        :  DIST FWL TEXT
 DFST.                        :  DIST FSL TEXT
 DMF .             Drill Floor:  DRILL MEAS FROM
 STIM.      11.30.00 09-Jul-16:  START TIME
 DATE.      11.29.04 14-Aug-16:  END TIME
 SPUD.               17-Aug-15:  SPUD DATE
 NREF.                    Grid:  NORTH REFERENCE
 HPTY.       Minimum Curvature:  HOLE POS TYPE
 DMOD.             Drill Model:  DRILL MOD DESC
 SVYD.                  Survey:  SURVEY DESC
 ILTD.               Lithology:  INTERP LTH DESC
 FTOP.          Formation Tops:  FORM TOPS DESC
 WELL.              AF011-3D-1:  WELL NAME
 COMP.               TOTAL-ABK:  COMPANY
 SON .        AD-XX-0902156848:  JOB NUMBER
 GCDE.     Generic Lat/Long's, Degrees, -180 ==> +180:  GEO COORD DESC
 CCDE.     UTM Clarke 1880 (CM 51), Meters:  CART COORD DESC
 GGSY.                      LL:  GEO GRID SYS
 CGSY.               SS CLRK51:  CART GRID SYS
 GREF.     Ellipsoid World Geodetic System :  GEO REFERENCE
 CREF.     Ellipsoid Clarke - 1880:  CART REFERENCE
 MMDL.            bggm2016.dat:  MAGNETIC MODEL
 MMDD.            20 May, 2016:  MAG DATA DATE
 MDS .              Win MagUTM:  MAG DATA SOURCE
 LLGR.      Latitude/Longitude:  LLGROUP
 XYGR.     UTM Zones, Northern Hemisphere, Meters:  XYGROUP
 PDAT.          Mean Sea Level:  PERMANENT DATUM
 WTYP.                Deviated:  WELL TYPE
 BASE.               Abu Dhabi:  LOGGING EQUIPMENT BASE LOCATION
 REGN.     Middle East/North Africa:  REGION
 PROV.               Abu Dhabi:  PROVINCE
 STAT.               Abu Dhabi:  STATE NAME
 CTRY.     United Arab Emirates:  COUNTRY NAME
 FLD .         Abu Al Bukhoosh:  FIELD NAME
 SRVC.                  SAIPEM:  CONTRACTOR
 MWDS.                Musaffah:  MWD SHOP
 RIG .           Perro Negro 8:  RIG NAME
 CNTY.               Abu Dhabi:  COUNTY NAME
 DCON.             HALLIBURTON:  DIRECTNL CONTR
 UNIT.                    9804:  LOGGING EQUIPMENT ID
 DOE .        AD-XX-0902156848:  DOE NUMBER
 API .                        :  API NUMBER
 UWI .                        :  UNIQUE WELL IDENTIFIER
 LOC .                        :  LOCATION
 LMF .             Drill Floor:  LOG MEASURED FROM
 TVDS.m              43.899999:  TVDSS CORRECTN
 LATI.deg            25.504513:  LATITUDE
 LONG.deg            53.120396:  LONGITUDE
 WHNS.m               0.000000:  WELL HEAD N/S
 WHEW.m               0.000000:  WELL HEAD E/W
 UTMX.m          713123.300043:  UTM X
 UTMY.m         2822281.299893:  UTM Y
 DFWL.m               0.000000:  DISTANCE FWL
 DFSL.m               0.000000:  DISTANCE FSL
 SDEP.m            5253.990000:  START DEPTH
 TDD .m            5543.669658:  TOTAL DEPTH (DRILLER)
 VSDR.deg           249.940002:  VERT SEC DIRECT
 GVFD.g               1.000000:  GRAVITY FIELD
 MFLD.nT          43940.839844:  MAGNETIC FIELD
 MDIP.deg            39.918472:  MAGNETIC DIP
 MDEC.deg             2.250056:  MAGNETIC DECL
 GRDC.deg             0.913350:  GRID CORRECTION
 AZTC.deg             1.336706:  AZM TOTAL CORR
 EPD .m               0.000000:  ELEVATION
 EGL .m             -45.400001:  GROUND ELEVATION
 WDMS.m              45.400001:  WD ELEV
 APD .m              43.899999:  DEPTH ABOVE PD
 MMDE.m               0.000000:  MAGUTM CALC DEP
 CMER.deg            51.000000:  CENTRL MERIDIAN
 AGAP.m              23.099999:  AIR GAP
 EKB .m              43.899999:  KB ELEVATION
 EDF .m              43.899999:  DF ELEVATION
 VSC .                       0:  VS TO CLOSURE
 MAGU.                 1527179:  MAGUTM CHECKSUM
~Parameter Information Block
#MNEM.UNIT       Value        Description
#---------     -----------    ---------------------------
 AV  .mps             1.500000:  Ann Velocity 
 AVMX.mps             2.400000:  Max Ann Veloc 
 AZIF.deg           257.739990:  Azm, Final 
 BHAT.                 Turbine:  BHA Type 
 BROT.°/100'          0.000000:  Build Rotating 
 BS  .in              8.500000:  Bit Size 
 BSZ .in              8.500000:  Bit Size 
 BTPL.psig           43.511005:  Bit Press Loss 
 CABU.                      No:  Customer Abuse 
 TCS .hr            149.515671:  Time Ciculation Ended 
 CV  .mps             3.000000:  Crit Velocity 
 CVMX.mps             4.000000:  Max Crit Veloc 
 DD1 .            Ahmed Bayoud:  Direct Drillr 1 
 DD2 .        Hany Abdel Hafez:  Direct Drillr 2 
 DDSV.                 Turbine:  DD Service 
 DEFF.%              98.000000:  % Det Eff 
 DLRX.°/100'          0.000000:  Dogleg Rot Max 
 DLSO.°/100'          0.000000:  Dogleg Oriented 
 DLSX.°/100'          0.000000:  Dogleg Str Max 
 DRET.      12.28.32 23-Jun-16:  Drill End Time 
 DRST.      14.30.00 17-Jun-16:  Drill Start Tim 
 DTIM.hr            102.349998:  Time Drilling 
 EDEP.m            5254.000000:  End Depth 
 ENG1.         Ahmed Montasser:  Engineer 1 
 ENG2.              Do Dang Sa:  Engineer 2 
 ENG3.           Khaled Khalaf:  Engineer 3 
 ENG4.         Muhammad Mubeen:  Engineer 4 
 ETIM.      05.40.54 26-Jun-16:  End Time 
 FLOI.lpm          1800.000122:  Flow In 
 FLON.lpm          1500.000000:  Flow In Min 
 FLOS.lpm             0.000000:  Fluid Loss 
 FLOX.lpm          1800.000122:  Flow In Max 
 DFT .                   Other:  Mud Type 
 HFLO.                      No:  High Flow 
 HPRE.                      No:  High Pressure 
 HTEM.                      No:  High Temp 
 HYDO.m               1.400000:  Hydro Offset 
 IFIN.deg            10.460000:  Inc, Final 
 IMAX.deg            32.367214:  Inc Max 
 IMIN.deg            11.447388:  Inc Min 
 IMND.m            5236.799805:  Inc Min Depth 
 IMXD.m            4790.299805:  Inc Max Depth 
 JARR.                      No:  Jarring 
 LETM.      12.28.32 23-Jun-16:  Log End Time 
 LOST.hr                     0:  Lost Rig Time 
 LSTM.      14.30.00 17-Jun-16:  Log Start Time 
 MDCL.ppm         23000.000000:  Mud Chlorides 
 MDES.             Fresh Water:  Mud Desc 
 DFD .g/c3            1.170004:  Mud Density 
 MDMN.g/c3            1.160004:  Dens Mud Min 
 MDMX.g/c3            1.170004:  Dens Mud Max 
 PH  .pH              9.400000:  Mud pH 
 MOIL.                       0:  Run Mud Oil % 
 MOWR.                    1 91:  Run Mud OWR 
 MSND.                     0.1:  Run Mud Sand % 
 MSOL.                     6.2:  Run Mud Solids% 
 DFV .spl            73.000000:  Mud Viscosity 
 MWOD.in              6.750000:  MWD Tool OD 
 MWSI.                      No:  Serv Intrp, MWD 
 OTIM.hr            238.111023:  Time Operating 
 PMAX.psig         4000.000000:  Press Op, Max 
 PV  .mPsec          36.000000:  Mud PV 
 RMS .ohmm            0.299000:  Mud Resistivity 
 RMCS.ohmm            0.397000:  Mud Cake Resistivity 
 MCST.degC           35.000000:  Mud Cake Sample Temperature 
 RMFS.ohmm            0.200000:  Mud Filtrate Resistivity 
 RMFT.degC           35.000000:  Mud Filtrate Sample Temperature 
 RMMT.ohmm            0.118100:  Rm @ Max Temp 
 MST .degC           35.000000:  Mud Sample Temperature 
 RUN .                    3300:  Run Number 
 ROPA.m/hr            4.450000:  ROP Avg 
 ROPN.m/hr            2.000000:  ROP Min 
 ROPX.m/hr            7.000000:  ROP Max 
 RPMA.rpm            78.000000:  RPM Surface Avg 
 RPMN.rpm            35.000000:  RPM Surface Min 
 RPMX.rpm            80.000000:  RPM Surface Max 
 RRUN.                    3300:  Rig Run Number 
 RTIM.hr              7.150000:  Time Reaming 
 SAZI.deg           249.699997:  Azm, Start 
 SDEP.m            4799.000000:  Start Depth 
 SIDD.                      No:  Serv Intrp, DD 
 SINC.deg            30.049999:  Inc, Start 
 SPPA.psig         4543.999023:  SPP Avg 
 SPPN.psig         4264.078613:  SPP Min 
 SPPX.psig         4641.173828:  SPP Max 
 STIM.      09.00.00 16-Jun-16:  Start Time 
 SVCS.                 DD, MWD:  Services 
 SVER.                8.300000:  Sperry Version 
 TDAT.m             455.000000:  Tot Depth Attmp 
 TDDF.                      No:  Trip for DD 
 TDLG.m             455.000000:  Tot Depth Loggd 
 TFF .                      No:  Trip for Fail 
 TQAA.f-p         37070.000000:  Torque Abs Avg 
 TQAN.f-p         35000.000000:  Torque Abs Min 
 TQAX.f-p         39000.000000:  Torque Abs Max 
 TRRT.°/100'          0.000000:  Turn Rotating 
 MRT .                     PWD:  Maximum Recorded Temperature 
 TTMX.degC          121.568352:  Max Tool Temp 
 VS01.     AD90473258H2V5WGV2COXF1(6):  Virtual Str1 SN 
 WBMN.klb             4.409245:  WOB Min 
 WITN.           Roger Butters:  Customer Rep 
 WOBA.klb             9.788525:  WOB Avg 
 WOBX.klb            13.227736:  WOB Max 
 YP  .pa             43.000000:  Yield Point 
~Curve Information Block
#MNEM.UNIT                 API CODE     Curve Description
#---------               -----------    ---------------------------
 DEPT.M                 00 000 000 000:  Depth
 DGRCC.api              00 000 000 000:  DGR Comb Gamma Ray BCorr
 ALHSI.in               00 000 000 000:  ALD Hole Size Indicator
 ABR .ohmm              00 000 000 000:  At-Bit Resistivity
 AFRSA.ohmm             00 000 000 000:  AFR Shallow Avg Res
 AFRMA.ohmm             00 000 000 000:  AFR Medium Avg Res
 AFRDA.ohmm             00 000 000 000:  AFR Deep Avg Res
 AFXT.hr                00 000 000 000:  AFR Form Exp Time
 ALCDLC.g/c3            00 000 000 000:  ALD LCRB Comp Density
 ALPELC.NONE            00 000 000 000:  ALD LCRB Pe Factor
 ALDCLC.g/c3            00 000 000 000:  ALD LCRB Den Correction
 TNPL.pu                00 000 000 000:  CTN Porosity Limestone
 DTC .uspf              00 000 000 000:  BAT DTC
 DTRS.uspf              00 000 000 000:  BAT Refracted Shear
 VPVS.NONE              00 000 000 000:  BAT VP/VS
#Other Information
#
#WARRANTY: Halliburton will use its best efforts to furnish customers with 
#accurate information and interpretations that are part of, and incident to, the services 
#provided.  However, Halliburton cannot and does not warrant the accuracy 
#or correctness of such information and interpretations.  Under no circumstances should any 
#such information or interpretation be relied upon as the sole basis for any drilling, 
#completion, production, or financial decision or any procedure involving any risk to the 
#safety of any drilling venture, drilling rig or its crew or any other third party.  The 
#Customer has full responsibility for all drilling, completion and production operation.  
#Halliburton makes no representations or warranties, either expressed or 
#implied, including, but not limited to, the implied warranties of merchantability or fitness 
#for a particular purpose, with respect to the services rendered.  In no event will 
#Halliburton be liable for failure to obtain any particular results or for 
#any damages, including, but not limited to, indirect, special or consequential damages, 
#resulting from the use of any information or interpretation provided by Halliburton.
#
~A   DEPT      DGRCC     ALHSI      ABR      AFRSA     AFRMA     AFRDA     AFXT     ALCDLC    ALPELC    ALDCLC     TNPL       DTC      DTRS      VPVS    
# ...
   5360.3652   16.5960 -999.2500 -999.2500   56.8370   53.5566   52.6386   70.6108    2.4609   17.9994   -0.0153    3.9207   61.0784   93.8966    1.5371
   5360.5176   16.6767 -999.2500 -999.2500   52.1976   45.1657   44.3299   70.6078    2.5240   18.2988    0.0381    4.2535   62.0655   95.4868    1.5387
   5360.6700   23.0241 -999.2500 -999.2500   50.9734   45.5386   45.4611   70.6049    2.5705   17.7553    0.0807    4.8460   62.6374   94.1810    1.5039
   5360.8224   26.4239 -999.2500 -999.2500   56.3663   58.3113   58.8769   70.6015    2.5933   16.3947    0.1171    4.7490   63.0590   92.6560    1.4696
   5360.9748   27.3480 -999.2500 -999.2500   56.9005   66.4199   66.8851   70.5987    2.6132   13.4014    0.1595    4.7616   62.3580   90.9986    1.4594
   5361.1272   31.2226 -999.2500 -999.2500   52.9804   63.8784   66.0336   70.5957    2.6282   13.5613    0.2057    5.1401   61.5137   91.3420    1.4857
   5361.2796   26.6903 -999.2500 -999.2500   52.7904   64.0754   67.9666   70.5925    2.6292   14.4406    0.2365    5.3999   59.9913   92.3156    1.5397
   5361.4320   22.3630 -999.2500 -999.2500   54.1922   66.1841   72.0191   70.5894    2.6025   15.0913    0.2620    5.5669   59.6630   91.5323    1.5344
   5361.5844   21.6656 -999.2500 -999.2500   54.6517   67.4437   74.8034   70.5867    2.5665   15.0217    0.2527    5.6185   59.6346   89.6633    1.5036
   5361.7368   21.4239 -999.2500 -999.2500   54.8757   70.8758   76.9324   70.5836    2.5753   13.4084    0.2671    5.4577   59.6406   88.0017    1.4756
   5361.8892   22.5810 -999.2500 -999.2500   52.6509   73.0512   76.0296   70.5804    2.5829   12.1823    0.2782    5.8056   60.4180   88.0749    1.4579
   5362.0416   18.1799 -999.2500 -999.2500   52.2061   76.8519   77.4649   70.5775    2.5463   12.3528    0.2687    5.9525   61.5605   88.8694    1.4437
   5362.1940   20.6921 -999.2500 -999.2500   54.4406   78.2539   79.1194   70.5743    2.4904   14.8242    0.2737    5.4438   62.5359   89.7366    1.4350
   5362.3464   23.4276 -999.2500 -999.2500   48.9908   63.9163   66.9797   70.5709    2.4492   15.6468    0.2600    5.5417   62.3893   89.4572    1.4339
   5362.4988   24.5406 -999.2500 -999.2500   45.6243   55.9957   60.7717   70.5678    2.4389   15.3489    0.2440    5.9936   62.1385   89.3159    1.4374
   5362.6512   21.2099 -999.2500 -999.2500   57.3599   72.2757   78.3734   70.5646    2.4978   13.9712    0.2449    5.4547   61.7495   89.6852    1.4525
   5362.8036   20.8428 -999.2500 -999.2500   74.6858  101.3747  106.1696   70.5611    2.6085   13.1053    0.3264    5.0411   61.2987   89.9598    1.4676
   5362.9560   20.5538 -999.2500 -999.2500   79.0556  108.8976  111.3490   70.5579    2.6306   12.9182    0.3610    4.8024   60.9253   89.7178    1.4726
   5363.1084   22.6668 -999.2500 -999.2500   80.3100  106.1506  109.5075   70.5549    2.5806   12.6986    0.3204    4.4938   60.5508   89.4053    1.4766
   5363.2608   26.8737 -999.2500 -999.2500   77.9866  102.5463  107.9333   70.5514    2.4989   12.0091    0.1996    4.5328   60.4200   89.1159    1.4750
   5363.4132   26.5161 -999.2500 -999.2500   79.1633   97.1813  111.4853   70.5482    2.5395   12.0643    0.1616    4.7013   60.6498   88.7193    1.4628
   5363.5656   21.9363 -999.2500 -999.2500   84.2936  100.3727  123.1979   70.5450    2.5307   11.6750    0.1113    4.4530   60.9454   88.9991    1.4603
   5363.7180   16.7989 -999.2500 -999.2500   87.1638  122.3223  142.0544   70.5417    2.5111   10.0838    0.0436    4.1668   61.0716   89.3628    1.4632
   5363.8704   14.4860 -999.2500 -999.2500   92.0054  156.0195  171.5773   70.5386    2.5248    6.9654    0.0156    4.3353   61.1064   89.7854    1.4693
   5364.0228   13.9453 -999.2500 -999.2500   83.6730  163.7043  182.6148   70.5354    2.5218    6.2039    0.0299    4.9229   61.0032   90.0225    1.4757
   5364.1752   14.3690 -999.2500 -999.2500   59.2204  124.4662  140.6329   70.5320    2.5103    6.3798    0.0315    5.3482   60.8377   90.6540    1.4901
   5364.3276   16.6864 -999.2500 -999.2500   39.1411   78.6477   87.2527   70.5287    2.4990    6.4523    0.0273    5.5899   60.8087   92.4228    1.5199
   5364.4800   17.1098 -999.2500 -999.2500   29.8735   52.5963   57.2439   70.5256    2.5072    6.4435    0.0261    5.6121   60.7843   92.4237    1.5205
   5364.6324   13.5073 -999.2500 -999.2500   28.1874   48.5287   52.4488   70.5223    2.5245   10.0410    0.0294    4.9987   60.7074   91.1528    1.5015
   5364.7848   14.7799 -999.2500 -999.2500   34.1121   70.1077   76.0571   70.5189    2.5263    9.7121    0.0202    4.3617   60.6567   90.4840    1.4917
   5364.9372   19.0694 -999.2500 -999.2500   49.0895  116.3993  125.6023   70.5158    2.5271    7.0755    0.0086    4.0672   60.6570   90.5992    1.4937
   5365.0896   16.6284 -999.2500 -999.2500   65.1081  147.6028  149.1914   70.5125    2.5387    5.0056    0.0178    4.3103   60.4105   90.9620    1.5058
   5365.2420   14.2723 -999.2500 -999.2500   60.3509  112.7614  114.2710   70.5091    2.5284    5.5313    0.0179    4.7593   59.8875   91.2123    1.5230
   5365.3944   17.7305 -999.2500 -999.2500   51.6348   82.4171   88.4285   70.5061    2.5326    6.5867    0.0347    5.1215   59.4092   89.7515    1.5105
   5365.5468   18.9465 -999.2500 -999.2500   50.9330   77.3765   85.0500   70.5029    2.5366    9.9451    0.0527    5.4412   58.8482   87.2864    1.4832
   5365.6992   35.5645 -999.2500 -999.2500   53.2006   83.1652   87.8840   70.4993    2.5204   16.1694    0.0208    5.4794   59.3348   86.3448    1.4553
   5365.8516   46.6263 -999.2500 -999.2500   56.2469   85.5239   87.3319   70.4961    2.6103   12.1701    0.0499    5.6006   60.2350   88.6617    1.4717
   5366.0040   48.4702 -999.2500 -999.2500   55.5099   76.7252   77.5934   70.4930    2.6274    9.2205    0.0628    7.0558   61.1449   90.9069    1.4867
   5366.1564   28.7349 -999.2500 -999.2500   51.6116   69.4368   69.2647   70.4897    2.5834    7.1144    0.0610    8.5601   61.8573   91.4309    1.4782
   5366.3088   17.7572 -999.2500 -999.2500   46.1975   63.4753   63.1287   70.4866    2.5252    7.1714    0.0482    8.3023   62.4319   92.0412    1.4744
   5366.4612   16.6640 -999.2500 -999.2500   42.8189   58.1531   58.8939   70.4834    2.4826   10.3433    0.0035    6.5817   62.1700   93.8232    1.5094
   5366.6136   21.0765 -999.2500 -999.2500   45.5480   68.7976   67.3779   70.4800    2.4703   13.0924   -0.0214    5.5743   61.3208   94.9599    1.5488
   5366.7660   26.3448 -999.2500 -999.2500   55.4442  102.1683   94.6775   70.4768    2.5082   15.5247   -0.0081    4.9921   60.6672   94.9290    1.5648
   5366.9184   28.6963 -999.2500 -999.2500   68.8277  131.7611  127.9247   70.4737    2.6547   12.5038    0.1159    4.7307   60.6146   94.1869    1.5539
   5367.0708   31.7261 -999.2500 -999.2500   72.7695  122.4911  130.4628   70.4703    2.6689   10.0942    0.1670    5.2732   60.8257   93.0759    1.5303
   5367.2232   22.8655 -999.2500 -999.2500   64.5954   99.4293  104.9485   70.4670    2.6448    9.7167    0.1864    5.6649   60.9618   91.5793    1.5023
   5367.3756   16.7428 -999.2500 -999.2500   54.9148   77.8654   79.9626   70.4639    2.6017   10.4447    0.2030    6.0806   60.6656   91.0260    1.5005
   5367.5280   14.6582 -999.2500 -999.2500   49.0622   64.3261   67.6875   70.4605    2.5770   10.7312    0.1893    5.7392   60.1353   90.8560    1.5109
   5367.6804   17.0514 -999.2500 -999.2500   51.5110   67.2381   73.1820   70.4571    2.6350   11.9999    0.2480    5.1775   59.9434   90.7499    1.5139
   5367.8328   14.0274 -999.2500 -999.2500   62.8668   88.4550   94.7443   70.4541    2.6546   12.6485    0.2724    4.6097   59.9267   90.2921    1.5067
   5367.9852   18.0883 -999.2500 -999.2500   80.0413  122.7287  126.8352   70.4510    2.6329   12.6431    0.2636    3.8988   60.0938   90.1599    1.5003
   5368.1376   18.4829 -999.2500 -999.2500   98.8797  158.6122  165.8145   70.4474    2.6591   12.3245    0.3029    3.5532   59.9645   89.5530    1.4935
   5368.2900   19.2242 -999.2500 -999.2500  109.0571  172.5986  191.4908   70.4444    2.6490   12.9499    0.3354    3.3585   58.2313   87.4466    1.5018
