~Version Information
 VERS.                  2.0:   CWLS log ASCII Standard -VERSION 2.0
 WRAP.                   NO:   One line per depth step
~Well Information Block
#MNEM.UNIT     VALUE/NAME     DESCRIPTION
#---------     -----------    ---------------------------
 STRT.M              5223.0528: START DEPTH
 STOP.M              5533.9488: STOP DEPTH
 STEP.M                 0.1524: STEP DEPTH
 NULL.               -999.2500: NULL VALUE
 DFWT.                        :  DIST FWL TEXT
 DFST.                        :  DIST FSL TEXT
 DMF .             Drill Floor:  DRILL MEAS FROM
 STIM.      11.30.00 09-Jul-16:  START TIME
 DATE.      11.29.04 14-Aug-16:  END TIME
 SPUD.               17-Aug-15:  SPUD DATE
 NREF.                    Grid:  NORTH REFERENCE
 HPTY.       Minimum Curvature:  HOLE POS TYPE
 DMOD.             Drill Model:  DRILL MOD DESC
 SVYD.                  Survey:  SURVEY DESC
 ILTD.               Lithology:  INTERP LTH DESC
 FTOP.          Formation Tops:  FORM TOPS DESC
 WELL.              AF011-3D-1:  WELL NAME
 COMP.               TOTAL-ABK:  COMPANY
 SON .        AD-XX-0902156848:  JOB NUMBER
 GCDE.     Generic Lat/Long's, Degrees, -180 ==> +180:  GEO COORD DESC
 CCDE.     UTM Clarke 1880 (CM 51), Meters:  CART COORD DESC
 GGSY.                      LL:  GEO GRID SYS
 CGSY.               SS CLRK51:  CART GRID SYS
 GREF.     Ellipsoid World Geodetic System :  GEO REFERENCE
 CREF.     Ellipsoid Clarke - 1880:  CART REFERENCE
 MMDL.            bggm2016.dat:  MAGNETIC MODEL
 MMDD.            20 May, 2016:  MAG DATA DATE
 MDS .              Win MagUTM:  MAG DATA SOURCE
 LLGR.      Latitude/Longitude:  LLGROUP
 XYGR.     UTM Zones, Northern Hemisphere, Meters:  XYGROUP
 PDAT.          Mean Sea Level:  PERMANENT DATUM
 WTYP.                Deviated:  WELL TYPE
 BASE.               Abu Dhabi:  LOGGING EQUIPMENT BASE LOCATION
 REGN.     Middle East/North Africa:  REGION
 PROV.               Abu Dhabi:  PROVINCE
 STAT.               Abu Dhabi:  STATE NAME
 CTRY.     United Arab Emirates:  COUNTRY NAME
 FLD .         Abu Al Bukhoosh:  FIELD NAME
 SRVC.                  SAIPEM:  CONTRACTOR
 MWDS.                Musaffah:  MWD SHOP
 RIG .           Perro Negro 8:  RIG NAME
 CNTY.               Abu Dhabi:  COUNTY NAME
 DCON.             HALLIBURTON:  DIRECTNL CONTR
 UNIT.                    9804:  LOGGING EQUIPMENT ID
 DOE .        AD-XX-0902156848:  DOE NUMBER
 API .                        :  API NUMBER
 UWI .                        :  UNIQUE WELL IDENTIFIER
 LOC .                        :  LOCATION
 LMF .             Drill Floor:  LOG MEASURED FROM
 TVDS.m              43.899999:  TVDSS CORRECTN
 LATI.deg            25.504513:  LATITUDE
 LONG.deg            53.120396:  LONGITUDE
 WHNS.m               0.000000:  WELL HEAD N/S
 WHEW.m               0.000000:  WELL HEAD E/W
 UTMX.m          713123.300043:  UTM X
 UTMY.m         2822281.299893:  UTM Y
 DFWL.m               0.000000:  DISTANCE FWL
 DFSL.m               0.000000:  DISTANCE FSL
 SDEP.m            5253.990000:  START DEPTH
 TDD .m            5543.669658:  TOTAL DEPTH (DRILLER)
 VSDR.deg           249.940002:  VERT SEC DIRECT
 GVFD.g               1.000000:  GRAVITY FIELD
 MFLD.nT          43940.839844:  MAGNETIC FIELD
 MDIP.deg            39.918472:  MAGNETIC DIP
 MDEC.deg             2.250056:  MAGNETIC DECL
 GRDC.deg             0.913350:  GRID CORRECTION
 AZTC.deg             1.336706:  AZM TOTAL CORR
 EPD .m               0.000000:  ELEVATION
 EGL .m             -45.400001:  GROUND ELEVATION
 WDMS.m              45.400001:  WD ELEV
 APD .m              43.899999:  DEPTH ABOVE PD
 MMDE.m               0.000000:  MAGUTM CALC DEP
 CMER.deg            51.000000:  CENTRL MERIDIAN
 AGAP.m              23.099999:  AIR GAP
 EKB .m              43.899999:  KB ELEVATION
 EDF .m              43.899999:  DF ELEVATION
 VSC .                       0:  VS TO CLOSURE
 MAGU.                 1527179:  MAGUTM CHECKSUM
~Parameter Information Block
#MNEM.UNIT       Value        Description
#---------     -----------    ---------------------------
 AV  .mps             1.500000:  Ann Velocity 
 AVMX.mps             2.400000:  Max Ann Veloc 
 AZIF.deg           257.739990:  Azm, Final 
 BHAT.                 Turbine:  BHA Type 
 BROT.°/100'          0.000000:  Build Rotating 
 BS  .in              8.500000:  Bit Size 
 BSZ .in              8.500000:  Bit Size 
 BTPL.psig           43.511005:  Bit Press Loss 
 CABU.                      No:  Customer Abuse 
 TCS .hr            149.515671:  Time Ciculation Ended 
 CV  .mps             3.000000:  Crit Velocity 
 CVMX.mps             4.000000:  Max Crit Veloc 
 DD1 .            Ahmed Bayoud:  Direct Drillr 1 
 DD2 .        Hany Abdel Hafez:  Direct Drillr 2 
 DDSV.                 Turbine:  DD Service 
 DEFF.%              98.000000:  % Det Eff 
 DLRX.°/100'          0.000000:  Dogleg Rot Max 
 DLSO.°/100'          0.000000:  Dogleg Oriented 
 DLSX.°/100'          0.000000:  Dogleg Str Max 
 DRET.      12.28.32 23-Jun-16:  Drill End Time 
 DRST.      14.30.00 17-Jun-16:  Drill Start Tim 
 DTIM.hr            102.349998:  Time Drilling 
 EDEP.m            5254.000000:  End Depth 
 ENG1.         Ahmed Montasser:  Engineer 1 
 ENG2.              Do Dang Sa:  Engineer 2 
 ENG3.           Khaled Khalaf:  Engineer 3 
 ENG4.         Muhammad Mubeen:  Engineer 4 
 ETIM.      05.40.54 26-Jun-16:  End Time 
 FLOI.lpm          1800.000122:  Flow In 
 FLON.lpm          1500.000000:  Flow In Min 
 FLOS.lpm             0.000000:  Fluid Loss 
 FLOX.lpm          1800.000122:  Flow In Max 
 DFT .                   Other:  Mud Type 
 HFLO.                      No:  High Flow 
 HPRE.                      No:  High Pressure 
 HTEM.                      No:  High Temp 
 HYDO.m               1.400000:  Hydro Offset 
 IFIN.deg            10.460000:  Inc, Final 
 IMAX.deg            32.367214:  Inc Max 
 IMIN.deg            11.447388:  Inc Min 
 IMND.m            5236.799805:  Inc Min Depth 
 IMXD.m            4790.299805:  Inc Max Depth 
 JARR.                      No:  Jarring 
 LETM.      12.28.32 23-Jun-16:  Log End Time 
 LOST.hr                     0:  Lost Rig Time 
 LSTM.      14.30.00 17-Jun-16:  Log Start Time 
 MDCL.ppm         23000.000000:  Mud Chlorides 
 MDES.             Fresh Water:  Mud Desc 
 DFD .g/c3            1.170004:  Mud Density 
 MDMN.g/c3            1.160004:  Dens Mud Min 
 MDMX.g/c3            1.170004:  Dens Mud Max 
 PH  .pH              9.400000:  Mud pH 
 MOIL.                       0:  Run Mud Oil % 
 MOWR.                    1 91:  Run Mud OWR 
 MSND.                     0.1:  Run Mud Sand % 
 MSOL.                     6.2:  Run Mud Solids% 
 DFV .spl            73.000000:  Mud Viscosity 
 MWOD.in              6.750000:  MWD Tool OD 
 MWSI.                      No:  Serv Intrp, MWD 
 OTIM.hr            238.111023:  Time Operating 
 PMAX.psig         4000.000000:  Press Op, Max 
 PV  .mPsec          36.000000:  Mud PV 
 RMS .ohmm            0.299000:  Mud Resistivity 
 RMCS.ohmm            0.397000:  Mud Cake Resistivity 
 MCST.degC           35.000000:  Mud Cake Sample Temperature 
 RMFS.ohmm            0.200000:  Mud Filtrate Resistivity 
 RMFT.degC           35.000000:  Mud Filtrate Sample Temperature 
 RMMT.ohmm            0.118100:  Rm @ Max Temp 
 MST .degC           35.000000:  Mud Sample Temperature 
 RUN .                    3300:  Run Number 
 ROPA.m/hr            4.450000:  ROP Avg 
 ROPN.m/hr            2.000000:  ROP Min 
 ROPX.m/hr            7.000000:  ROP Max 
 RPMA.rpm            78.000000:  RPM Surface Avg 
 RPMN.rpm            35.000000:  RPM Surface Min 
 RPMX.rpm            80.000000:  RPM Surface Max 
 RRUN.                    3300:  Rig Run Number 
 RTIM.hr              7.150000:  Time Reaming 
 SAZI.deg           249.699997:  Azm, Start 
 SDEP.m            4799.000000:  Start Depth 
 SIDD.                      No:  Serv Intrp, DD 
 SINC.deg            30.049999:  Inc, Start 
 SPPA.psig         4543.999023:  SPP Avg 
 SPPN.psig         4264.078613:  SPP Min 
 SPPX.psig         4641.173828:  SPP Max 
 STIM.      09.00.00 16-Jun-16:  Start Time 
 SVCS.                 DD, MWD:  Services 
 SVER.                8.300000:  Sperry Version 
 TDAT.m             455.000000:  Tot Depth Attmp 
 TDDF.                      No:  Trip for DD 
 TDLG.m             455.000000:  Tot Depth Loggd 
 TFF .                      No:  Trip for Fail 
 TQAA.f-p         37070.000000:  Torque Abs Avg 
 TQAN.f-p         35000.000000:  Torque Abs Min 
 TQAX.f-p         39000.000000:  Torque Abs Max 
 TRRT.°/100'          0.000000:  Turn Rotating 
 MRT .                     PWD:  Maximum Recorded Temperature 
 TTMX.degC          121.568352:  Max Tool Temp 
 VS01.     AD90473258H2V5WGV2COXF1(6):  Virtual Str1 SN 
 WBMN.klb             4.409245:  WOB Min 
 WITN.           Roger Butters:  Customer Rep 
 WOBA.klb             9.788525:  WOB Avg 
 WOBX.klb            13.227736:  WOB Max 
 YP  .pa             43.000000:  Yield Point 
~Curve Information Block
#MNEM.UNIT                 API CODE     Curve Description
#---------               -----------    ---------------------------
 DEPT.M                 00 000 000 000:  Depth
 DGRCC.api              00 000 000 000:  DGR Comb Gamma Ray BCorr
 ALHSI.in               00 000 000 000:  ALD Hole Size Indicator
 ABR .ohmm              00 000 000 000:  At-Bit Resistivity
 AFRSA.ohmm             00 000 000 000:  AFR Shallow Avg Res
 AFRMA.ohmm             00 000 000 000:  AFR Medium Avg Res
 AFRDA.ohmm             00 000 000 000:  AFR Deep Avg Res
 AFXT.hr                00 000 000 000:  AFR Form Exp Time
 ALCDLC.g/c3            00 000 000 000:  ALD LCRB Comp Density
 ALPELC.NONE            00 000 000 000:  ALD LCRB Pe Factor
 ALDCLC.g/c3            00 000 000 000:  ALD LCRB Den Correction
 TNPL.pu                00 000 000 000:  CTN Porosity Limestone
 DTC .uspf              00 000 000 000:  BAT DTC
 DTRS.uspf              00 000 000 000:  BAT Refracted Shear
 VPVS.NONE              00 000 000 000:  BAT VP/VS
#Other Information
#
#WARRANTY: Halliburton will use its best efforts to furnish customers with 
#accurate information and interpretations that are part of, and incident to, the services 
#provided.  However, Halliburton cannot and does not warrant the accuracy 
#or correctness of such information and interpretations.  Under no circumstances should any 
#such information or interpretation be relied upon as the sole basis for any drilling, 
#completion, production, or financial decision or any procedure involving any risk to the 
#safety of any drilling venture, drilling rig or its crew or any other third party.  The 
#Customer has full responsibility for all drilling, completion and production operation.  
#Halliburton makes no representations or warranties, either expressed or 
#implied, including, but not limited to, the implied warranties of merchantability or fitness 
#for a particular purpose, with respect to the services rendered.  In no event will 
#Halliburton be liable for failure to obtain any particular results or for 
#any damages, including, but not limited to, indirect, special or consequential damages, 
#resulting from the use of any information or interpretation provided by Halliburton.
#
~A   DEPT      DGRCC     ALHSI      ABR      AFRSA     AFRMA     AFRDA     AFXT     ALCDLC    ALPELC    ALDCLC     TNPL       DTC      DTRS      VPVS    
# ...
   5231.1300   17.3832 -999.2500 -999.2500    0.0076 -999.2500 -999.2500   73.7355    1.7640   15.4106   -1.0065    6.2845 -999.2500 -999.2500 -999.2500
   5231.2824   21.8846 -999.2500 -999.2500    0.0077 -999.2500 -999.2500   73.7355    1.7999   15.7139   -0.9789    6.4175 -999.2500 -999.2500 -999.2500
   5231.4348   18.4402 -999.2500 -999.2500    0.0086 -999.2500 -999.2500   73.7355    1.8386   15.9428   -0.9516    6.4490 -999.2500 -999.2500 -999.2500
   5231.5872   21.8037 -999.2500 -999.2500    0.0091 -999.2500 -999.2500   73.7355    1.7826   15.2885   -1.0115    6.3332 -999.2500 -999.2500 -999.2500
   5231.7396   20.3486 -999.2500 -999.2500    0.0076 -999.2500 -999.2500   73.7343    1.7656   15.3320   -1.0242    6.8860 -999.2500 -999.2500 -999.2500
   5231.8920   25.6267 -999.2500 -999.2500    0.0076 -999.2500 -999.2500   73.7343    1.7273   15.4323   -1.0597    7.0751 -999.2500 -999.2500 -999.2500
   5232.0444   26.0808 -999.2500 -999.2500    0.0076 -999.2500 -999.2500   73.7343    1.4779   15.3646   -1.3314    6.5943 -999.2500 -999.2500 -999.2500
   5232.1968   24.6119 -999.2500 -999.2500    0.0076 -999.2500 -999.2500   73.7343    0.6136   15.9997   -2.3291    6.2476 -999.2500 -999.2500 -999.2500
   5232.3492   19.4260 -999.2500 -999.2500    0.0076 -999.2500 -999.2500   73.7343    0.4296   16.3882   -2.5839    6.0255 -999.2500 -999.2500 -999.2500
   5232.5016   14.0612 -999.2500 -999.2500    0.0077 -999.2500 -999.2500   73.7338    1.0539   16.5359   -2.0016    5.9444 -999.2500 -999.2500 -999.2500
   5232.6540   13.0876 -999.2500 -999.2500    0.0079 -999.2500 -999.2500   73.7332    1.8390   15.3998   -1.1679    5.1438 -999.2500 -999.2500 -999.2500
   5232.8064   16.6098 -999.2500 -999.2500    0.0078 -999.2500 -999.2500   73.7332    1.9691   14.8981   -0.9484    4.8235 -999.2500 -999.2500 -999.2500
   5232.9588   20.5086 -999.2500 -999.2500    0.0078 -999.2500 -999.2500   73.7332    1.7196   14.9491   -1.0859    5.0336 -999.2500 -999.2500 -999.2500
   5233.1112   20.5259 -999.2500 -999.2500    0.0078 -999.2500 -999.2500   73.7332    1.7454   15.3176   -1.0575    5.0636 -999.2500 -999.2500 -999.2500
   5233.2636   15.9681 -999.2500 -999.2500    0.0078 -999.2500 -999.2500   73.7332    1.7315   15.3133   -1.0635    5.0129 -999.2500 -999.2500 -999.2500
   5233.4160   20.1546 -999.2500 -999.2500    0.0079 -999.2500 -999.2500   73.7332    1.6778   15.0594   -1.1006    5.3693 -999.2500 -999.2500 -999.2500
   5233.5684   21.1519 -999.2500 -999.2500    0.0079 -999.2500 -999.2500   73.7327    1.6173   14.5612   -1.1537    5.7748 -999.2500 -999.2500 -999.2500
   5233.7208   20.3294 -999.2500 -999.2500    0.0079 -999.2500 -999.2500   73.7321    1.5765   14.2448   -1.2019    6.2809 -999.2500 -999.2500 -999.2500
   5233.8732   23.3748 -999.2500 -999.2500    0.0080 -999.2500 -999.2500   73.7321    1.5701   14.3258   -1.2323    6.9900 -999.2500 -999.2500 -999.2500
   5234.0256   38.7416 -999.2500 -999.2500    0.0080 -999.2500 -999.2500   73.7321    1.5878   14.8298   -1.2639    7.2096 -999.2500 -999.2500 -999.2500
   5234.1780   47.1495 -999.2500 -999.2500    0.0080 -999.2500 -999.2500   73.7321    1.4771   14.3761   -1.3878    7.1268 -999.2500 -999.2500 -999.2500
   5234.3304   44.8405 -999.2500 -999.2500    0.0080 -999.2500 -999.2500   73.7321    1.4275   14.4111   -1.4454    6.9217 -999.2500 -999.2500 -999.2500
   5234.4828   34.6821 -999.2500 -999.2500    0.0080 -999.2500 -999.2500   73.7318    1.4367   15.1299   -1.4537    5.8605 -999.2500 -999.2500 -999.2500
   5234.6352   23.5923 -999.2500 -999.2500    0.0080 -999.2500 -999.2500   73.7314    1.5675   15.2510   -1.3246    5.4300 -999.2500 -999.2500 -999.2500
   5234.7876   17.1722 -999.2500 -999.2500    0.0080 -999.2500 -999.2500   73.7310    1.6453   15.2192   -1.2335    6.2794 -999.2500 -999.2500 -999.2500
   5234.9400   14.4275 -999.2500 -999.2500    0.0080 -999.2500 -999.2500   73.7310    1.6814   15.0493   -1.1703    6.8384 -999.2500 -999.2500 -999.2500
   5235.0924   13.1594 -999.2500 -999.2500    0.0080 -999.2500 -999.2500   73.7310    1.6364   14.4919   -1.1798    6.3686 -999.2500 -999.2500 -999.2500
   5235.2448   12.4242 -999.2500 -999.2500    0.0080 -999.2500 -999.2500   73.7310    1.5381   14.5728   -1.2716    6.5606 -999.2500 -999.2500 -999.2500
   5235.3972   19.5047 -999.2500 -999.2500    0.0080 -999.2500 -999.2500   73.7310    1.4350   14.9611   -1.3796    6.4278 -999.2500 -999.2500 -999.2500
   5235.5496   27.8445 -999.2500 -999.2500    0.0080 -999.2500 -999.2500   73.7306    1.6051   14.7517   -1.1964    6.1628 -999.2500 -999.2500 -999.2500
   5235.7020   19.8633 -999.2500 -999.2500    0.0081 -999.2500 -999.2500   73.7303    1.6557   14.7260   -1.1266    6.4031 -999.2500 -999.2500 -999.2500
   5235.8544   16.7007 -999.2500 -999.2500    0.0081 -999.2500 -999.2500   73.7299    1.6042   14.9755   -1.1484    6.2250 -999.2500 -999.2500 -999.2500
   5236.0068   21.3465 -999.2500 -999.2500    0.0081 -999.2500 -999.2500   73.7299    1.6457   15.3791   -1.1126    6.7432 -999.2500 -999.2500 -999.2500
   5236.1592   20.1903 -999.2500 -999.2500    0.0081 -999.2500 -999.2500   73.7299    1.6171   15.3197   -1.1364    7.4070 -999.2500 -999.2500 -999.2500
   5236.3116   18.2977 -999.2500 -999.2500    0.0081 -999.2500 -999.2500   73.7299    1.5019   14.7268   -1.2303    8.1721 -999.2500 -999.2500 -999.2500
   5236.4640   18.9570 -999.2500 -999.2500    0.0081 -999.2500 -999.2500   73.7299    1.4948   14.3804   -1.2378    8.5531 -999.2500 -999.2500 -999.2500
   5236.6164   21.1942 -999.2500 -999.2500    0.0081 -999.2500 -999.2500   73.7297    1.4602   14.3679   -1.2579    8.6498 -999.2500 -999.2500 -999.2500
   5236.7688   22.2528 -999.2500 -999.2500    0.0081 -999.2500 -999.2500   73.7295    1.3426   14.6271   -1.3295    8.2095 -999.2500 -999.2500 -999.2500
   5236.9212   20.3264 -999.2500 -999.2500    0.0080 -999.2500 -999.2500   73.7292    1.2193   14.3948   -1.4145    8.5558 -999.2500 -999.2500 -999.2500
   5237.0736   18.8745 -999.2500 -999.2500    0.0080 -999.2500 -999.2500   73.7290    1.1472   14.4070   -1.4622    8.9037 -999.2500 -999.2500 -999.2500
   5237.2260   14.0869 -999.2500 -999.2500    0.0080 -999.2500 -999.2500   73.7288    1.0418   14.5503   -1.5327   10.2141 -999.2500 -999.2500 -999.2500
   5237.3784   19.2760 -999.2500 -999.2500    0.0081 -999.2500 -999.2500   73.7288    0.9254   14.0754   -1.6281   11.4608 -999.2500 -999.2500 -999.2500
   5237.5308   17.4719 -999.2500 -999.2500    0.0081 -999.2500 -999.2500   73.7288    0.8881   13.9021   -1.6515   12.0518 -999.2500 -999.2500 -999.2500
   5237.6832   14.8682 -999.2500 -999.2500    0.0081 -999.2500 -999.2500   73.7288    0.8287   13.9621   -1.6906   12.8119 -999.2500 -999.2500 -999.2500
   5237.8356   18.5240 -999.2500 -999.2500    0.0081 -999.2500 -999.2500   73.7288    0.6262   14.2206   -1.8529   12.8721 -999.2500 -999.2500 -999.2500
   5237.9880   24.0930 -999.2500 -999.2500    0.0081 -999.2500 -999.2500   73.7284    0.5437   14.4396   -1.9174   12.5580 -999.2500 -999.2500 -999.2500
   5238.1404   24.5494 -999.2500 -999.2500    0.0081 -999.2500 -999.2500   73.7281    0.5590   14.5679   -1.9022   10.8420 -999.2500 -999.2500 -999.2500
   5238.2928   25.2734 -999.2500 -999.2500    0.0081 -999.2500 -999.2500   73.7277    0.7285   14.7463   -1.7694   10.4602 -999.2500 -999.2500 -999.2500
   5238.4452   25.6873 -999.2500 -999.2500    0.0080 -999.2500 -999.2500   73.7277    0.9571   14.6803   -1.6392   10.8910 -999.2500 -999.2500 -999.2500
   5238.5976   23.3007 -999.2500 -999.2500    0.0080 -999.2500 -999.2500   73.7277    1.0294   14.4322   -1.5984   10.5872 -999.2500 -999.2500 -999.2500
   5238.7500   19.8771 -999.2500 -999.2500    0.0080 -999.2500 -999.2500   73.7277    1.0602   14.6966   -1.5704   10.0652 -999.2500 -999.2500 -999.2500
   5238.9024   19.3715 -999.2500 -999.2500    0.0080 -999.2500 -999.2500   73.7277    1.0525   14.6351   -1.5848   10.6817 -999.2500 -999.2500 -999.2500
   5239.0548   18.5579 -999.2500 -999.2500    0.0080 -999.2500 -999.2500   73.7277    1.1239   14.4522   -1.5310   12.3713 -999.2500 -999.2500 -999.2500
