~Version
 VERS              .         3                             : CWLS LOG ASCII STANDARD - VERSION 3.0
 WRAP              .         NO                            : ONE LINE PER DEPTH STEP
 DLM               .         SPACE                         : DELIMITING CHARACTER(SPACE TAB OR COMMA)
~Well Information
#_______________________________________________________________________________
#
#PARAMETER_NAME    .UNIT     VALUE                         : DESCRIPTION
#_______________________________________________________________________________
STRT               .F        4494                          : First reference value
STOP               .F        7635                          : Last reference value
STEP               .F        0.5                           : Step increment
NULL               .         -9999                         : Missing value
WELL               .         SY027104H                     : Well name
ORIGINALWELLNAME   .         Well                          : 
RANG               .                                       : 
REGN               .         Abu Dhabi                     : 
AZTC               .deg      0.383835                      : 
GRDC               .deg      1.093917                      : 
WHEW               .ft       0.000000                      : 
TDL                .ft       3000.000000                   : 
TOWN               .                                       : 
NREF               .         2                             : 
DOE                .         AD-FE-0007255267              : 
EGL                .ft       407.799988                    : 
GVFD               .g        1.000000                      : 
COLG               .         186HAL_lg.bmp                 : 
WHNS               .ft       0.000000                      : 
CREF               .         Ellipsoid Clarke - 1880       : 
VSDR               .deg      55.740002                     : 
FTOP               .         Formation Tops                : 
LLGR               .         Latitude/Longitude            : 
EPD                .ft       0.000000                      : 
WDMS               .ft       0.000000                      : 
DFWL               .ft       0.000000                      : 
MFLD               .nT       42523.898438                  : 
GREF               .         Ellipsoid World Geodetic System: 
CTRY               .         UN                            : Two letter Internet country code
COUNTRY            .         United Arab Emirates          : 
DFWT               .                                       : 
CNTY               .         Abu Dhabi                     : 
VSEW               .ft       0.000000                      : 
UWI                .         AD-FE-0007255267              : 
CSGD               .ft       4170.000000                   : 
STAT               .         Abu Dhabi                     : 
APD                .ft       429.000000                    : 
BASE               .         Abu Dhabi                     : 
VSNS               .ft       0.000000                      : 
DCON               .         Al-Mansoory                   : 
API                .         AD-FE-0007255267              : 
GPMT               .                                       : 
CSGL               .ft       4170.000000                   : 
MDEC               .deg      1.477752                      : 
LONG               .deg      53.809174                     : 
CSGS               .in       9.625000                      : 
SPUD               .         20-Mar-10                     : 
MDS                .         Win MagUTM                    : 
CMER               .deg      51.000000                     : 
SRVC               .         NDC                           : 
CSGW               .lbpf     47.000000                     : 
SON                .         AD-FE-0007255267              : 
TVDS               .ft       429.000000                    : 
LMF                .         Kelly Bushing                 : 
CGSY               .         SS CLRK51                     : 
EKB                .ft       429.000000                    : 
HPTY               .         0                             : 
MWDS               .         Dubai                         : 
GGSY               .         LL                            : 
RCST               .$/da     0.000000                      : 
FLD                .         Shah                          : 
SVYD               .         Survey_DS                     : 
CCDE               .         UTM Clarke 1880 (CM 51), Meters: 
AGAP               .ft       0.000000                      : 
LOC                .                                       : 
DFSL               .ft       0.000000                      : 
EDF                .ft       428.000031                    : 
UNIT               .         166264                        : 
RIG                .         ND-50                         : 
VSC                .         0                             : 
LEAS               .                                       : 
XYGR               .         UTM Zones, Northern Hemisphere, Meters: 
GCDE               .         Generic Lat/Long's, Degrees, -180 ==> +180: 
DFST               .                                       : 
ILTD               .         Lithology                     : 
DMOD               .         Drill Model                   : 
JOBN               .         AD-FE-0007255267              : 
LATI               .deg      22.900974                     : 
DMF                .         Kelly Bushing                 : 
STIM               .         00.00.00 28-Mar-10            : 
CULG               .                                       : 
SECT               .                                       : 
PDAT               .         Mean Sea Level                : 
CPJM               .                                       : 
STRD               .ft       4648.000000                   : 
WTYP               .         2                             : 
COMP               .         ADCO                          : 
MAGU               .         1453103                       : 
PROV               .         Abu Dhabi                     : 
MMDL               .         bggm2009.dat                  : 
UTMX               .m        788186.312500                 : 
UTMY               .m        2535096.000000                : 
DATE               .         00.00.00 03-Apr-10            : 
TDD                .ft       7648.000000                   : 
MDIP               .deg      34.939442                     : 
GDAT               .                                       : 
LIC                .                                       : 
~Parameter Information Block
#_______________________________________________________________________________
#
#PARAMETER_NAME    .UNIT     VALUE                         : DESCRIPTION
#_______________________________________________________________________________
SET                .         WL_FINAL                      : 
LMF                .         ORTKB                         : Logging Measured From (Name of Logging Elevation Reference)
APD                .F        428.000000                    : Elevation of Depth Reference (LMF) above Permanent Datum
EPD                .F        0.000000                      : Elevation of Permanent Datum above Mean Sea Level
RUN                .         1                             : RUN NUMBER
PDAT               .         MSL                           : Permanent Datum
~Curve Information
#_______________________________________________________________________________
#
#LOGNAME           .UNIT     LOG_ID                        : DESCRIPTION
#_______________________________________________________________________________
DEPT               .F                                      : DEPTH (BOREHOLE) -F10 {F}
C1                 .IN                                     : Caliper 1 -F13 {F}
C2                 .IN                                     : Caliper 2 -F13 {F}
HCGR               .GAPI                                   : HNGS Computed Gamma Ray -F13 {F}
HSGR               .GAPI                                   : HNGS Standard Gamma Ray -F13 {F}
RT_HRLT            .OHMM                                   : HRLT Computed True Resistivity -F13 {F}
RXO_HRLT           .OHMM                                   : HRLT Computed Invaded Zone Resistivity -F13 {F}
TENS               .LBF                                    : Cable Tension -F13 {F}
~Ascii
# ...
5313       5.9672     5.8601     4.2983     84.6915    11.0656    5.4628     2645      
5313.5     5.9596     5.8458     4.0589     84.1968    12.0354    5.4781     2585      
5314       5.9672     5.8601     4.2361     83.6564    11.233     5.0053     2564      
5314.5     5.952      5.8601     5.2642     85.582     14.5399    6.1678     2577      
5315       5.9747     5.8458     6.5459     86.6937    15.3974    6.5084     2576      
5315.5     5.9596     5.8458     6.1977     86.6776    14.1249    6.0507     2608      
5316       5.9747     5.8458     5.9256     85.674     9.8988     4.7608     2701      
5316.5     5.9672     5.8601     5.5873     87.719     11.4921    5.4736     2671      
5317       5.9672     5.8601     5.8712     90.1941    8.1471     3.8667     2698      
5317.5     5.9672     5.8601     5.3623     90.2217    7.702      3.8066     2665      
5318       5.9672     5.8529     5.1806     93.2249    12.2663    6.0232     2572      
5318.5     5.9596     5.8529     5.8301     94.972     10.5908    5.3977     2638      
5319       5.9747     5.8601     6.1571     94.4871    9.9074     4.564      2631      
5319.5     5.9596     5.8529     6.5848     89.0845    8.1558     3.7961     2673      
5320       5.9672     5.8601     5.5545     85.3373    10.7697    5.3898     2710      
5320.5     5.9672     5.8458     4.3231     85.1426    15.5262    7.4243     2653      
5321       5.952      5.8529     3.9274     86.738     12.3335    5.9753     2677      
5321.5     5.952      5.8601     4.2062     87.5462    11.8347    5.6753     2612      
5322       5.9747     5.8601     3.2419     84.592     10.1316    5.2321     2637      
5322.5     5.9672     5.8529     2.0099     82.7497    13.1852    6.4798     2657      
5323       5.9596     5.8458     2.5939     80.3988    12.4025    6.2432     2655      
5323.5     5.9747     5.8601     1.9799     81.3307    13.5302    6.901      2684      
5324       5.952      5.8529     1.9287     80.9921    13.8724    6.7771     2703      
5324.5     5.9368     5.8601     2.0259     81.7018    10.1749    5.2404     2685      
5325       5.9672     5.8601     1.2313     83.5467    12.9159    6.4948     2616      
5325.5     5.9672     5.8601     0.69       82.9882    10.7453    6.0596     2637      
5326       5.9634     5.8601     1.0444     82.4416    10.7297    6.0213     2679      
5326.5     5.9634     5.8529     1.6121     80.7791    10.5454    5.2003     2685      
5327       5.9709     5.8601     1.7916     81.2916    9.5147     4.9818     2632      
5327.5     5.9672     5.8458     1.912      81.5033    12.6667    6.2206     2757      
5328       5.9634     5.8529     1.9865     82.2793    13.8507    6.3702     2641      
5328.5     5.9596     5.8601     2.9251     83.0215    12.3808    6.052      2673      
5329       5.9747     5.8673     4.7514     83.6772    11.6107    5.9942     2626      
5329.5     5.9747     5.8601     4.4394     84.5166    8.3268     4.5902     2572      
5330       5.9596     5.8601     3.6125     84.1357    9.8664     5.5218     2685      
5330.5     5.9672     5.8529     3.7494     83.5998    12.7032    6.3249     2643      
5331       5.9672     5.8458     3.9412     85.0362    12.1551    5.9674     2706      
5331.5     5.9747     5.8529     3.8821     87.1911    15.2395    6.961      2702      
5332       5.9672     5.8601     3.4631     89.1357    11.5672    6.0929     2691      
5332.5     5.9596     5.8529     3.3795     87.0193    10.454     5.7448     2585      
5333       5.9672     5.8601     3.7546     87.2174    11.1534    6.0903     2580      
5333.5     5.9672     5.8529     4.8554     87.6608    10.5916    5.9307     2595      
5334       5.9747     5.8529     4.2388     89.3626    12.2568    6.7498     2627      
5334.5     5.9672     5.8601     4.0706     90.5916    14.1057    7.7511     2710      
5335       5.9747     5.8601     4.0925     92.8919    10.5898    5.8234     2723      
5335.5     5.9823     5.8601     4.2914     92.2691    11.2863    6.2571     2721      
5336       5.9747     5.8601     5.1408     91.7736    10.6681    6.3022     2698      
5336.5     5.9596     5.8529     4.4672     90.1452    11.725     6.7689     2632      
5337       5.9747     5.8673     3.8864     92.8171    9.4606     5.3246     2622      
5337.5     5.9747     5.8601     4.5636     92.4042    10.7349    6.0054     2655      
5338       5.9747     5.8673     4.6644     92.1855    10.384     5.6751     2657      
5338.5     5.9823     5.8565     4.7954     90.9099    11.486     6.3727     2741      
5339       5.9672     5.8673     3.9612     91.4609    14.8877    8.1146     2668      
5339.5     5.9558     5.8529     4.1573     90.945     14.7696    8.2067     2655      
5340       5.9709     5.8601     5.9117     89.3936    13.7143    7.3587     2644      
5340.5     5.9672     5.8601     6.3955     88.2592    11.2545    6.0957     2543      
5341       5.9672     5.8601     6.3707     86.2729    9.7019     5.286      2611      
5341.5     5.9596     5.8601     5.561      85.5598    11.1413    7.1949     2598      
5342       5.9672     5.8601     6.4809     86.0804    11.1153    7.5262     2718      
5342.5     5.9709     5.8601     6.6329     86.8004    11.2373    6.7429     2656      
5343       5.9747     5.8386     5.6266     87.2926    8.4368     4.8629     2695      
5343.5     5.9596     5.8529     5.584      87.0958    10.623     6.2465     2603      
5344       5.9747     5.8637     6.0306     88.0968    14.3533    8.1344     2592      
5344.5     5.9672     5.8529     5.8012     84.946     14.6207    7.8004     2564      
5345       5.9747     5.8601     5.6752     84.0719    11.82      6.3927     2591      
5345.5     5.9672     5.8458     2.7973     85.4644    13.4147    7.3237     2668      
5346       5.9672     5.8529     3.4984     88.0805    12.4595    7.0571     2719      
5346.5     5.9596     5.8529     5.7872     86.6928    11.6786    6.6634     2759      
5347       5.9709     5.8601     5.5339     83.3611    10.9848    6.4601     2602      
5347.5     5.9672     5.8458     5.0036     84.1394    11.5535    7.2768     2606      
5348       5.9672     5.8565     5.1877     83.9716    12.7797    7.5331     2633      
5348.5     5.9634     5.8529     5.8026     84.0935    10.8497    6.5916     2543      
5349       5.9672     5.8601     5.3795     85.7625    10.7596    6.6328     2610      
5349.5     5.9596     5.8458     3.9488     86.195     13.0956    8.3448     2706      
5350       5.952      5.8458     4.1705     88.2763    13.6902    7.848      2759      
5350.5     5.9672     5.8601     4.0041     84.7581    13.4561    7.6891     2763      
5351       5.9672     5.8601     4.7051     85.176     14.7368    8.2473     2700      
5351.5     5.9596     5.8386     3.7525     84.4825    15.5059    8.4784     2577      
5352       5.9823     5.8601     1.9564     86.4132    13.6116    7.2833     2610      
5352.5     5.9672     5.8601     1.6412     86.4272    17.4315    9.086      2633      
5353       5.9672     5.8493     2.221      85.5733    16.1909    8.7486     2732      
5353.5     5.9672     5.8601     2.5012     85.6805    14.1567    7.0025     2716      
5354       5.9747     5.8673     2.3807     90.0998    14.8717    8.4911     2743      
5354.5     5.9596     5.8493     2.6535     91.9371    18.899     10.9665    2688      
5355       5.9596     5.8745     3.4328     91.1712    10.6011    5.8595     2689      
5355.5     5.9747     5.8458     3.0596     88.4741    5.7836     3.3889     2608      
5356       5.9672     5.8529     3.2718     84.9338    5.5762     4.2092     2601      
5356.5     5.9747     5.8673     2.8165     82.4891    13.7981    9.5586     2684      
5357       5.9596     5.8601     2.6058     80.2694    9.5733     5.2484     2701      
5357.5     5.9672     5.8458     2.2293     82.8793    9.4268     4.7856     2738      
5358       5.9672     5.8673     2.1857     85.1856    14.4804    6.9673     2691      
