~Version
 VERS              .         3                             : CWLS LOG ASCII STANDARD - VERSION 3.0
 WRAP              .         NO                            : ONE LINE PER DEPTH STEP
 DLM               .         SPACE                         : DELIMITING CHARACTER(SPACE TAB OR COMMA)
~Well Information
#_______________________________________________________________________________
#
#PARAMETER_NAME    .UNIT     VALUE                         : DESCRIPTION
#_______________________________________________________________________________
STRT               .F        4494                          : First reference value
STOP               .F        7635                          : Last reference value
STEP               .F        0.5                           : Step increment
NULL               .         -9999                         : Missing value
WELL               .         SY027104H                     : Well name
ORIGINALWELLNAME   .         Well                          : 
RANG               .                                       : 
REGN               .         Abu Dhabi                     : 
AZTC               .deg      0.383835                      : 
GRDC               .deg      1.093917                      : 
WHEW               .ft       0.000000                      : 
TDL                .ft       3000.000000                   : 
TOWN               .                                       : 
NREF               .         2                             : 
DOE                .         AD-FE-0007255267              : 
EGL                .ft       407.799988                    : 
GVFD               .g        1.000000                      : 
COLG               .         186HAL_lg.bmp                 : 
WHNS               .ft       0.000000                      : 
CREF               .         Ellipsoid Clarke - 1880       : 
VSDR               .deg      55.740002                     : 
FTOP               .         Formation Tops                : 
LLGR               .         Latitude/Longitude            : 
EPD                .ft       0.000000                      : 
WDMS               .ft       0.000000                      : 
DFWL               .ft       0.000000                      : 
MFLD               .nT       42523.898438                  : 
GREF               .         Ellipsoid World Geodetic System: 
CTRY               .         UN                            : Two letter Internet country code
COUNTRY            .         United Arab Emirates          : 
DFWT               .                                       : 
CNTY               .         Abu Dhabi                     : 
VSEW               .ft       0.000000                      : 
UWI                .         AD-FE-0007255267              : 
CSGD               .ft       4170.000000                   : 
STAT               .         Abu Dhabi                     : 
APD                .ft       429.000000                    : 
BASE               .         Abu Dhabi                     : 
VSNS               .ft       0.000000                      : 
DCON               .         Al-Mansoory                   : 
API                .         AD-FE-0007255267              : 
GPMT               .                                       : 
CSGL               .ft       4170.000000                   : 
MDEC               .deg      1.477752                      : 
LONG               .deg      53.809174                     : 
CSGS               .in       9.625000                      : 
SPUD               .         20-Mar-10                     : 
MDS                .         Win MagUTM                    : 
CMER               .deg      51.000000                     : 
SRVC               .         NDC                           : 
CSGW               .lbpf     47.000000                     : 
SON                .         AD-FE-0007255267              : 
TVDS               .ft       429.000000                    : 
LMF                .         Kelly Bushing                 : 
CGSY               .         SS CLRK51                     : 
EKB                .ft       429.000000                    : 
HPTY               .         0                             : 
MWDS               .         Dubai                         : 
GGSY               .         LL                            : 
RCST               .$/da     0.000000                      : 
FLD                .         Shah                          : 
SVYD               .         Survey_DS                     : 
CCDE               .         UTM Clarke 1880 (CM 51), Meters: 
AGAP               .ft       0.000000                      : 
LOC                .                                       : 
DFSL               .ft       0.000000                      : 
EDF                .ft       428.000031                    : 
UNIT               .         166264                        : 
RIG                .         ND-50                         : 
VSC                .         0                             : 
LEAS               .                                       : 
XYGR               .         UTM Zones, Northern Hemisphere, Meters: 
GCDE               .         Generic Lat/Long's, Degrees, -180 ==> +180: 
DFST               .                                       : 
ILTD               .         Lithology                     : 
DMOD               .         Drill Model                   : 
JOBN               .         AD-FE-0007255267              : 
LATI               .deg      22.900974                     : 
DMF                .         Kelly Bushing                 : 
STIM               .         00.00.00 28-Mar-10            : 
CULG               .                                       : 
SECT               .                                       : 
PDAT               .         Mean Sea Level                : 
CPJM               .                                       : 
STRD               .ft       4648.000000                   : 
WTYP               .         2                             : 
COMP               .         ADCO                          : 
MAGU               .         1453103                       : 
PROV               .         Abu Dhabi                     : 
MMDL               .         bggm2009.dat                  : 
UTMX               .m        788186.312500                 : 
UTMY               .m        2535096.000000                : 
DATE               .         00.00.00 03-Apr-10            : 
TDD                .ft       7648.000000                   : 
MDIP               .deg      34.939442                     : 
GDAT               .                                       : 
LIC                .                                       : 
~Parameter Information Block
#_______________________________________________________________________________
#
#PARAMETER_NAME    .UNIT     VALUE                         : DESCRIPTION
#_______________________________________________________________________________
SET                .         WL_FINAL                      : 
LMF                .         ORTKB                         : Logging Measured From (Name of Logging Elevation Reference)
APD                .F        428.000000                    : Elevation of Depth Reference (LMF) above Permanent Datum
EPD                .F        0.000000                      : Elevation of Permanent Datum above Mean Sea Level
RUN                .         1                             : RUN NUMBER
PDAT               .         MSL                           : Permanent Datum
~Curve Information
#_______________________________________________________________________________
#
#LOGNAME           .UNIT     LOG_ID                        : DESCRIPTION
#_______________________________________________________________________________
DEPT               .F                                      : DEPTH (BOREHOLE) -F10 {F}
C1                 .IN                                     : Caliper 1 -F13 {F}
C2                 .IN                                     : Caliper 2 -F13 {F}
HCGR               .GAPI                                   : HNGS Computed Gamma Ray -F13 {F}
HSGR               .GAPI                                   : HNGS Standard Gamma Ray -F13 {F}
RT_HRLT            .OHMM                                   : HRLT Computed True Resistivity -F13 {F}
RXO_HRLT           .OHMM                                   : HRLT Computed Invaded Zone Resistivity -F13 {F}
TENS               .LBF                                    : Cable Tension -F13 {F}
~Ascii
# ...
4903.5     6.0429     5.8817     2.0271     80.6488    5.9955     2.869      2230      
4904       6.0278     5.8781     3.0368     76.389     6.3326     2.9482     2258      
4904.5     6.0505     5.8817     4.5826     75.4959    6.6576     3.0322     2232      
4905       6.0391     5.8889     5.9694     75.6225    6.9811     3.1331     2259      
4905.5     6.0316     5.8709     5.2635     78.9026    7.2365     3.2019     2208      
4906       6.0278     5.8817     6.7237     81.0355    6.7546     2.9915     2189      
4906.5     6.0354     5.8865     7.6929     84.7312    6.3499     2.8143     2148      
4907       6.0354     5.8961     5.1945     85.5949    6.4258     2.741      2304      
4907.5     6.0354     5.9032     5.0625     87.5188    7.1155     3.0302     2144      
4908       6.0429     5.9104     5.1526     85.1654    6.7634     2.8586     2202      
4908.5     6.0354     5.8961     4.6236     81.8546    7.7162     3.104      1758      
4909       6.0316     5.9176     3.3052     78.6223    6.7687     2.7522     1431      
4909.5     6.0278     5.9104     2.2059     76.1528    7.2367     2.9108     2146      
4910       6.0354     5.8961     0.7736     75.8841    7.7951     3.0653     2254      
4910.5     6.0505     5.9032     0.728      74.6827    8.1652     3.2065     2305      
4911       6.0391     5.9176     1.1774     77.1112    7.55       2.9132     2285      
4911.5     6.0429     5.8961     -0.3468    77.6607    7.5988     2.9443     2292      
4912       6.0429     5.9032     0.2868     78.4154    6.8463     2.6583     2306      
4912.5     6.0391     5.9104     1.7433     77.565     6.7575     2.5706     2236      
4913       6.0429     5.9176     2.6623     78.2318    7.0561     2.6331     2194      
4913.5     6.0126     5.9176     3.5831     78.384     7.6248     2.8188     2170      
4914       6.005      5.914      3.2705     79.4877    7.2192     2.6561     2204      
4914.5     5.9747     5.9176     2.9893     79.8304    6.3629     2.3697     2270      
4915       5.9899     5.9032     2.7118     80.7093    6.1369     2.3212     2302      
4915.5     5.9861     5.9032     5.9787     83.2923    6.3631     2.3962     2286      
4916       5.9975     5.9032     5.1163     86.8685    6.1305     2.3318     2227      
4916.5     5.9823     5.8961     5.7102     89.2526    6.908      2.5724     2221      
4917       5.9861     5.9176     5.7173     88.715     6.8386     2.5648     2244      
4917.5     5.9747     5.9032     6.7583     86.9229    6.2843     2.4283     2223      
4918       5.9747     5.9104     7.771      84.9636    6.5309     2.5679     2265      
4918.5     5.9747     5.9104     6.3171     84.0578    6.3434     2.6099     2283      
4919       5.9899     5.9104     7.3925     83.6018    7.0622     2.9279     2294      
4919.5     5.9823     5.9176     8.8678     83.8092    7.1114     2.9166     2217      
4920       5.9899     5.9248     9.6399     81.2331    6.9961     2.8808     2231      
4920.5     5.9823     5.9248     10.1894    79.3305    7.7023     3.1414     2201      
4921       5.9899     5.9104     9.1539     77.4138    8.1574     3.4228     2180      
4921.5     5.9823     5.9176     9.5663     77.4365    7.9116     3.3144     2239      
4922       5.9823     5.9248     9.1194     76.566     8.0203     3.4763     2272      
4922.5     5.9823     5.9248     10.3984    76.5511    7.3844     3.3347     2289      
4923       5.9899     5.9212     7.7551     75.2566    7.0081     3.1947     2244      
4923.5     5.9747     5.9248     7.864      76.7887    7.1745     3.2568     2278      
4924       5.9747     5.9248     6.3727     75.8145    8.3502     3.7109     2214      
4924.5     5.9861     5.9248     5.0489     75.9101    9.9562     4.2928     2170      
4925       5.9747     5.9176     5.4837     76.0189    9.3874     4.0141     2233      
4925.5     5.9823     5.8889     5.5711     77.2445    8.2876     3.4678     2305      
4926       5.9823     5.8961     5.3442     77.9459    7.7579     3.2509     2290      
4926.5     5.9823     5.8961     5.3317     78.1945    7.0424     2.9954     2279      
4927       5.9899     5.9176     5.8725     80.2811    7.1728     3.0693     2242      
4927.5     5.9899     5.9032     6.1869     81.819     7.3576     3.1387     2192      
4928       5.9861     5.9104     5.7359     82.6524    7.021      3.0274     2213      
4928.5     5.9747     5.9176     6.4089     81.7917    6.3898     2.7688     2170      
4929       5.9899     5.9176     6.9741     81.6069    6.1663     2.6601     2278      
4929.5     5.9899     5.9104     9.1566     79.5925    6.2703     2.7017     2280      
4930       5.9747     5.9104     9.9956     78.2362    6.463      2.8171     2270      
4930.5     5.9975     5.9032     8.3664     76.5435    7.0409     2.9532     2289      
4931       5.9823     5.9032     10.5827    76.53      6.936      2.9191     2155      
4931.5     5.9823     5.9032     12.1502    77.0519    6.9487     2.8856     2243      
4932       5.9899     5.932      10.1646    79.0094    7.0747     2.9052     2148      
4932.5     5.9823     5.9032     8.7825     78.8812    7.1977     3.0007     2211      
4933       5.9899     5.9176     9.0241     80.578     7.3292     3.107      2114      
4933.5     5.9975     5.9032     7.4488     80.5808    7.3332     3.1169     2272      
4934       5.9899     5.8889     9.8496     84.3926    6.5509     2.8224     2221      
4934.5     5.9975     5.9032     9.022      82.4297    6.6651     2.8854     2244      
4935       5.9937     5.9032     8.274      82.9465    7.1804     3.0786     2215      
4935.5     5.9861     5.9032     6.291      79.2016    7.2278     3.0376     2213      
4936       5.9823     5.9176     8.6033     78.6465    8.0958     3.3415     2158      
4936.5     5.9823     5.9104     6.7614     78.2995    8.391      3.4996     2245      
4937       5.9747     5.9104     7.1857     78.9627    7.8665     3.3387     2326      
4937.5     5.9899     5.9176     8.5633     78.0278    6.9815     2.9985     2258      
4938       5.9823     5.9032     8.8802     76.746     7.0864     3.0326     2238      
4938.5     5.9899     5.9248     8.1092     75.6178    6.9162     2.9658     2225      
4939       5.9861     5.9032     8.8996     78.4467    6.9674     3.0465     2186      
4939.5     5.9899     5.9104     7.2467     77.0263    7.6827     3.3525     2197      
4940       5.9823     5.9032     6.7683     77.3994    7.5169     3.3752     2255      
4940.5     5.9823     5.8996     6.6963     77.1786    7.3258     3.3001     2277      
4941       5.9747     5.8889     7.4724     78.7368    6.7416     3.0659     2330      
4941.5     5.9975     5.9176     4.3383     78.6633    5.9671     2.9221     2273      
4942       5.9899     5.8961     3.8608     74.9709    6.663      3.1723     2165      
4942.5     6.005      5.9032     1.0145     73.7786    6.1075     2.9702     2210      
4943       6.0126     5.9176     1.5178     71.5217    6.5966     3.2416     2182      
4943.5     6.0126     5.9104     1.7254     73.5028    7.5219     3.5395     2256      
4944       6.005      5.9176     2.2094     71.7629    7.1421     3.2716     2283      
4944.5     5.9975     5.9176     2.9497     74.8115    7.8418     3.4581     2288      
4945       6.0202     5.8745     3.1435     72.6325    8.9105     3.8945     2314      
4945.5     6.0126     5.8601     1.7446     74.2671    7.5338     3.3545     2215      
4946       6.005      5.8529     3.531      72.7258    7.0874     3.2006     2196      
4946.5     5.9975     5.8601     4.7157     75.6489    6.9559     3.0411     2177      
4947       6.0126     5.8601     5.0398     74.17      6.7073     2.9336     2216      
4947.5     6.0126     5.8601     5.5501     72.1995    8.0162     3.4765     2207      
4948       6.0126     5.8745     5.615      68.8339    9.4539     3.9996     2303      
4948.5     6.0126     5.8745     3.7351     70.9359    7.7772     3.1175     2303      
