~Version Information
 VERS.                  2.0:   CWLS log ASCII Standard -VERSION 2.0
 WRAP.                   NO:   One line per depth step
~Well Information Block
#MNEM.UNIT     VALUE/NAME     DESCRIPTION
#---------     -----------    ---------------------------
 STRT.M              5223.0528: START DEPTH
 STOP.M              5533.9488: STOP DEPTH
 STEP.M                 0.1524: STEP DEPTH
 NULL.               -999.2500: NULL VALUE
 DFWT.                        :  DIST FWL TEXT
 DFST.                        :  DIST FSL TEXT
 DMF .             Drill Floor:  DRILL MEAS FROM
 STIM.      11.30.00 09-Jul-16:  START TIME
 DATE.      11.29.04 14-Aug-16:  END TIME
 SPUD.               17-Aug-15:  SPUD DATE
 NREF.                    Grid:  NORTH REFERENCE
 HPTY.       Minimum Curvature:  HOLE POS TYPE
 DMOD.             Drill Model:  DRILL MOD DESC
 SVYD.                  Survey:  SURVEY DESC
 ILTD.               Lithology:  INTERP LTH DESC
 FTOP.          Formation Tops:  FORM TOPS DESC
 WELL.              AF011-3D-1:  WELL NAME
 COMP.               TOTAL-ABK:  COMPANY
 SON .        AD-XX-0902156848:  JOB NUMBER
 GCDE.     Generic Lat/Long's, Degrees, -180 ==> +180:  GEO COORD DESC
 CCDE.     UTM Clarke 1880 (CM 51), Meters:  CART COORD DESC
 GGSY.                      LL:  GEO GRID SYS
 CGSY.               SS CLRK51:  CART GRID SYS
 GREF.     Ellipsoid World Geodetic System :  GEO REFERENCE
 CREF.     Ellipsoid Clarke - 1880:  CART REFERENCE
 MMDL.            bggm2016.dat:  MAGNETIC MODEL
 MMDD.            20 May, 2016:  MAG DATA DATE
 MDS .              Win MagUTM:  MAG DATA SOURCE
 LLGR.      Latitude/Longitude:  LLGROUP
 XYGR.     UTM Zones, Northern Hemisphere, Meters:  XYGROUP
 PDAT.          Mean Sea Level:  PERMANENT DATUM
 WTYP.                Deviated:  WELL TYPE
 BASE.               Abu Dhabi:  LOGGING EQUIPMENT BASE LOCATION
 REGN.     Middle East/North Africa:  REGION
 PROV.               Abu Dhabi:  PROVINCE
 STAT.               Abu Dhabi:  STATE NAME
 CTRY.     United Arab Emirates:  COUNTRY NAME
 FLD .         Abu Al Bukhoosh:  FIELD NAME
 SRVC.                  SAIPEM:  CONTRACTOR
 MWDS.                Musaffah:  MWD SHOP
 RIG .           Perro Negro 8:  RIG NAME
 CNTY.               Abu Dhabi:  COUNTY NAME
 DCON.             HALLIBURTON:  DIRECTNL CONTR
 UNIT.                    9804:  LOGGING EQUIPMENT ID
 DOE .        AD-XX-0902156848:  DOE NUMBER
 API .                        :  API NUMBER
 UWI .                        :  UNIQUE WELL IDENTIFIER
 LOC .                        :  LOCATION
 LMF .             Drill Floor:  LOG MEASURED FROM
 TVDS.m              43.899999:  TVDSS CORRECTN
 LATI.deg            25.504513:  LATITUDE
 LONG.deg            53.120396:  LONGITUDE
 WHNS.m               0.000000:  WELL HEAD N/S
 WHEW.m               0.000000:  WELL HEAD E/W
 UTMX.m          713123.300043:  UTM X
 UTMY.m         2822281.299893:  UTM Y
 DFWL.m               0.000000:  DISTANCE FWL
 DFSL.m               0.000000:  DISTANCE FSL
 SDEP.m            5253.990000:  START DEPTH
 TDD .m            5543.669658:  TOTAL DEPTH (DRILLER)
 VSDR.deg           249.940002:  VERT SEC DIRECT
 GVFD.g               1.000000:  GRAVITY FIELD
 MFLD.nT          43940.839844:  MAGNETIC FIELD
 MDIP.deg            39.918472:  MAGNETIC DIP
 MDEC.deg             2.250056:  MAGNETIC DECL
 GRDC.deg             0.913350:  GRID CORRECTION
 AZTC.deg             1.336706:  AZM TOTAL CORR
 EPD .m               0.000000:  ELEVATION
 EGL .m             -45.400001:  GROUND ELEVATION
 WDMS.m              45.400001:  WD ELEV
 APD .m              43.899999:  DEPTH ABOVE PD
 MMDE.m               0.000000:  MAGUTM CALC DEP
 CMER.deg            51.000000:  CENTRL MERIDIAN
 AGAP.m              23.099999:  AIR GAP
 EKB .m              43.899999:  KB ELEVATION
 EDF .m              43.899999:  DF ELEVATION
 VSC .                       0:  VS TO CLOSURE
 MAGU.                 1527179:  MAGUTM CHECKSUM
~Parameter Information Block
#MNEM.UNIT       Value        Description
#---------     -----------    ---------------------------
 AV  .mps             1.500000:  Ann Velocity 
 AVMX.mps             2.400000:  Max Ann Veloc 
 AZIF.deg           257.739990:  Azm, Final 
 BHAT.                 Turbine:  BHA Type 
 BROT.°/100'          0.000000:  Build Rotating 
 BS  .in              8.500000:  Bit Size 
 BSZ .in              8.500000:  Bit Size 
 BTPL.psig           43.511005:  Bit Press Loss 
 CABU.                      No:  Customer Abuse 
 TCS .hr            149.515671:  Time Ciculation Ended 
 CV  .mps             3.000000:  Crit Velocity 
 CVMX.mps             4.000000:  Max Crit Veloc 
 DD1 .            Ahmed Bayoud:  Direct Drillr 1 
 DD2 .        Hany Abdel Hafez:  Direct Drillr 2 
 DDSV.                 Turbine:  DD Service 
 DEFF.%              98.000000:  % Det Eff 
 DLRX.°/100'          0.000000:  Dogleg Rot Max 
 DLSO.°/100'          0.000000:  Dogleg Oriented 
 DLSX.°/100'          0.000000:  Dogleg Str Max 
 DRET.      12.28.32 23-Jun-16:  Drill End Time 
 DRST.      14.30.00 17-Jun-16:  Drill Start Tim 
 DTIM.hr            102.349998:  Time Drilling 
 EDEP.m            5254.000000:  End Depth 
 ENG1.         Ahmed Montasser:  Engineer 1 
 ENG2.              Do Dang Sa:  Engineer 2 
 ENG3.           Khaled Khalaf:  Engineer 3 
 ENG4.         Muhammad Mubeen:  Engineer 4 
 ETIM.      05.40.54 26-Jun-16:  End Time 
 FLOI.lpm          1800.000122:  Flow In 
 FLON.lpm          1500.000000:  Flow In Min 
 FLOS.lpm             0.000000:  Fluid Loss 
 FLOX.lpm          1800.000122:  Flow In Max 
 DFT .                   Other:  Mud Type 
 HFLO.                      No:  High Flow 
 HPRE.                      No:  High Pressure 
 HTEM.                      No:  High Temp 
 HYDO.m               1.400000:  Hydro Offset 
 IFIN.deg            10.460000:  Inc, Final 
 IMAX.deg            32.367214:  Inc Max 
 IMIN.deg            11.447388:  Inc Min 
 IMND.m            5236.799805:  Inc Min Depth 
 IMXD.m            4790.299805:  Inc Max Depth 
 JARR.                      No:  Jarring 
 LETM.      12.28.32 23-Jun-16:  Log End Time 
 LOST.hr                     0:  Lost Rig Time 
 LSTM.      14.30.00 17-Jun-16:  Log Start Time 
 MDCL.ppm         23000.000000:  Mud Chlorides 
 MDES.             Fresh Water:  Mud Desc 
 DFD .g/c3            1.170004:  Mud Density 
 MDMN.g/c3            1.160004:  Dens Mud Min 
 MDMX.g/c3            1.170004:  Dens Mud Max 
 PH  .pH              9.400000:  Mud pH 
 MOIL.                       0:  Run Mud Oil % 
 MOWR.                    1 91:  Run Mud OWR 
 MSND.                     0.1:  Run Mud Sand % 
 MSOL.                     6.2:  Run Mud Solids% 
 DFV .spl            73.000000:  Mud Viscosity 
 MWOD.in              6.750000:  MWD Tool OD 
 MWSI.                      No:  Serv Intrp, MWD 
 OTIM.hr            238.111023:  Time Operating 
 PMAX.psig         4000.000000:  Press Op, Max 
 PV  .mPsec          36.000000:  Mud PV 
 RMS .ohmm            0.299000:  Mud Resistivity 
 RMCS.ohmm            0.397000:  Mud Cake Resistivity 
 MCST.degC           35.000000:  Mud Cake Sample Temperature 
 RMFS.ohmm            0.200000:  Mud Filtrate Resistivity 
 RMFT.degC           35.000000:  Mud Filtrate Sample Temperature 
 RMMT.ohmm            0.118100:  Rm @ Max Temp 
 MST .degC           35.000000:  Mud Sample Temperature 
 RUN .                    3300:  Run Number 
 ROPA.m/hr            4.450000:  ROP Avg 
 ROPN.m/hr            2.000000:  ROP Min 
 ROPX.m/hr            7.000000:  ROP Max 
 RPMA.rpm            78.000000:  RPM Surface Avg 
 RPMN.rpm            35.000000:  RPM Surface Min 
 RPMX.rpm            80.000000:  RPM Surface Max 
 RRUN.                    3300:  Rig Run Number 
 RTIM.hr              7.150000:  Time Reaming 
 SAZI.deg           249.699997:  Azm, Start 
 SDEP.m            4799.000000:  Start Depth 
 SIDD.                      No:  Serv Intrp, DD 
 SINC.deg            30.049999:  Inc, Start 
 SPPA.psig         4543.999023:  SPP Avg 
 SPPN.psig         4264.078613:  SPP Min 
 SPPX.psig         4641.173828:  SPP Max 
 STIM.      09.00.00 16-Jun-16:  Start Time 
 SVCS.                 DD, MWD:  Services 
 SVER.                8.300000:  Sperry Version 
 TDAT.m             455.000000:  Tot Depth Attmp 
 TDDF.                      No:  Trip for DD 
 TDLG.m             455.000000:  Tot Depth Loggd 
 TFF .                      No:  Trip for Fail 
 TQAA.f-p         37070.000000:  Torque Abs Avg 
 TQAN.f-p         35000.000000:  Torque Abs Min 
 TQAX.f-p         39000.000000:  Torque Abs Max 
 TRRT.°/100'          0.000000:  Turn Rotating 
 MRT .                     PWD:  Maximum Recorded Temperature 
 TTMX.degC          121.568352:  Max Tool Temp 
 VS01.     AD90473258H2V5WGV2COXF1(6):  Virtual Str1 SN 
 WBMN.klb             4.409245:  WOB Min 
 WITN.           Roger Butters:  Customer Rep 
 WOBA.klb             9.788525:  WOB Avg 
 WOBX.klb            13.227736:  WOB Max 
 YP  .pa             43.000000:  Yield Point 
~Curve Information Block
#MNEM.UNIT                 API CODE     Curve Description
#---------               -----------    ---------------------------
 DEPT.M                 00 000 000 000:  Depth
 DGRCC.api              00 000 000 000:  DGR Comb Gamma Ray BCorr
 ALHSI.in               00 000 000 000:  ALD Hole Size Indicator
 ABR .ohmm              00 000 000 000:  At-Bit Resistivity
 AFRSA.ohmm             00 000 000 000:  AFR Shallow Avg Res
 AFRMA.ohmm             00 000 000 000:  AFR Medium Avg Res
 AFRDA.ohmm             00 000 000 000:  AFR Deep Avg Res
 AFXT.hr                00 000 000 000:  AFR Form Exp Time
 ALCDLC.g/c3            00 000 000 000:  ALD LCRB Comp Density
 ALPELC.NONE            00 000 000 000:  ALD LCRB Pe Factor
 ALDCLC.g/c3            00 000 000 000:  ALD LCRB Den Correction
 TNPL.pu                00 000 000 000:  CTN Porosity Limestone
 DTC .uspf              00 000 000 000:  BAT DTC
 DTRS.uspf              00 000 000 000:  BAT Refracted Shear
 VPVS.NONE              00 000 000 000:  BAT VP/VS
#Other Information
#
#WARRANTY: Halliburton will use its best efforts to furnish customers with 
#accurate information and interpretations that are part of, and incident to, the services 
#provided.  However, Halliburton cannot and does not warrant the accuracy 
#or correctness of such information and interpretations.  Under no circumstances should any 
#such information or interpretation be relied upon as the sole basis for any drilling, 
#completion, production, or financial decision or any procedure involving any risk to the 
#safety of any drilling venture, drilling rig or its crew or any other third party.  The 
#Customer has full responsibility for all drilling, completion and production operation.  
#Halliburton makes no representations or warranties, either expressed or 
#implied, including, but not limited to, the implied warranties of merchantability or fitness 
#for a particular purpose, with respect to the services rendered.  In no event will 
#Halliburton be liable for failure to obtain any particular results or for 
#any damages, including, but not limited to, indirect, special or consequential damages, 
#resulting from the use of any information or interpretation provided by Halliburton.
#
~A   DEPT      DGRCC     ALHSI      ABR      AFRSA     AFRMA     AFRDA     AFXT     ALCDLC    ALPELC    ALDCLC     TNPL       DTC      DTRS      VPVS    
# ...
   5303.8248   78.9559 -999.2500 -999.2500    4.3139   15.3312   18.4830   71.9854    2.6911    5.5467    0.0808   11.6740   58.8516 -999.2500 -999.2500
   5303.9772   86.1832 -999.2500 -999.2500    4.1873   16.1808   18.8407   71.9825    2.6521    7.8603    0.1180   13.0517   59.5840 -999.2500 -999.2500
   5304.1296   92.0201 -999.2500 -999.2500    4.1878   16.2232   19.4322   71.9795    2.6536   10.4842    0.2471   14.6501   58.4689 -999.2500 -999.2500
   5304.2820   80.5378 -999.2500 -999.2500    3.5156   14.3052   17.1748   71.9764    2.5374   10.0980    0.1889   17.7885   56.0121 -999.2500 -999.2500
   5304.4344   75.6497 -999.2500 -999.2500    3.4202   11.7786   14.0829   71.9735    2.3943    9.3769    0.0912   23.9666   54.8959 -999.2500 -999.2500
   5304.5868   69.5369 -999.2500 -999.2500    3.5245   10.1584   12.2035   71.9702    2.3964   11.4307    0.1407   30.7949   53.5776 -999.2500 -999.2500
   5304.7392   69.2956 -999.2500 -999.2500    2.3700    8.3618   10.0139   71.9671    2.0622   14.2420    0.0629   38.2409   55.1205 -999.2500 -999.2500
   5304.8916   67.8126 -999.2500 -999.2500    1.1399    6.5232    8.1968   71.9640    1.8487   15.2424    0.0050   55.6218   56.9333 -999.2500 -999.2500
   5305.0440   58.1825 -999.2500 -999.2500    0.5631    5.3731    7.3806   71.9607    1.6706   15.4667   -0.0404   70.3383   58.7391 -999.2500 -999.2500
   5305.1964   58.4992 -999.2500 -999.2500    0.4308    5.0468    7.3133   71.9574    1.6896   15.1865   -0.0239   73.2312   59.6311 -999.2500 -999.2500
   5305.3488   60.8497 -999.2500 -999.2500    0.3664    5.4222    7.5747   71.9543    1.7362   15.4415   -0.0068   73.6998   60.5342 -999.2500 -999.2500
   5305.5012   76.5029 -999.2500 -999.2500    0.3340    6.1238    8.1649   71.9510    1.7445   15.6508   -0.0085   69.7869   62.0644 -999.2500 -999.2500
   5305.6536   76.1899 -999.2500 -999.2500    0.3458    6.4041    8.5431   71.9478    1.7237   15.8827   -0.0251   67.4332   65.3942 -999.2500 -999.2500
   5305.8060   73.8382 -999.2500 -999.2500    0.3782    6.1229    8.3172   71.9444    1.8233   16.6974    0.0231   66.3032   67.0057 -999.2500 -999.2500
   5305.9584   72.0361 -999.2500 -999.2500    0.4115    5.6219    7.9743   71.9413    2.0081   17.2841    0.0898   62.2908   66.1286 -999.2500 -999.2500
   5306.1108   71.2318 -999.2500 -999.2500    0.4844    5.3395    7.6874   71.9380    2.2358   17.4303    0.1711   60.1428   64.7003 -999.2500 -999.2500
   5306.2632   72.5293 -999.2500 -999.2500    0.6410    5.3814    7.6115   71.9348    2.4054   16.0384    0.2336   53.3586   63.7320 -999.2500 -999.2500
   5306.4156   81.7096 -999.2500 -999.2500    0.9732    6.2464    8.4760   71.9315    2.4476   11.5087    0.1587   42.0045   61.9678  106.9203    1.7820
   5306.5680   84.2178 -999.2500 -999.2500    1.7388    8.5710   11.1618   71.9282    2.4709    9.2737    0.1143   31.9257   60.0724  106.4785    1.7655
   5306.7204   83.3609 -999.2500 -999.2500    3.6834   12.7862   15.9502   71.9250    2.4980    7.4039    0.0712   26.8399   60.3637  106.3086    1.7584
   5306.8728   85.8190 -999.2500 -999.2500    8.0663   17.7872   21.3407   71.9218    2.4798    5.8544    0.0194   24.0188   61.2018  105.1095    1.7164
   5307.0252   92.6914 -999.2500 -999.2500   13.1305   20.5156   24.2924   71.9186    2.5360    5.8440    0.0416   23.6276   61.0699  104.9836    1.7200
   5307.1776   93.1445 -999.2500 -999.2500   16.3561   20.3537   24.2419   71.9154    2.5804    6.1718    0.0746   24.7947   61.6126  105.3500    1.7116
   5307.3300  102.3545 -999.2500 -999.2500   18.3209   21.4246   24.9699   71.9122    2.6333    7.2472    0.1530   25.9365   62.2518  105.9056    1.7026
   5307.4824  106.5721 -999.2500 -999.2500   19.1114   23.8882   26.1109   71.9089    2.6996   10.3312    0.3115   27.0124   60.6999  106.6958    1.7589
   5307.6348  112.3715 -999.2500 -999.2500   15.8277   22.4120   22.9956   71.9054    2.5651   10.5902    0.2555   28.4488   59.8993  107.0556    1.7883
   5307.7872  102.8197 -999.2500 -999.2500   12.0854   18.0248   18.1434   71.9023    2.4533   10.4799    0.1924   33.7109   63.0453  109.1284    1.7331
   5307.9396  102.1935 -999.2500 -999.2500    9.6205   15.4193   15.5488   71.8993    2.5000   11.5480    0.2420   34.3917   64.2057  110.5103    1.7216
   5308.0920  102.2038 -999.2500 -999.2500    8.8132   15.7346   16.0382   71.8960    2.4400   10.1183    0.1117   30.7476   64.4176  110.9431    1.7225
   5308.2444   97.1827 -999.2500 -999.2500    9.3414   16.7704   17.4817   71.8926    2.4770    8.9952    0.0780   31.8446   65.6377  110.9808    1.6910
   5308.3968  102.6339 -999.2500 -999.2500   11.3968   17.8330   18.9597   71.8892    2.5889    8.3244    0.1139   33.3705   66.0264  110.5633    1.6746
   5308.5492  113.6267 -999.2500 -999.2500   14.3898   19.3963   20.7302   71.8862    2.6915    9.5693    0.2278   31.4860   66.0436  108.8398    1.6481
   5308.7016  118.4851 -999.2500 -999.2500   16.2864   19.2513   20.4251   71.8832    2.6305   10.3524    0.2376   30.0564   65.3696  105.4265    1.6137
   5308.8540  119.3534 -999.2500 -999.2500   15.1995   18.2221   19.0370   71.8799    2.5954   11.5531    0.2726   32.4718   62.6890  104.9492    1.6765
   5309.0064  114.7830 -999.2500 -999.2500   12.6234   17.0555   17.9479   71.8765    2.5051   13.8074    0.3154   38.2772   60.0671  104.8119    1.7470
   5309.1588  114.6802 -999.2500 -999.2500    9.0392   15.6528   16.7031   71.8732    2.1545   14.6522    0.1496   42.5451   58.0072  105.0115    1.8147
   5309.3112  115.8199 -999.2500 -999.2500    5.8807   14.0335   14.8922   71.8700    1.9466   14.6514    0.0541   45.9652   54.1432  106.0119    1.9616
   5309.4636   95.8407 -999.2500 -999.2500    3.4826   11.9010   12.5972   71.8669    1.8748   13.4052   -0.0086   47.9544   54.2314  105.6449    1.9498
   5309.6160   86.1357 -999.2500 -999.2500    2.4134   10.0271   10.6329   71.8637    1.9161    9.0857   -0.1130   48.2951   56.6964  104.2042    1.8413
   5309.7684   76.6915 -999.2500 -999.2500    2.1457    9.2810    9.6953   71.8603    2.2613    5.6846   -0.0749   43.6388   58.7296  103.6009    1.7654
   5309.9208   73.8128 -999.2500 -999.2500    2.2101   10.1133   10.9397   71.8570    2.4746    4.8692   -0.0282   37.0893   57.9658  107.2788    1.8516
   5310.0732   75.4013 -999.2500 -999.2500    3.5790   14.3219   16.0416   71.8538    2.5865    4.9434    0.0089   23.7307   57.2235  108.0954    1.8893
   5310.2256   72.9456 -999.2500 -999.2500    8.9815   22.3429   24.1032   71.8507    2.6771    5.5629    0.0843   15.5459   56.9667  108.2862    1.9010
   5310.3780   77.5663 -999.2500 -999.2500   18.4386   27.0855   28.2052   71.8475    2.8183    9.3161    0.3308   15.0329   57.1229  108.0140    1.8909
   5310.5304   86.5402 -999.2500 -999.2500   22.4403   26.3550   27.7452   71.8443    2.7028    9.8332    0.2920   16.8524   57.0582  107.0483    1.8773
   5310.6828   96.8871 -999.2500 -999.2500   21.7367   21.9764   24.1783   71.8410    2.5026    9.2076    0.1537   19.3455   59.5547  104.7852    1.7672
   5310.8352  100.6211 -999.2500 -999.2500   19.7755   18.2423   20.5494   71.8377    2.5728    9.1508    0.1778   24.2308   63.6350  103.2882    1.6269
   5310.9876  104.2401 -999.2500 -999.2500   20.0280   18.1702   19.8022   71.8344    2.6067    9.0147    0.1759   26.6261   65.4709  104.5344    1.5965
   5311.1400  103.1970 -999.2500 -999.2500   21.8978   20.4150   21.1012   71.8311    2.5956    8.4395    0.1476   27.1215   66.5619  108.0235    1.6229
   5311.2924  100.5456 -999.2500 -999.2500   23.5887   22.7380   22.5331   71.8280    2.5650    7.2401    0.0922   27.4639   66.4196  109.7951    1.6534
   5311.4448  104.3658 -999.2500 -999.2500   25.6556   25.7098   24.4981   71.8248    2.5809    6.8201    0.0683   24.7509   65.2795  110.5620    1.6941
   5311.5972  108.9717 -999.2500 -999.2500   27.1436   27.4678   26.2015   71.8214    2.6246    6.4690    0.0726   21.5345   62.9040  107.7058    1.7126
   5311.7496  106.3426 -999.2500 -999.2500   28.3622   28.3853   27.8013   71.8182    2.6641    6.3464    0.0886   20.8552   61.2882  104.2263    1.7006
