~Version Information
 VERS.                  2.0:   CWLS log ASCII Standard -VERSION 2.0
 WRAP.                   NO:   One line per depth step
~Well Information Block
#MNEM.UNIT     VALUE/NAME     DESCRIPTION
#---------     -----------    ---------------------------
 STRT.M              5223.0528: START DEPTH
 STOP.M              5533.9488: STOP DEPTH
 STEP.M                 0.1524: STEP DEPTH
 NULL.               -999.2500: NULL VALUE
 DFWT.                        :  DIST FWL TEXT
 DFST.                        :  DIST FSL TEXT
 DMF .             Drill Floor:  DRILL MEAS FROM
 STIM.      11.30.00 09-Jul-16:  START TIME
 DATE.      11.29.04 14-Aug-16:  END TIME
 SPUD.               17-Aug-15:  SPUD DATE
 NREF.                    Grid:  NORTH REFERENCE
 HPTY.       Minimum Curvature:  HOLE POS TYPE
 DMOD.             Drill Model:  DRILL MOD DESC
 SVYD.                  Survey:  SURVEY DESC
 ILTD.               Lithology:  INTERP LTH DESC
 FTOP.          Formation Tops:  FORM TOPS DESC
 WELL.              AF011-3D-1:  WELL NAME
 COMP.               TOTAL-ABK:  COMPANY
 SON .        AD-XX-0902156848:  JOB NUMBER
 GCDE.     Generic Lat/Long's, Degrees, -180 ==> +180:  GEO COORD DESC
 CCDE.     UTM Clarke 1880 (CM 51), Meters:  CART COORD DESC
 GGSY.                      LL:  GEO GRID SYS
 CGSY.               SS CLRK51:  CART GRID SYS
 GREF.     Ellipsoid World Geodetic System :  GEO REFERENCE
 CREF.     Ellipsoid Clarke - 1880:  CART REFERENCE
 MMDL.            bggm2016.dat:  MAGNETIC MODEL
 MMDD.            20 May, 2016:  MAG DATA DATE
 MDS .              Win MagUTM:  MAG DATA SOURCE
 LLGR.      Latitude/Longitude:  LLGROUP
 XYGR.     UTM Zones, Northern Hemisphere, Meters:  XYGROUP
 PDAT.          Mean Sea Level:  PERMANENT DATUM
 WTYP.                Deviated:  WELL TYPE
 BASE.               Abu Dhabi:  LOGGING EQUIPMENT BASE LOCATION
 REGN.     Middle East/North Africa:  REGION
 PROV.               Abu Dhabi:  PROVINCE
 STAT.               Abu Dhabi:  STATE NAME
 CTRY.     United Arab Emirates:  COUNTRY NAME
 FLD .         Abu Al Bukhoosh:  FIELD NAME
 SRVC.                  SAIPEM:  CONTRACTOR
 MWDS.                Musaffah:  MWD SHOP
 RIG .           Perro Negro 8:  RIG NAME
 CNTY.               Abu Dhabi:  COUNTY NAME
 DCON.             HALLIBURTON:  DIRECTNL CONTR
 UNIT.                    9804:  LOGGING EQUIPMENT ID
 DOE .        AD-XX-0902156848:  DOE NUMBER
 API .                        :  API NUMBER
 UWI .                        :  UNIQUE WELL IDENTIFIER
 LOC .                        :  LOCATION
 LMF .             Drill Floor:  LOG MEASURED FROM
 TVDS.m              43.899999:  TVDSS CORRECTN
 LATI.deg            25.504513:  LATITUDE
 LONG.deg            53.120396:  LONGITUDE
 WHNS.m               0.000000:  WELL HEAD N/S
 WHEW.m               0.000000:  WELL HEAD E/W
 UTMX.m          713123.300043:  UTM X
 UTMY.m         2822281.299893:  UTM Y
 DFWL.m               0.000000:  DISTANCE FWL
 DFSL.m               0.000000:  DISTANCE FSL
 SDEP.m            5253.990000:  START DEPTH
 TDD .m            5543.669658:  TOTAL DEPTH (DRILLER)
 VSDR.deg           249.940002:  VERT SEC DIRECT
 GVFD.g               1.000000:  GRAVITY FIELD
 MFLD.nT          43940.839844:  MAGNETIC FIELD
 MDIP.deg            39.918472:  MAGNETIC DIP
 MDEC.deg             2.250056:  MAGNETIC DECL
 GRDC.deg             0.913350:  GRID CORRECTION
 AZTC.deg             1.336706:  AZM TOTAL CORR
 EPD .m               0.000000:  ELEVATION
 EGL .m             -45.400001:  GROUND ELEVATION
 WDMS.m              45.400001:  WD ELEV
 APD .m              43.899999:  DEPTH ABOVE PD
 MMDE.m               0.000000:  MAGUTM CALC DEP
 CMER.deg            51.000000:  CENTRL MERIDIAN
 AGAP.m              23.099999:  AIR GAP
 EKB .m              43.899999:  KB ELEVATION
 EDF .m              43.899999:  DF ELEVATION
 VSC .                       0:  VS TO CLOSURE
 MAGU.                 1527179:  MAGUTM CHECKSUM
~Parameter Information Block
#MNEM.UNIT       Value        Description
#---------     -----------    ---------------------------
 AV  .mps             1.500000:  Ann Velocity 
 AVMX.mps             2.400000:  Max Ann Veloc 
 AZIF.deg           257.739990:  Azm, Final 
 BHAT.                 Turbine:  BHA Type 
 BROT.°/100'          0.000000:  Build Rotating 
 BS  .in              8.500000:  Bit Size 
 BSZ .in              8.500000:  Bit Size 
 BTPL.psig           43.511005:  Bit Press Loss 
 CABU.                      No:  Customer Abuse 
 TCS .hr            149.515671:  Time Ciculation Ended 
 CV  .mps             3.000000:  Crit Velocity 
 CVMX.mps             4.000000:  Max Crit Veloc 
 DD1 .            Ahmed Bayoud:  Direct Drillr 1 
 DD2 .        Hany Abdel Hafez:  Direct Drillr 2 
 DDSV.                 Turbine:  DD Service 
 DEFF.%              98.000000:  % Det Eff 
 DLRX.°/100'          0.000000:  Dogleg Rot Max 
 DLSO.°/100'          0.000000:  Dogleg Oriented 
 DLSX.°/100'          0.000000:  Dogleg Str Max 
 DRET.      12.28.32 23-Jun-16:  Drill End Time 
 DRST.      14.30.00 17-Jun-16:  Drill Start Tim 
 DTIM.hr            102.349998:  Time Drilling 
 EDEP.m            5254.000000:  End Depth 
 ENG1.         Ahmed Montasser:  Engineer 1 
 ENG2.              Do Dang Sa:  Engineer 2 
 ENG3.           Khaled Khalaf:  Engineer 3 
 ENG4.         Muhammad Mubeen:  Engineer 4 
 ETIM.      05.40.54 26-Jun-16:  End Time 
 FLOI.lpm          1800.000122:  Flow In 
 FLON.lpm          1500.000000:  Flow In Min 
 FLOS.lpm             0.000000:  Fluid Loss 
 FLOX.lpm          1800.000122:  Flow In Max 
 DFT .                   Other:  Mud Type 
 HFLO.                      No:  High Flow 
 HPRE.                      No:  High Pressure 
 HTEM.                      No:  High Temp 
 HYDO.m               1.400000:  Hydro Offset 
 IFIN.deg            10.460000:  Inc, Final 
 IMAX.deg            32.367214:  Inc Max 
 IMIN.deg            11.447388:  Inc Min 
 IMND.m            5236.799805:  Inc Min Depth 
 IMXD.m            4790.299805:  Inc Max Depth 
 JARR.                      No:  Jarring 
 LETM.      12.28.32 23-Jun-16:  Log End Time 
 LOST.hr                     0:  Lost Rig Time 
 LSTM.      14.30.00 17-Jun-16:  Log Start Time 
 MDCL.ppm         23000.000000:  Mud Chlorides 
 MDES.             Fresh Water:  Mud Desc 
 DFD .g/c3            1.170004:  Mud Density 
 MDMN.g/c3            1.160004:  Dens Mud Min 
 MDMX.g/c3            1.170004:  Dens Mud Max 
 PH  .pH              9.400000:  Mud pH 
 MOIL.                       0:  Run Mud Oil % 
 MOWR.                    1 91:  Run Mud OWR 
 MSND.                     0.1:  Run Mud Sand % 
 MSOL.                     6.2:  Run Mud Solids% 
 DFV .spl            73.000000:  Mud Viscosity 
 MWOD.in              6.750000:  MWD Tool OD 
 MWSI.                      No:  Serv Intrp, MWD 
 OTIM.hr            238.111023:  Time Operating 
 PMAX.psig         4000.000000:  Press Op, Max 
 PV  .mPsec          36.000000:  Mud PV 
 RMS .ohmm            0.299000:  Mud Resistivity 
 RMCS.ohmm            0.397000:  Mud Cake Resistivity 
 MCST.degC           35.000000:  Mud Cake Sample Temperature 
 RMFS.ohmm            0.200000:  Mud Filtrate Resistivity 
 RMFT.degC           35.000000:  Mud Filtrate Sample Temperature 
 RMMT.ohmm            0.118100:  Rm @ Max Temp 
 MST .degC           35.000000:  Mud Sample Temperature 
 RUN .                    3300:  Run Number 
 ROPA.m/hr            4.450000:  ROP Avg 
 ROPN.m/hr            2.000000:  ROP Min 
 ROPX.m/hr            7.000000:  ROP Max 
 RPMA.rpm            78.000000:  RPM Surface Avg 
 RPMN.rpm            35.000000:  RPM Surface Min 
 RPMX.rpm            80.000000:  RPM Surface Max 
 RRUN.                    3300:  Rig Run Number 
 RTIM.hr              7.150000:  Time Reaming 
 SAZI.deg           249.699997:  Azm, Start 
 SDEP.m            4799.000000:  Start Depth 
 SIDD.                      No:  Serv Intrp, DD 
 SINC.deg            30.049999:  Inc, Start 
 SPPA.psig         4543.999023:  SPP Avg 
 SPPN.psig         4264.078613:  SPP Min 
 SPPX.psig         4641.173828:  SPP Max 
 STIM.      09.00.00 16-Jun-16:  Start Time 
 SVCS.                 DD, MWD:  Services 
 SVER.                8.300000:  Sperry Version 
 TDAT.m             455.000000:  Tot Depth Attmp 
 TDDF.                      No:  Trip for DD 
 TDLG.m             455.000000:  Tot Depth Loggd 
 TFF .                      No:  Trip for Fail 
 TQAA.f-p         37070.000000:  Torque Abs Avg 
 TQAN.f-p         35000.000000:  Torque Abs Min 
 TQAX.f-p         39000.000000:  Torque Abs Max 
 TRRT.°/100'          0.000000:  Turn Rotating 
 MRT .                     PWD:  Maximum Recorded Temperature 
 TTMX.degC          121.568352:  Max Tool Temp 
 VS01.     AD90473258H2V5WGV2COXF1(6):  Virtual Str1 SN 
 WBMN.klb             4.409245:  WOB Min 
 WITN.           Roger Butters:  Customer Rep 
 WOBA.klb             9.788525:  WOB Avg 
 WOBX.klb            13.227736:  WOB Max 
 YP  .pa             43.000000:  Yield Point 
~Curve Information Block
#MNEM.UNIT                 API CODE     Curve Description
#---------               -----------    ---------------------------
 DEPT.M                 00 000 000 000:  Depth
 DGRCC.api              00 000 000 000:  DGR Comb Gamma Ray BCorr
 ALHSI.in               00 000 000 000:  ALD Hole Size Indicator
 ABR .ohmm              00 000 000 000:  At-Bit Resistivity
 AFRSA.ohmm             00 000 000 000:  AFR Shallow Avg Res
 AFRMA.ohmm             00 000 000 000:  AFR Medium Avg Res
 AFRDA.ohmm             00 000 000 000:  AFR Deep Avg Res
 AFXT.hr                00 000 000 000:  AFR Form Exp Time
 ALCDLC.g/c3            00 000 000 000:  ALD LCRB Comp Density
 ALPELC.NONE            00 000 000 000:  ALD LCRB Pe Factor
 ALDCLC.g/c3            00 000 000 000:  ALD LCRB Den Correction
 TNPL.pu                00 000 000 000:  CTN Porosity Limestone
 DTC .uspf              00 000 000 000:  BAT DTC
 DTRS.uspf              00 000 000 000:  BAT Refracted Shear
 VPVS.NONE              00 000 000 000:  BAT VP/VS
#Other Information
#
#WARRANTY: Halliburton will use its best efforts to furnish customers with 
#accurate information and interpretations that are part of, and incident to, the services 
#provided.  However, Halliburton cannot and does not warrant the accuracy 
#or correctness of such information and interpretations.  Under no circumstances should any 
#such information or interpretation be relied upon as the sole basis for any drilling, 
#completion, production, or financial decision or any procedure involving any risk to the 
#safety of any drilling venture, drilling rig or its crew or any other third party.  The 
#Customer has full responsibility for all drilling, completion and production operation.  
#Halliburton makes no representations or warranties, either expressed or 
#implied, including, but not limited to, the implied warranties of merchantability or fitness 
#for a particular purpose, with respect to the services rendered.  In no event will 
#Halliburton be liable for failure to obtain any particular results or for 
#any damages, including, but not limited to, indirect, special or consequential damages, 
#resulting from the use of any information or interpretation provided by Halliburton.
#
~A   DEPT      DGRCC     ALHSI      ABR      AFRSA     AFRMA     AFRDA     AFXT     ALCDLC    ALPELC    ALDCLC     TNPL       DTC      DTRS      VPVS    
# ...
   5344.2108   16.8365 -999.2500 -999.2500   42.3988   37.5057   58.3136   71.0402    2.3459   11.3445    0.2380    6.8734   60.0000   87.7876    1.4631
   5344.3632   17.4584 -999.2500 -999.2500   44.6042   44.3105   70.6942   71.0208    2.3648   12.3415    0.2708    6.5805   59.9951   87.5059    1.4586
   5344.5156   20.3942 -999.2500 -999.2500   44.8841   56.7450   79.1868   71.0069    2.3788   12.9995    0.2946    6.3555   59.9684   87.5269    1.4596
   5344.6680   21.3330 -999.2500 -999.2500   45.0833   73.2250   83.6136   70.9944    2.3531   13.4426    0.2913    5.8850   59.8745   87.2645    1.4575
   5344.8204   19.0318 -999.2500 -999.2500   45.8271   86.4731   86.3722   70.9970    2.3043   13.9082    0.2740    5.6632   59.6992   86.9012    1.4556
   5344.9728   17.1510 -999.2500 -999.2500   46.8429   92.8436   89.3037   70.9808    2.2512   14.3550    0.2513    5.9790   59.9475   87.7941    1.4645
   5345.1252   14.1916 -999.2500 -999.2500   48.4020   95.7038   95.7598   70.9724    2.2525   13.7863    0.2414    6.6150   60.1851   89.9312    1.4942
   5345.2776   17.0257 -999.2500 -999.2500   47.8096   94.4766  101.9447   70.9680    2.2704   13.4318    0.2458    6.6808   60.1086   90.6555    1.5082
   5345.4300   23.0611 -999.2500 -999.2500   43.5631   93.9863  102.6042   70.9614    2.2843   13.3033    0.2508    6.4692   60.6452   90.4106    1.4910
   5345.5824   27.7609 -999.2500 -999.2500   38.5177  100.6200  105.0358   70.9495    2.2265   13.7698    0.2206    6.3312   61.1439   90.2392    1.4759
   5345.7348   26.2503 -999.2500 -999.2500   35.6230  112.0284  114.1143   70.9428    2.1780   13.1732    0.1871    6.4661   61.2896   90.1494    1.4709
   5345.8872   19.6928 -999.2500 -999.2500   36.3512  115.2036  117.2085   70.9319    2.1702   12.0291    0.1572    6.3798   60.8206   89.6414    1.4739
   5346.0396   21.3655 -999.2500 -999.2500   40.2163  104.7412  105.3888   70.9254    2.2280   10.1308    0.1338    6.4611   60.0361   88.7065    1.4776
   5346.1920   18.4865 -999.2500 -999.2500   41.7032   89.9126   90.2556   70.9215    2.3862   11.7056    0.2553    6.4161   60.0970   89.1088    1.4827
   5346.3444   17.1557 -999.2500 -999.2500   37.2009   71.0551   72.3548   70.9182    2.3991   12.9624    0.2973    6.3710   60.4233   89.8449    1.4869
   5346.4968   22.7297 -999.2500 -999.2500   30.3671   54.3602   56.4489   70.9143    2.3416   13.7031    0.2853    6.5704   60.6013   89.6664    1.4797
   5346.6492   30.3072 -999.2500 -999.2500   26.9404   53.4894   55.2036   70.9109    2.2401   14.2080    0.2342    6.8483   60.9007   88.7392    1.4572
   5346.8016   31.8111 -999.2500 -999.2500   27.4272   66.3711   67.8696   70.9076    2.1058   14.1054    0.1616    7.0849   60.9086   88.0043    1.4449
   5346.9540   29.0035 -999.2500 -999.2500   31.3933   87.1814   90.2277   70.9038    2.0564   14.0994    0.1422    7.4104   60.6188   87.7282    1.4473
   5347.1064   22.6085 -999.2500 -999.2500   36.1691  106.6627  111.3392   70.9003    2.0647   14.1844    0.1575    7.0716   60.0200   88.3348    1.4719
   5347.2588   22.1306 -999.2500 -999.2500   42.4335  127.2968  133.1991   70.8970    2.1557   14.0802    0.1917    6.3326   59.3616   88.4841    1.4906
   5347.4112   20.8769 -999.2500 -999.2500   52.1603  147.7612  157.8176   70.8934    2.1979   14.1534    0.2225    5.5784   59.2676   89.3723    1.5079
   5347.5636   18.5151 -999.2500 -999.2500   62.8272  164.7342  179.2913   70.8897    2.2418   14.0859    0.2477    4.8115   59.6490   89.8806    1.5069
   5347.7160   21.0822 -999.2500 -999.2500   73.9594  178.1875  194.5444   70.8863    2.3549   13.5809    0.2870    4.4276   60.1757   89.8279    1.4929
   5347.8684   18.9764 -999.2500 -999.2500   83.1655  181.6544  192.7636   70.8829    2.3718   13.2864    0.2863    4.3842   60.7960   89.0201    1.4646
   5348.0208   19.9482 -999.2500 -999.2500   83.7070  173.2172  170.4509   70.8790    2.3884   13.6205    0.2999    4.4414   60.4587   88.3211    1.4617
   5348.1732   22.0308 -999.2500 -999.2500   78.3407  169.0681  162.7536   70.8757    2.3930   14.1104    0.3078    4.5418   58.4177   88.7935    1.5213
   5348.3256   24.4418 -999.2500 -999.2500   65.5346  149.0996  147.7540   70.8723    2.3652   14.3606    0.2921    4.8564   57.1240   89.0055    1.5584
   5348.4780   31.0340 -999.2500 -999.2500   48.5711  121.6243  121.4493   70.8685    2.3890   14.2405    0.3172    5.2363   56.9805   89.0861    1.5635
   5348.6304   32.9315 -999.2500 -999.2500   38.3935  121.5628  117.0588   70.8651    2.3878   14.2922    0.3196    6.0098   57.7069   89.4607    1.5508
   5348.7828   29.5850 -999.2500 -999.2500   34.1613  128.4001  118.4114   70.8618    2.3159   14.5865    0.2833    7.1454   59.6622   90.5044    1.5176
   5348.9352   28.9260 -999.2500 -999.2500   33.8973  103.9997   97.0065   70.8581    2.1250   14.9566    0.1891    6.6610   62.2485   94.2708    1.5142
   5349.0876   30.1949 -999.2500 -999.2500   34.2566   61.5143   59.3306   70.8545    2.2017   14.2273    0.2112    6.5335   64.3277   97.1535    1.5105
   5349.2400   34.2456 -999.2500 -999.2500   39.9972   46.9969   48.9781   70.8511    2.3041   13.7258    0.2546    6.7887   65.2739   97.9372    1.5006
   5349.3924   48.6374 -999.2500 -999.2500   56.2791   71.3465   76.6701   70.8475    2.4306   13.1956    0.3154    6.8178   66.3731   98.5257    1.4847
   5349.5448   77.3146 -999.2500 -999.2500   69.2489  125.9671  130.5744   70.8438    2.4625   12.2881    0.3209    8.0333   65.4721   96.4731    1.4737
   5349.6972   68.6089 -999.2500 -999.2500   61.8881  142.9764  150.7374   70.8404    2.4894   12.2839    0.3354   13.0840   63.9449   92.0223    1.4401
   5349.8496   39.9289 -999.2500 -999.2500   52.1182  136.6646  146.8391   70.8371    2.4742   12.7233    0.3337   10.0350   60.8832   90.4082    1.4866
   5350.0020   23.5092 -999.2500 -999.2500   43.6613  114.1255  126.8367   70.8334    2.3532   13.3836    0.2810    5.6380   59.4412   89.2892    1.5022
   5350.1544   18.2092 -999.2500 -999.2500   38.4194  101.2008  114.8738   70.8299    2.2235   13.7366    0.2300    4.5873   59.0702   86.9930    1.4727
   5350.3068   15.3321 -999.2500 -999.2500   36.1890  100.4930  113.5488   70.8266    2.1814   13.7729    0.2157    4.5644   58.5207   86.0135    1.4698
   5350.4592   20.5511 -999.2500 -999.2500   37.1363  103.5102  114.3648   70.8232    2.2051   13.5478    0.2304    4.6160   58.3254   85.9163    1.4731
   5350.6116   18.9490 -999.2500 -999.2500   37.4954  101.9708  109.8970   70.8198    2.2782   13.5149    0.2602    4.7284   58.4642   86.5168    1.4799
   5350.7640   18.1235 -999.2500 -999.2500   35.9792   94.2275  101.1409   70.8165    2.2864   13.7151    0.2645    4.8876   58.6767   87.1374    1.4852
   5350.9164   21.3746 -999.2500 -999.2500   35.4490   84.7013   91.4163   70.8131    2.2337   14.0200    0.2441    4.9148   59.3787   87.4221    1.4725
   5351.0688   20.6514 -999.2500 -999.2500   35.9102   75.1097   81.9513   70.8097    2.2537   13.0677    0.2396    4.9374   59.4337   87.8983    1.4790
   5351.2212   21.5481 -999.2500 -999.2500   36.5527   72.6635   80.2227   70.8066    2.2912   12.6334    0.2449    5.1182   59.3832   87.7331    1.4774
   5351.3736   26.1394 -999.2500 -999.2500   39.0322   76.6124   85.9757   70.8034    2.3397   12.7650    0.2591    5.6816   59.3252   87.3379    1.4722
   5351.5260   24.9002 -999.2500 -999.2500   41.1068   78.7776   89.3481   70.7999    2.3258   13.3761    0.2746    5.7391   59.1622   88.5427    1.4967
   5351.6784   22.5983 -999.2500 -999.2500   40.0507   79.4669   89.8195   70.7968    2.3609   13.2387    0.2939    5.5829   59.3375   89.5526    1.5093
   5351.8308   23.3843 -999.2500 -999.2500   39.1358   83.0880   93.7718   70.7937    2.4487   12.7387    0.3279    5.1354   59.8112   89.4709    1.4960
   5351.9832   23.7338 -999.2500 -999.2500   39.9488   86.2954   98.3216   70.7902    2.5133   13.0331    0.3662    5.0260   59.9645   88.8239    1.4813
   5352.1356   22.6607 -999.2500 -999.2500   40.4871   87.2693   98.0415   70.7869    2.3888   13.7049    0.3056    5.4864   60.0000   87.3626    1.4560
