~Version Information
 VERS.                  2.0:   CWLS log ASCII Standard -VERSION 2.0
 WRAP.                   NO:   One line per depth step
~Well Information Block
#MNEM.UNIT     VALUE/NAME     DESCRIPTION
#---------     -----------    ---------------------------
 STRT.M              5223.0528: START DEPTH
 STOP.M              5533.9488: STOP DEPTH
 STEP.M                 0.1524: STEP DEPTH
 NULL.               -999.2500: NULL VALUE
 DFWT.                        :  DIST FWL TEXT
 DFST.                        :  DIST FSL TEXT
 DMF .             Drill Floor:  DRILL MEAS FROM
 STIM.      11.30.00 09-Jul-16:  START TIME
 DATE.      11.29.04 14-Aug-16:  END TIME
 SPUD.               17-Aug-15:  SPUD DATE
 NREF.                    Grid:  NORTH REFERENCE
 HPTY.       Minimum Curvature:  HOLE POS TYPE
 DMOD.             Drill Model:  DRILL MOD DESC
 SVYD.                  Survey:  SURVEY DESC
 ILTD.               Lithology:  INTERP LTH DESC
 FTOP.          Formation Tops:  FORM TOPS DESC
 WELL.              AF011-3D-1:  WELL NAME
 COMP.               TOTAL-ABK:  COMPANY
 SON .        AD-XX-0902156848:  JOB NUMBER
 GCDE.     Generic Lat/Long's, Degrees, -180 ==> +180:  GEO COORD DESC
 CCDE.     UTM Clarke 1880 (CM 51), Meters:  CART COORD DESC
 GGSY.                      LL:  GEO GRID SYS
 CGSY.               SS CLRK51:  CART GRID SYS
 GREF.     Ellipsoid World Geodetic System :  GEO REFERENCE
 CREF.     Ellipsoid Clarke - 1880:  CART REFERENCE
 MMDL.            bggm2016.dat:  MAGNETIC MODEL
 MMDD.            20 May, 2016:  MAG DATA DATE
 MDS .              Win MagUTM:  MAG DATA SOURCE
 LLGR.      Latitude/Longitude:  LLGROUP
 XYGR.     UTM Zones, Northern Hemisphere, Meters:  XYGROUP
 PDAT.          Mean Sea Level:  PERMANENT DATUM
 WTYP.                Deviated:  WELL TYPE
 BASE.               Abu Dhabi:  LOGGING EQUIPMENT BASE LOCATION
 REGN.     Middle East/North Africa:  REGION
 PROV.               Abu Dhabi:  PROVINCE
 STAT.               Abu Dhabi:  STATE NAME
 CTRY.     United Arab Emirates:  COUNTRY NAME
 FLD .         Abu Al Bukhoosh:  FIELD NAME
 SRVC.                  SAIPEM:  CONTRACTOR
 MWDS.                Musaffah:  MWD SHOP
 RIG .           Perro Negro 8:  RIG NAME
 CNTY.               Abu Dhabi:  COUNTY NAME
 DCON.             HALLIBURTON:  DIRECTNL CONTR
 UNIT.                    9804:  LOGGING EQUIPMENT ID
 DOE .        AD-XX-0902156848:  DOE NUMBER
 API .                        :  API NUMBER
 UWI .                        :  UNIQUE WELL IDENTIFIER
 LOC .                        :  LOCATION
 LMF .             Drill Floor:  LOG MEASURED FROM
 TVDS.m              43.899999:  TVDSS CORRECTN
 LATI.deg            25.504513:  LATITUDE
 LONG.deg            53.120396:  LONGITUDE
 WHNS.m               0.000000:  WELL HEAD N/S
 WHEW.m               0.000000:  WELL HEAD E/W
 UTMX.m          713123.300043:  UTM X
 UTMY.m         2822281.299893:  UTM Y
 DFWL.m               0.000000:  DISTANCE FWL
 DFSL.m               0.000000:  DISTANCE FSL
 SDEP.m            5253.990000:  START DEPTH
 TDD .m            5543.669658:  TOTAL DEPTH (DRILLER)
 VSDR.deg           249.940002:  VERT SEC DIRECT
 GVFD.g               1.000000:  GRAVITY FIELD
 MFLD.nT          43940.839844:  MAGNETIC FIELD
 MDIP.deg            39.918472:  MAGNETIC DIP
 MDEC.deg             2.250056:  MAGNETIC DECL
 GRDC.deg             0.913350:  GRID CORRECTION
 AZTC.deg             1.336706:  AZM TOTAL CORR
 EPD .m               0.000000:  ELEVATION
 EGL .m             -45.400001:  GROUND ELEVATION
 WDMS.m              45.400001:  WD ELEV
 APD .m              43.899999:  DEPTH ABOVE PD
 MMDE.m               0.000000:  MAGUTM CALC DEP
 CMER.deg            51.000000:  CENTRL MERIDIAN
 AGAP.m              23.099999:  AIR GAP
 EKB .m              43.899999:  KB ELEVATION
 EDF .m              43.899999:  DF ELEVATION
 VSC .                       0:  VS TO CLOSURE
 MAGU.                 1527179:  MAGUTM CHECKSUM
~Parameter Information Block
#MNEM.UNIT       Value        Description
#---------     -----------    ---------------------------
 AV  .mps             1.500000:  Ann Velocity 
 AVMX.mps             2.400000:  Max Ann Veloc 
 AZIF.deg           257.739990:  Azm, Final 
 BHAT.                 Turbine:  BHA Type 
 BROT.°/100'          0.000000:  Build Rotating 
 BS  .in              8.500000:  Bit Size 
 BSZ .in              8.500000:  Bit Size 
 BTPL.psig           43.511005:  Bit Press Loss 
 CABU.                      No:  Customer Abuse 
 TCS .hr            149.515671:  Time Ciculation Ended 
 CV  .mps             3.000000:  Crit Velocity 
 CVMX.mps             4.000000:  Max Crit Veloc 
 DD1 .            Ahmed Bayoud:  Direct Drillr 1 
 DD2 .        Hany Abdel Hafez:  Direct Drillr 2 
 DDSV.                 Turbine:  DD Service 
 DEFF.%              98.000000:  % Det Eff 
 DLRX.°/100'          0.000000:  Dogleg Rot Max 
 DLSO.°/100'          0.000000:  Dogleg Oriented 
 DLSX.°/100'          0.000000:  Dogleg Str Max 
 DRET.      12.28.32 23-Jun-16:  Drill End Time 
 DRST.      14.30.00 17-Jun-16:  Drill Start Tim 
 DTIM.hr            102.349998:  Time Drilling 
 EDEP.m            5254.000000:  End Depth 
 ENG1.         Ahmed Montasser:  Engineer 1 
 ENG2.              Do Dang Sa:  Engineer 2 
 ENG3.           Khaled Khalaf:  Engineer 3 
 ENG4.         Muhammad Mubeen:  Engineer 4 
 ETIM.      05.40.54 26-Jun-16:  End Time 
 FLOI.lpm          1800.000122:  Flow In 
 FLON.lpm          1500.000000:  Flow In Min 
 FLOS.lpm             0.000000:  Fluid Loss 
 FLOX.lpm          1800.000122:  Flow In Max 
 DFT .                   Other:  Mud Type 
 HFLO.                      No:  High Flow 
 HPRE.                      No:  High Pressure 
 HTEM.                      No:  High Temp 
 HYDO.m               1.400000:  Hydro Offset 
 IFIN.deg            10.460000:  Inc, Final 
 IMAX.deg            32.367214:  Inc Max 
 IMIN.deg            11.447388:  Inc Min 
 IMND.m            5236.799805:  Inc Min Depth 
 IMXD.m            4790.299805:  Inc Max Depth 
 JARR.                      No:  Jarring 
 LETM.      12.28.32 23-Jun-16:  Log End Time 
 LOST.hr                     0:  Lost Rig Time 
 LSTM.      14.30.00 17-Jun-16:  Log Start Time 
 MDCL.ppm         23000.000000:  Mud Chlorides 
 MDES.             Fresh Water:  Mud Desc 
 DFD .g/c3            1.170004:  Mud Density 
 MDMN.g/c3            1.160004:  Dens Mud Min 
 MDMX.g/c3            1.170004:  Dens Mud Max 
 PH  .pH              9.400000:  Mud pH 
 MOIL.                       0:  Run Mud Oil % 
 MOWR.                    1 91:  Run Mud OWR 
 MSND.                     0.1:  Run Mud Sand % 
 MSOL.                     6.2:  Run Mud Solids% 
 DFV .spl            73.000000:  Mud Viscosity 
 MWOD.in              6.750000:  MWD Tool OD 
 MWSI.                      No:  Serv Intrp, MWD 
 OTIM.hr            238.111023:  Time Operating 
 PMAX.psig         4000.000000:  Press Op, Max 
 PV  .mPsec          36.000000:  Mud PV 
 RMS .ohmm            0.299000:  Mud Resistivity 
 RMCS.ohmm            0.397000:  Mud Cake Resistivity 
 MCST.degC           35.000000:  Mud Cake Sample Temperature 
 RMFS.ohmm            0.200000:  Mud Filtrate Resistivity 
 RMFT.degC           35.000000:  Mud Filtrate Sample Temperature 
 RMMT.ohmm            0.118100:  Rm @ Max Temp 
 MST .degC           35.000000:  Mud Sample Temperature 
 RUN .                    3300:  Run Number 
 ROPA.m/hr            4.450000:  ROP Avg 
 ROPN.m/hr            2.000000:  ROP Min 
 ROPX.m/hr            7.000000:  ROP Max 
 RPMA.rpm            78.000000:  RPM Surface Avg 
 RPMN.rpm            35.000000:  RPM Surface Min 
 RPMX.rpm            80.000000:  RPM Surface Max 
 RRUN.                    3300:  Rig Run Number 
 RTIM.hr              7.150000:  Time Reaming 
 SAZI.deg           249.699997:  Azm, Start 
 SDEP.m            4799.000000:  Start Depth 
 SIDD.                      No:  Serv Intrp, DD 
 SINC.deg            30.049999:  Inc, Start 
 SPPA.psig         4543.999023:  SPP Avg 
 SPPN.psig         4264.078613:  SPP Min 
 SPPX.psig         4641.173828:  SPP Max 
 STIM.      09.00.00 16-Jun-16:  Start Time 
 SVCS.                 DD, MWD:  Services 
 SVER.                8.300000:  Sperry Version 
 TDAT.m             455.000000:  Tot Depth Attmp 
 TDDF.                      No:  Trip for DD 
 TDLG.m             455.000000:  Tot Depth Loggd 
 TFF .                      No:  Trip for Fail 
 TQAA.f-p         37070.000000:  Torque Abs Avg 
 TQAN.f-p         35000.000000:  Torque Abs Min 
 TQAX.f-p         39000.000000:  Torque Abs Max 
 TRRT.°/100'          0.000000:  Turn Rotating 
 MRT .                     PWD:  Maximum Recorded Temperature 
 TTMX.degC          121.568352:  Max Tool Temp 
 VS01.     AD90473258H2V5WGV2COXF1(6):  Virtual Str1 SN 
 WBMN.klb             4.409245:  WOB Min 
 WITN.           Roger Butters:  Customer Rep 
 WOBA.klb             9.788525:  WOB Avg 
 WOBX.klb            13.227736:  WOB Max 
 YP  .pa             43.000000:  Yield Point 
~Curve Information Block
#MNEM.UNIT                 API CODE     Curve Description
#---------               -----------    ---------------------------
 DEPT.M                 00 000 000 000:  Depth
 DGRCC.api              00 000 000 000:  DGR Comb Gamma Ray BCorr
 ALHSI.in               00 000 000 000:  ALD Hole Size Indicator
 ABR .ohmm              00 000 000 000:  At-Bit Resistivity
 AFRSA.ohmm             00 000 000 000:  AFR Shallow Avg Res
 AFRMA.ohmm             00 000 000 000:  AFR Medium Avg Res
 AFRDA.ohmm             00 000 000 000:  AFR Deep Avg Res
 AFXT.hr                00 000 000 000:  AFR Form Exp Time
 ALCDLC.g/c3            00 000 000 000:  ALD LCRB Comp Density
 ALPELC.NONE            00 000 000 000:  ALD LCRB Pe Factor
 ALDCLC.g/c3            00 000 000 000:  ALD LCRB Den Correction
 TNPL.pu                00 000 000 000:  CTN Porosity Limestone
 DTC .uspf              00 000 000 000:  BAT DTC
 DTRS.uspf              00 000 000 000:  BAT Refracted Shear
 VPVS.NONE              00 000 000 000:  BAT VP/VS
#Other Information
#
#WARRANTY: Halliburton will use its best efforts to furnish customers with 
#accurate information and interpretations that are part of, and incident to, the services 
#provided.  However, Halliburton cannot and does not warrant the accuracy 
#or correctness of such information and interpretations.  Under no circumstances should any 
#such information or interpretation be relied upon as the sole basis for any drilling, 
#completion, production, or financial decision or any procedure involving any risk to the 
#safety of any drilling venture, drilling rig or its crew or any other third party.  The 
#Customer has full responsibility for all drilling, completion and production operation.  
#Halliburton makes no representations or warranties, either expressed or 
#implied, including, but not limited to, the implied warranties of merchantability or fitness 
#for a particular purpose, with respect to the services rendered.  In no event will 
#Halliburton be liable for failure to obtain any particular results or for 
#any damages, including, but not limited to, indirect, special or consequential damages, 
#resulting from the use of any information or interpretation provided by Halliburton.
#
~A   DEPT      DGRCC     ALHSI      ABR      AFRSA     AFRMA     AFRDA     AFXT     ALCDLC    ALPELC    ALDCLC     TNPL       DTC      DTRS      VPVS    
# ...
   5416.9056   20.3959 -999.2500 -999.2500  133.0860  153.9823  156.6522   69.2117    2.5620    7.8596    0.0626    2.7295   54.3423   84.1333    1.5437
   5417.0580   23.8567 -999.2500 -999.2500  117.3435  160.6427  164.1174   69.2081    2.5302    6.3742    0.0378    3.2159   54.1676   84.6019    1.5468
   5417.2104   21.5432 -999.2500 -999.2500   87.1904  131.7315  136.8982   69.2051    2.5003    5.5719    0.0220    3.4479   54.9760   84.5134    1.5306
   5417.3628   18.9704 -999.2500 -999.2500   62.8109   93.6427   98.3181   69.2018    2.4649    5.3467    0.0089    3.6759   55.7843   84.4850    1.5144
   5417.5152   13.8364 -999.2500 -999.2500   48.7101   71.3371   74.7811   69.1984    2.4696    5.3838    0.0100    4.0126   56.0716   84.5978    1.5095
   5417.6676   10.9277 -999.2500 -999.2500   45.2438   73.7144   78.0607   69.1954    2.4948    5.5041    0.0228    4.1109   56.7111   85.0337    1.4999
   5417.8200   11.9758 -999.2500 -999.2500   44.6206   84.6930   88.9531   69.1924    2.5031    5.5523    0.0303    4.2643   57.2482   85.8820    1.5001
   5417.9724   11.2272 -999.2500 -999.2500   42.9402   83.3839   84.3355   69.1890    2.4886    5.4759    0.0290    4.4351   57.6735   87.3108    1.5138
   5418.1248    8.5579 -999.2500 -999.2500   38.8917   67.1585   68.1155   69.1860    2.4873    5.2974    0.0173    4.5645   57.9973   88.3289    1.5230
   5418.2772   10.0913 -999.2500 -999.2500   35.9641   55.0599   57.8654   69.1830    2.4918    5.3352    0.0192    4.5079   58.3201   87.9269    1.5077
   5418.4296    8.7938 -999.2500 -999.2500   36.6081   50.6830   55.4815   69.1797    2.4917    5.4097    0.0213    4.4191   58.4653   87.5243    1.4967
   5418.5820    8.0435 -999.2500 -999.2500   39.8118   52.4407   56.9949   69.1768    2.4842    5.4860    0.0168    4.1899   58.1645   87.5641    1.5035
   5418.7344   10.1682 -999.2500 -999.2500   42.9232   54.6676   57.2643   69.1739    2.4966    5.5603    0.0221    4.1160   57.9389   87.8674    1.5097
   5418.8868   10.1846 -999.2500 -999.2500   46.8880   58.1590   59.4629   69.1706    2.5238    5.6076    0.0492    4.0755   57.8127   87.3562    1.5088
   5419.0392   12.9220 -999.2500 -999.2500   53.0839   65.0940   66.1954   69.1678    2.5453    5.6517    0.0758    3.6799   57.5115   86.3830    1.5023
   5419.1916   21.7274 -999.2500 -999.2500   59.0257   67.7579   68.6718   69.1646    2.5605    6.4997    0.1045    3.2515   56.4268   85.6971    1.5193
   5419.3440   25.5905 -999.2500 -999.2500   59.8456   64.3657   63.2397   69.1616    2.5384   10.7355    0.0828    3.1770   56.4692   85.3670    1.5121
   5419.4964   25.3638 -999.2500 -999.2500   65.0129   68.0249   65.1741   69.1587    2.5478   12.0679    0.0775    3.4778   56.5357   85.4135    1.5111
   5419.6488   23.7340 -999.2500 -999.2500   75.1364   76.8514   75.0100   69.1556    2.5656   10.3721    0.0741    3.7181   55.4730   85.4693    1.5412
   5419.8012   13.4562 -999.2500 -999.2500   73.5759   71.0157   73.4223   69.1523    2.5658    6.1740    0.0570    3.7126   54.3537   85.7756    1.5784
   5419.9536   12.5569 -999.2500 -999.2500   59.0488   51.6939   56.2254   69.1493    2.5533    4.7235    0.0671    3.4459   54.0216   86.4716    1.6007
   5420.1060   11.5570 -999.2500 -999.2500   46.5106   39.3958   42.5354   69.1461    2.5464    4.7980    0.0816    3.1659   54.0000   86.8478    1.6083
   5420.2584    9.9180 -999.2500 -999.2500   49.0434   44.6183   46.0454   69.1426    2.5534    5.2606    0.1055    2.7126   53.5956   86.6310    1.6169
   5420.4108   12.7929 -999.2500 -999.2500   66.1872   64.3868   65.4743   69.1395    2.5839    5.6402    0.1257    2.4585   52.2595   86.1511    1.6503
   5420.5632   13.7196 -999.2500 -999.2500   78.0151   75.7889   77.7526   69.1363    2.5613    4.9812    0.0859    2.4192   53.3852   85.5160    1.6023
   5420.7156   16.6719 -999.2500 -999.2500   65.9146   61.9328   63.4008   69.1330    2.5557    4.8043    0.0766    2.4864   53.5365   85.5968    1.5979
   5420.8680   20.0700 -999.2500 -999.2500   46.8051   42.1958   42.7831   69.1298    2.5637    4.9593    0.0848    2.6298   54.0000   85.5159    1.5811
   5421.0204   19.1330 -999.2500 -999.2500   39.1461   34.0446   34.2708   69.1266    2.5840    5.4684    0.1064    2.5416   54.0000   84.7443    1.5680
   5421.1728   20.3022 -999.2500 -999.2500   39.6167   33.9832   34.1404   69.1232    2.6072    5.9714    0.1416    2.4025   53.8923   83.7054    1.5533
   5421.3252   20.2184 -999.2500 -999.2500   41.9721   37.0361   36.7257   69.1200    2.6597    6.9676    0.2154    2.1580   53.3830   82.9055    1.5539
   5421.4776   22.5454 -999.2500 -999.2500   54.4651   50.3345   49.0928   69.1170    2.6903    8.1085    0.2820    1.9523   51.4297   82.5586    1.6063
   5421.6300   23.9633 -999.2500 -999.2500   80.0804   74.5880   72.9232   69.1136    2.5413    6.9771    0.1487    1.9822   50.5276   82.1086    1.6257
   5421.7824   21.8723 -999.2500 -999.2500   77.0477   69.6479   68.7815   69.1102    2.5480    5.6341    0.1007    2.2583   51.0534   82.4674    1.6162
   5421.9348   21.2917 -999.2500 -999.2500   58.7898   50.4779   51.0934   69.1072    2.5726    5.1092    0.0958    2.3902   51.9462   82.9353    1.5980
   5422.0872   15.4662 -999.2500 -999.2500   57.5050   47.9306   49.4225   69.1040    2.6260    5.5573    0.1471    2.2734   53.0019   83.4370    1.5749
   5422.2396   15.4276 -999.2500 -999.2500   69.3951   58.9212   60.7831   69.1005    2.7353    8.2572    0.3200    2.1430   52.1321   83.5932    1.6044
   5422.3920   16.0107 -999.2500 -999.2500   72.5416   64.3387   65.2891   69.0975    2.6155    8.2667    0.2515    2.1146   51.3818   83.5540    1.6266
   5422.5444   14.4698 -999.2500 -999.2500   65.5068   60.3815   60.0996   69.0942    2.5245    7.0119    0.1516    2.2975   53.0464   83.5411    1.5759
   5422.6968   14.2002 -999.2500 -999.2500   66.9001   61.7164   62.6511   69.0908    2.4636    4.6204    0.0247    2.4252   54.3965   83.7788    1.5405
   5422.8492   16.1306 -999.2500 -999.2500   79.9726   73.1339   76.8965   69.0876    2.4862    3.9051   -0.0036    2.8119   54.7342   84.3060    1.5404
   5423.0016   16.1601 -999.2500 -999.2500   81.8959   78.6534   82.4594   69.0845    2.5169    4.1187    0.0068    3.3197   54.5363   85.9064    1.5753
   5423.1540   15.4360 -999.2500 -999.2500   65.2811   67.7664   68.1488   69.0813    2.5229    4.3445    0.0135    4.0062   54.9706   86.9915    1.5826
   5423.3064   16.1589 -999.2500 -999.2500   46.6113   54.3358   48.7392   69.0781    2.5085    4.5462    0.0159    4.4544   56.0704   88.0824    1.5710
   5423.4588   17.7235 -999.2500 -999.2500   37.0418   46.4557   37.5846   69.0748    2.5032    4.4991    0.0215    4.6113   56.7807   88.6463    1.5612
   5423.6112   15.8736 -999.2500 -999.2500   36.5568   43.6820   36.0490   69.0714    2.5097    4.6201    0.0368    4.7935   56.8046   88.0099    1.5494
   5423.7636   18.4002 -999.2500 -999.2500   45.0856   48.7910   44.5880   69.0682    2.5404    5.0445    0.0698    4.6823   56.9535   87.3764    1.5342
   5423.9160   34.8518 -999.2500 -999.2500   60.8315   63.4466   61.6247   69.0652    2.6429    6.4426    0.1716    4.4798   56.9951   86.9760    1.5262
   5424.0684   55.9500 -999.2500 -999.2500   78.2071   82.7140   81.1435   69.0618    2.7339    8.0824    0.2819    4.5540   57.1129   86.6188    1.5177
   5424.2208   70.3147 -999.2500 -999.2500   86.1129   93.8319   90.8818   69.0585    2.6438    7.3332    0.1976    4.6139   59.3895   86.4692    1.4568
   5424.3732   73.6732 -999.2500 -999.2500   82.6737   92.9020   93.1045   69.0553    2.5642    6.1371    0.1077    5.7708   59.8563   86.8723    1.4516
   5424.5256   66.3525 -999.2500 -999.2500   66.9717   80.5976   86.4606   69.0520    2.5545    4.6107    0.0552    6.7184   60.0000   87.8832    1.4647
   5424.6780   53.1350 -999.2500 -999.2500   54.8317   70.0455   77.7078   69.0488    2.6005    4.4233    0.0706    6.6279   59.4146   88.0031    1.4827
   5424.8304   42.1220 -999.2500 -999.2500   44.8690   55.3299   62.6194   69.0456    2.5429    4.1935    0.0423    5.7325   56.5178   88.3785    1.5679
