~Version Information
 VERS.                  2.0:   CWLS log ASCII Standard -VERSION 2.0
 WRAP.                   NO:   One line per depth step
~Well Information Block
#MNEM.UNIT     VALUE/NAME     DESCRIPTION
#---------     -----------    ---------------------------
 STRT.M              5223.0528: START DEPTH
 STOP.M              5533.9488: STOP DEPTH
 STEP.M                 0.1524: STEP DEPTH
 NULL.               -999.2500: NULL VALUE
 DFWT.                        :  DIST FWL TEXT
 DFST.                        :  DIST FSL TEXT
 DMF .             Drill Floor:  DRILL MEAS FROM
 STIM.      11.30.00 09-Jul-16:  START TIME
 DATE.      11.29.04 14-Aug-16:  END TIME
 SPUD.               17-Aug-15:  SPUD DATE
 NREF.                    Grid:  NORTH REFERENCE
 HPTY.       Minimum Curvature:  HOLE POS TYPE
 DMOD.             Drill Model:  DRILL MOD DESC
 SVYD.                  Survey:  SURVEY DESC
 ILTD.               Lithology:  INTERP LTH DESC
 FTOP.          Formation Tops:  FORM TOPS DESC
 WELL.              AF011-3D-1:  WELL NAME
 COMP.               TOTAL-ABK:  COMPANY
 SON .        AD-XX-0902156848:  JOB NUMBER
 GCDE.     Generic Lat/Long's, Degrees, -180 ==> +180:  GEO COORD DESC
 CCDE.     UTM Clarke 1880 (CM 51), Meters:  CART COORD DESC
 GGSY.                      LL:  GEO GRID SYS
 CGSY.               SS CLRK51:  CART GRID SYS
 GREF.     Ellipsoid World Geodetic System :  GEO REFERENCE
 CREF.     Ellipsoid Clarke - 1880:  CART REFERENCE
 MMDL.            bggm2016.dat:  MAGNETIC MODEL
 MMDD.            20 May, 2016:  MAG DATA DATE
 MDS .              Win MagUTM:  MAG DATA SOURCE
 LLGR.      Latitude/Longitude:  LLGROUP
 XYGR.     UTM Zones, Northern Hemisphere, Meters:  XYGROUP
 PDAT.          Mean Sea Level:  PERMANENT DATUM
 WTYP.                Deviated:  WELL TYPE
 BASE.               Abu Dhabi:  LOGGING EQUIPMENT BASE LOCATION
 REGN.     Middle East/North Africa:  REGION
 PROV.               Abu Dhabi:  PROVINCE
 STAT.               Abu Dhabi:  STATE NAME
 CTRY.     United Arab Emirates:  COUNTRY NAME
 FLD .         Abu Al Bukhoosh:  FIELD NAME
 SRVC.                  SAIPEM:  CONTRACTOR
 MWDS.                Musaffah:  MWD SHOP
 RIG .           Perro Negro 8:  RIG NAME
 CNTY.               Abu Dhabi:  COUNTY NAME
 DCON.             HALLIBURTON:  DIRECTNL CONTR
 UNIT.                    9804:  LOGGING EQUIPMENT ID
 DOE .        AD-XX-0902156848:  DOE NUMBER
 API .                        :  API NUMBER
 UWI .                        :  UNIQUE WELL IDENTIFIER
 LOC .                        :  LOCATION
 LMF .             Drill Floor:  LOG MEASURED FROM
 TVDS.m              43.899999:  TVDSS CORRECTN
 LATI.deg            25.504513:  LATITUDE
 LONG.deg            53.120396:  LONGITUDE
 WHNS.m               0.000000:  WELL HEAD N/S
 WHEW.m               0.000000:  WELL HEAD E/W
 UTMX.m          713123.300043:  UTM X
 UTMY.m         2822281.299893:  UTM Y
 DFWL.m               0.000000:  DISTANCE FWL
 DFSL.m               0.000000:  DISTANCE FSL
 SDEP.m            5253.990000:  START DEPTH
 TDD .m            5543.669658:  TOTAL DEPTH (DRILLER)
 VSDR.deg           249.940002:  VERT SEC DIRECT
 GVFD.g               1.000000:  GRAVITY FIELD
 MFLD.nT          43940.839844:  MAGNETIC FIELD
 MDIP.deg            39.918472:  MAGNETIC DIP
 MDEC.deg             2.250056:  MAGNETIC DECL
 GRDC.deg             0.913350:  GRID CORRECTION
 AZTC.deg             1.336706:  AZM TOTAL CORR
 EPD .m               0.000000:  ELEVATION
 EGL .m             -45.400001:  GROUND ELEVATION
 WDMS.m              45.400001:  WD ELEV
 APD .m              43.899999:  DEPTH ABOVE PD
 MMDE.m               0.000000:  MAGUTM CALC DEP
 CMER.deg            51.000000:  CENTRL MERIDIAN
 AGAP.m              23.099999:  AIR GAP
 EKB .m              43.899999:  KB ELEVATION
 EDF .m              43.899999:  DF ELEVATION
 VSC .                       0:  VS TO CLOSURE
 MAGU.                 1527179:  MAGUTM CHECKSUM
~Parameter Information Block
#MNEM.UNIT       Value        Description
#---------     -----------    ---------------------------
 AV  .mps             1.500000:  Ann Velocity 
 AVMX.mps             2.400000:  Max Ann Veloc 
 AZIF.deg           257.739990:  Azm, Final 
 BHAT.                 Turbine:  BHA Type 
 BROT.°/100'          0.000000:  Build Rotating 
 BS  .in              8.500000:  Bit Size 
 BSZ .in              8.500000:  Bit Size 
 BTPL.psig           43.511005:  Bit Press Loss 
 CABU.                      No:  Customer Abuse 
 TCS .hr            149.515671:  Time Ciculation Ended 
 CV  .mps             3.000000:  Crit Velocity 
 CVMX.mps             4.000000:  Max Crit Veloc 
 DD1 .            Ahmed Bayoud:  Direct Drillr 1 
 DD2 .        Hany Abdel Hafez:  Direct Drillr 2 
 DDSV.                 Turbine:  DD Service 
 DEFF.%              98.000000:  % Det Eff 
 DLRX.°/100'          0.000000:  Dogleg Rot Max 
 DLSO.°/100'          0.000000:  Dogleg Oriented 
 DLSX.°/100'          0.000000:  Dogleg Str Max 
 DRET.      12.28.32 23-Jun-16:  Drill End Time 
 DRST.      14.30.00 17-Jun-16:  Drill Start Tim 
 DTIM.hr            102.349998:  Time Drilling 
 EDEP.m            5254.000000:  End Depth 
 ENG1.         Ahmed Montasser:  Engineer 1 
 ENG2.              Do Dang Sa:  Engineer 2 
 ENG3.           Khaled Khalaf:  Engineer 3 
 ENG4.         Muhammad Mubeen:  Engineer 4 
 ETIM.      05.40.54 26-Jun-16:  End Time 
 FLOI.lpm          1800.000122:  Flow In 
 FLON.lpm          1500.000000:  Flow In Min 
 FLOS.lpm             0.000000:  Fluid Loss 
 FLOX.lpm          1800.000122:  Flow In Max 
 DFT .                   Other:  Mud Type 
 HFLO.                      No:  High Flow 
 HPRE.                      No:  High Pressure 
 HTEM.                      No:  High Temp 
 HYDO.m               1.400000:  Hydro Offset 
 IFIN.deg            10.460000:  Inc, Final 
 IMAX.deg            32.367214:  Inc Max 
 IMIN.deg            11.447388:  Inc Min 
 IMND.m            5236.799805:  Inc Min Depth 
 IMXD.m            4790.299805:  Inc Max Depth 
 JARR.                      No:  Jarring 
 LETM.      12.28.32 23-Jun-16:  Log End Time 
 LOST.hr                     0:  Lost Rig Time 
 LSTM.      14.30.00 17-Jun-16:  Log Start Time 
 MDCL.ppm         23000.000000:  Mud Chlorides 
 MDES.             Fresh Water:  Mud Desc 
 DFD .g/c3            1.170004:  Mud Density 
 MDMN.g/c3            1.160004:  Dens Mud Min 
 MDMX.g/c3            1.170004:  Dens Mud Max 
 PH  .pH              9.400000:  Mud pH 
 MOIL.                       0:  Run Mud Oil % 
 MOWR.                    1 91:  Run Mud OWR 
 MSND.                     0.1:  Run Mud Sand % 
 MSOL.                     6.2:  Run Mud Solids% 
 DFV .spl            73.000000:  Mud Viscosity 
 MWOD.in              6.750000:  MWD Tool OD 
 MWSI.                      No:  Serv Intrp, MWD 
 OTIM.hr            238.111023:  Time Operating 
 PMAX.psig         4000.000000:  Press Op, Max 
 PV  .mPsec          36.000000:  Mud PV 
 RMS .ohmm            0.299000:  Mud Resistivity 
 RMCS.ohmm            0.397000:  Mud Cake Resistivity 
 MCST.degC           35.000000:  Mud Cake Sample Temperature 
 RMFS.ohmm            0.200000:  Mud Filtrate Resistivity 
 RMFT.degC           35.000000:  Mud Filtrate Sample Temperature 
 RMMT.ohmm            0.118100:  Rm @ Max Temp 
 MST .degC           35.000000:  Mud Sample Temperature 
 RUN .                    3300:  Run Number 
 ROPA.m/hr            4.450000:  ROP Avg 
 ROPN.m/hr            2.000000:  ROP Min 
 ROPX.m/hr            7.000000:  ROP Max 
 RPMA.rpm            78.000000:  RPM Surface Avg 
 RPMN.rpm            35.000000:  RPM Surface Min 
 RPMX.rpm            80.000000:  RPM Surface Max 
 RRUN.                    3300:  Rig Run Number 
 RTIM.hr              7.150000:  Time Reaming 
 SAZI.deg           249.699997:  Azm, Start 
 SDEP.m            4799.000000:  Start Depth 
 SIDD.                      No:  Serv Intrp, DD 
 SINC.deg            30.049999:  Inc, Start 
 SPPA.psig         4543.999023:  SPP Avg 
 SPPN.psig         4264.078613:  SPP Min 
 SPPX.psig         4641.173828:  SPP Max 
 STIM.      09.00.00 16-Jun-16:  Start Time 
 SVCS.                 DD, MWD:  Services 
 SVER.                8.300000:  Sperry Version 
 TDAT.m             455.000000:  Tot Depth Attmp 
 TDDF.                      No:  Trip for DD 
 TDLG.m             455.000000:  Tot Depth Loggd 
 TFF .                      No:  Trip for Fail 
 TQAA.f-p         37070.000000:  Torque Abs Avg 
 TQAN.f-p         35000.000000:  Torque Abs Min 
 TQAX.f-p         39000.000000:  Torque Abs Max 
 TRRT.°/100'          0.000000:  Turn Rotating 
 MRT .                     PWD:  Maximum Recorded Temperature 
 TTMX.degC          121.568352:  Max Tool Temp 
 VS01.     AD90473258H2V5WGV2COXF1(6):  Virtual Str1 SN 
 WBMN.klb             4.409245:  WOB Min 
 WITN.           Roger Butters:  Customer Rep 
 WOBA.klb             9.788525:  WOB Avg 
 WOBX.klb            13.227736:  WOB Max 
 YP  .pa             43.000000:  Yield Point 
~Curve Information Block
#MNEM.UNIT                 API CODE     Curve Description
#---------               -----------    ---------------------------
 DEPT.M                 00 000 000 000:  Depth
 DGRCC.api              00 000 000 000:  DGR Comb Gamma Ray BCorr
 ALHSI.in               00 000 000 000:  ALD Hole Size Indicator
 ABR .ohmm              00 000 000 000:  At-Bit Resistivity
 AFRSA.ohmm             00 000 000 000:  AFR Shallow Avg Res
 AFRMA.ohmm             00 000 000 000:  AFR Medium Avg Res
 AFRDA.ohmm             00 000 000 000:  AFR Deep Avg Res
 AFXT.hr                00 000 000 000:  AFR Form Exp Time
 ALCDLC.g/c3            00 000 000 000:  ALD LCRB Comp Density
 ALPELC.NONE            00 000 000 000:  ALD LCRB Pe Factor
 ALDCLC.g/c3            00 000 000 000:  ALD LCRB Den Correction
 TNPL.pu                00 000 000 000:  CTN Porosity Limestone
 DTC .uspf              00 000 000 000:  BAT DTC
 DTRS.uspf              00 000 000 000:  BAT Refracted Shear
 VPVS.NONE              00 000 000 000:  BAT VP/VS
#Other Information
#
#WARRANTY: Halliburton will use its best efforts to furnish customers with 
#accurate information and interpretations that are part of, and incident to, the services 
#provided.  However, Halliburton cannot and does not warrant the accuracy 
#or correctness of such information and interpretations.  Under no circumstances should any 
#such information or interpretation be relied upon as the sole basis for any drilling, 
#completion, production, or financial decision or any procedure involving any risk to the 
#safety of any drilling venture, drilling rig or its crew or any other third party.  The 
#Customer has full responsibility for all drilling, completion and production operation.  
#Halliburton makes no representations or warranties, either expressed or 
#implied, including, but not limited to, the implied warranties of merchantability or fitness 
#for a particular purpose, with respect to the services rendered.  In no event will 
#Halliburton be liable for failure to obtain any particular results or for 
#any damages, including, but not limited to, indirect, special or consequential damages, 
#resulting from the use of any information or interpretation provided by Halliburton.
#
~A   DEPT      DGRCC     ALHSI      ABR      AFRSA     AFRMA     AFRDA     AFXT     ALCDLC    ALPELC    ALDCLC     TNPL       DTC      DTRS      VPVS    
# ...
   5457.2916   18.7790 -999.2500 -999.2500   35.1477   40.0595   38.7468   68.2432    2.4896    3.6808   -0.0024    2.5830   56.6083   86.9712    1.5367
   5457.4440   17.6998 -999.2500 -999.2500   31.4398   34.3003   33.0623   68.2402    2.5028    3.5411    0.0004    2.6869   56.4862   86.7026    1.5352
   5457.5964   12.3313 -999.2500 -999.2500   31.7057   33.8517   32.9289   68.2371    2.5173    3.6161    0.0038    2.7085   57.0716   86.3097    1.5124
   5457.7488   12.0400 -999.2500 -999.2500   35.7857   39.4845   37.6888   68.2339    2.5319    3.8153    0.0004    2.2875   56.6242   85.7626    1.5153
   5457.9012   12.5969 -999.2500 -999.2500   41.7079   47.7710   44.1515   68.2306    2.5506    4.5788   -0.0009    1.9641   54.8003   85.2393    1.5563
   5458.0536   14.4598 -999.2500 -999.2500   49.1514   53.4302   50.5890   68.2273    2.5737    6.1123    0.0093    1.9604   55.3458   85.0014    1.5370
   5458.2060   16.0372 -999.2500 -999.2500   63.2352   60.4307   63.2637   68.2240    2.5738    4.8921    0.0118    2.0602   56.9030   84.8038    1.4910
   5458.3584   13.9403 -999.2500 -999.2500   82.7455   72.9975   83.9590   68.2208    2.5702    4.1194    0.0142    2.1230   57.1352   84.7225    1.4830
   5458.5108   12.8586 -999.2500 -999.2500   98.1519   87.5554  103.2292   68.2174    2.5603    3.5564    0.0160    2.3193   56.7960   84.8461    1.4940
   5458.6632   12.8794 -999.2500 -999.2500   96.4541   88.9928  102.7445   68.2141    2.5394    3.4026    0.0073    2.4049   56.4682   85.2364    1.5096
   5458.8156    8.9237 -999.2500 -999.2500   83.1142   80.7154   87.5300   68.2108    2.5390    3.5562    0.0098    2.4319   57.3123   86.7356    1.5132
   5458.9680   10.6192 -999.2500 -999.2500   66.4315   68.0680   68.1065   68.2077    2.5418    3.9408    0.0121    2.6317   59.4891   90.9677    1.5290
   5459.1204   17.7506 -999.2500 -999.2500   60.9144   65.0198   60.0473   68.2048    2.5454    4.8904    0.0141    3.1134   60.7234   92.4767    1.5234
   5459.2728   27.8107 -999.2500 -999.2500   55.4524   61.5256   50.9168   68.2025    2.5585    5.0948    0.0266    4.0300   62.3603   92.6481    1.4864
   5459.4252   36.0959 -999.2500 -999.2500   37.3183   39.4481   30.9479   68.1980    2.5591    4.3796    0.0254    5.3340   63.7322   92.4622    1.4509
   5459.5776   47.3529 -999.2500 -999.2500   25.8112   23.1728   19.8839   68.1802    2.5551    3.6535    0.0200    6.5424   64.0184   92.4152    1.4436
   5459.7300   67.9776 -999.2500 -999.2500   27.3659   26.1577   21.7193   68.1423    2.5564    3.6196    0.0222    6.8715   64.3265   93.0361    1.4463
   5459.8824   84.0147 -999.2500 -999.2500   37.4131   50.4256   32.7820   68.1316    2.5678    3.7365    0.0366    7.0293   64.5085   95.0399    1.4733
   5460.0348   88.2870 -999.2500 -999.2500   48.1187   78.1883   46.5057   68.1324    2.5658    3.8540    0.0428    6.8627   64.7084   96.9341    1.4979
   5460.1872   94.4075 -999.2500 -999.2500   66.8618   86.3109   68.4614   68.1217    2.5519    3.9366    0.0410    7.0382   65.0218   98.7746    1.5189
   5460.3396   93.3441 -999.2500 -999.2500   98.3825   96.3309   99.3026   68.1141    2.5396    3.6712    0.0215    7.4303   65.7181  103.6424    1.5770
   5460.4920   93.3563 -999.2500 -999.2500  164.0495  149.5372  147.1116   68.1031    2.5631    3.6421    0.0216    7.9290   65.3912  105.7237    1.6169
   5460.6444   90.5044 -999.2500 -999.2500  301.5000  333.1965  225.6896   68.0983    2.5648    3.6602    0.0177    8.5761   65.2977  106.2091    1.6266
   5460.7968   95.6538 -999.2500 -999.2500  365.6243  574.7592  232.5208   68.0926    2.5275    3.6070   -0.0035    9.7611   65.5236  105.4904    1.6100
   5460.9492  107.7132 -999.2500 -999.2500  291.2867  317.7953  165.2516   68.0838    2.4970    3.3174   -0.0217   10.9473   65.4182  103.9016    1.5882
   5461.1016  116.6236 -999.2500 -999.2500  168.4705  133.1488   96.9986   68.0740    2.4920    3.0611   -0.0274   11.9032   64.3372  101.1126    1.5715
   5461.2540  121.6716 -999.2500 -999.2500   95.8660   71.6113   65.8347   68.0689    2.4991    2.9183   -0.0269   12.3115   63.7071   98.9750    1.5535
   5461.4064  135.9706 -999.2500 -999.2500   76.6545   64.7284   60.3507   68.0655    2.5149    2.9621   -0.0230   11.7345   62.9364   96.2997    1.5299
   5461.5588  143.8099 -999.2500 -999.2500   65.7370   55.4529   47.2695   68.0619    2.5403    3.3552   -0.0138   11.2399   61.7753   93.8223    1.5189
   5461.7112  147.1675 -999.2500 -999.2500   40.7399   32.1381   28.9088   68.0584    2.5655    3.9011    0.0107   10.6678   60.8474   92.6255    1.5223
   5461.8636  125.3658 -999.2500 -999.2500   27.2215   20.8966   20.7024   68.0548    2.5820    4.5334    0.0433   10.2915   60.2270   91.4984    1.5192
   5462.0160   64.1396 -999.2500 -999.2500   23.7964   19.5351   19.6747   68.0513    2.5363    4.3365    0.0387    9.9100   59.5130   90.6868    1.5239
   5462.1684   36.7893 -999.2500 -999.2500   22.5139   20.2338   19.7394   68.0478    2.5205    4.0622    0.0379    8.6545   58.7652   90.2521    1.5359
   5462.3208   26.4208 -999.2500 -999.2500   21.8580   20.5886   19.7572   68.0442    2.5095    3.7638    0.0271    6.6724   58.6147   90.5600    1.5450
   5462.4732   22.1733 -999.2500 -999.2500   20.8308   19.6490   19.1970   68.0407    2.4887    3.2542   -0.0005    5.7673   58.7154   91.0809    1.5512
   5462.6256   22.6159 -999.2500 -999.2500   19.7374   18.0404   18.5508   68.0371    2.4944    3.2716    0.0022    5.3760   58.5535   91.3833    1.5607
   5462.7780   19.5464 -999.2500 -999.2500   19.6912   17.4553   18.8421   68.0337    2.4948    3.2928    0.0062    5.0839   58.3696   91.3162    1.5645
   5462.9304   23.9387 -999.2500 -999.2500   19.9832   17.5331   19.6311   68.0302    2.4999    3.3114    0.0122    4.8088   58.3025   90.8442    1.5581
   5463.0828   26.5254 -999.2500 -999.2500   22.6424   20.0415   23.0858   68.0267    2.5317    3.6296    0.0405    5.0884   58.0941   90.2528    1.5535
   5463.2352   25.5556 -999.2500 -999.2500   30.0913   27.5106   31.5780   68.0231    2.5358    4.7949    0.0830    4.8681   57.7224   89.2896    1.5469
   5463.3876   21.9364 -999.2500 -999.2500   36.5250   34.8465   38.1757   68.0196    2.4808    4.6173    0.0520    4.5195   57.2577   88.5858    1.5472
   5463.5400   19.4760 -999.2500 -999.2500   34.6323   33.5933   34.9907   68.0161    2.4153    3.7910   -0.0079    4.0644   56.6527   88.6389    1.5647
   5463.6924   21.6021 -999.2500 -999.2500   30.0928   29.0352   28.6551   68.0126    2.4311    3.6973   -0.0125    3.3789   56.4595   88.7843    1.5727
   5463.8448   38.7708 -999.2500 -999.2500   23.4396   21.5210   20.7889   68.0090    2.4820    3.9830    0.0064    3.9791   57.0759   89.1011    1.5619
   5463.9972   75.8957 -999.2500 -999.2500   19.5301   17.0370   16.6712   68.0055    2.5065    4.1580    0.0218    6.0021   58.7451   89.4554    1.5232
   5464.1496  102.1148 -999.2500 -999.2500   19.1802   16.6524   16.4794   68.0020    2.5118    4.2653    0.0378    7.7875   59.1027   89.3759    1.5122
   5464.3020   85.4583 -999.2500 -999.2500   20.9193   18.8838   18.4786   67.9985    2.4676    4.0305    0.0215    8.1475   58.7454   89.4441    1.5226
   5464.4544   52.1392 -999.2500 -999.2500   24.4440   22.7776   22.2309   67.9950    2.4565    3.7791    0.0137    8.1367   58.7581   89.8275    1.5288
   5464.6068   37.1318 -999.2500 -999.2500   26.4554   24.7517   24.6436   67.9915    2.4696    3.7658    0.0215    7.2721   58.6778   90.1919    1.5371
   5464.7592   32.0046 -999.2500 -999.2500   26.2482   24.6035   25.4626   67.9879    2.4972    4.1519    0.0484    4.6748   58.1024   90.4527    1.5569
   5464.9116   39.3874 -999.2500 -999.2500   28.0621   27.4286   28.9825   67.9844    2.4872    4.8222    0.0710    4.6356   57.6234   90.5022    1.5706
   5465.0640   50.4074 -999.2500 -999.2500   28.2411   29.3259   30.3845   67.9809    2.4619    4.8619    0.0622    4.6636   57.9832   89.9348    1.5512
   5465.2164   58.7065 -999.2500 -999.2500   23.9837   25.5866   25.5696   67.9775    2.4227    4.6617    0.0371    4.6791   58.0382   89.6452    1.5447
