~Version
 VERS              .         3                             : CWLS LOG ASCII STANDARD - VERSION 3.0
 WRAP              .         NO                            : ONE LINE PER DEPTH STEP
 DLM               .         SPACE                         : DELIMITING CHARACTER(SPACE TAB OR COMMA)
~Well Information
#_______________________________________________________________________________
#
#PARAMETER_NAME    .UNIT     VALUE                         : DESCRIPTION
#_______________________________________________________________________________
STRT               .F        4494                          : First reference value
STOP               .F        7635                          : Last reference value
STEP               .F        0.5                           : Step increment
NULL               .         -9999                         : Missing value
WELL               .         SY027104H                     : Well name
ORIGINALWELLNAME   .         Well                          : 
RANG               .                                       : 
REGN               .         Abu Dhabi                     : 
AZTC               .deg      0.383835                      : 
GRDC               .deg      1.093917                      : 
WHEW               .ft       0.000000                      : 
TDL                .ft       3000.000000                   : 
TOWN               .                                       : 
NREF               .         2                             : 
DOE                .         AD-FE-0007255267              : 
EGL                .ft       407.799988                    : 
GVFD               .g        1.000000                      : 
COLG               .         186HAL_lg.bmp                 : 
WHNS               .ft       0.000000                      : 
CREF               .         Ellipsoid Clarke - 1880       : 
VSDR               .deg      55.740002                     : 
FTOP               .         Formation Tops                : 
LLGR               .         Latitude/Longitude            : 
EPD                .ft       0.000000                      : 
WDMS               .ft       0.000000                      : 
DFWL               .ft       0.000000                      : 
MFLD               .nT       42523.898438                  : 
GREF               .         Ellipsoid World Geodetic System: 
CTRY               .         UN                            : Two letter Internet country code
COUNTRY            .         United Arab Emirates          : 
DFWT               .                                       : 
CNTY               .         Abu Dhabi                     : 
VSEW               .ft       0.000000                      : 
UWI                .         AD-FE-0007255267              : 
CSGD               .ft       4170.000000                   : 
STAT               .         Abu Dhabi                     : 
APD                .ft       429.000000                    : 
BASE               .         Abu Dhabi                     : 
VSNS               .ft       0.000000                      : 
DCON               .         Al-Mansoory                   : 
API                .         AD-FE-0007255267              : 
GPMT               .                                       : 
CSGL               .ft       4170.000000                   : 
MDEC               .deg      1.477752                      : 
LONG               .deg      53.809174                     : 
CSGS               .in       9.625000                      : 
SPUD               .         20-Mar-10                     : 
MDS                .         Win MagUTM                    : 
CMER               .deg      51.000000                     : 
SRVC               .         NDC                           : 
CSGW               .lbpf     47.000000                     : 
SON                .         AD-FE-0007255267              : 
TVDS               .ft       429.000000                    : 
LMF                .         Kelly Bushing                 : 
CGSY               .         SS CLRK51                     : 
EKB                .ft       429.000000                    : 
HPTY               .         0                             : 
MWDS               .         Dubai                         : 
GGSY               .         LL                            : 
RCST               .$/da     0.000000                      : 
FLD                .         Shah                          : 
SVYD               .         Survey_DS                     : 
CCDE               .         UTM Clarke 1880 (CM 51), Meters: 
AGAP               .ft       0.000000                      : 
LOC                .                                       : 
DFSL               .ft       0.000000                      : 
EDF                .ft       428.000031                    : 
UNIT               .         166264                        : 
RIG                .         ND-50                         : 
VSC                .         0                             : 
LEAS               .                                       : 
XYGR               .         UTM Zones, Northern Hemisphere, Meters: 
GCDE               .         Generic Lat/Long's, Degrees, -180 ==> +180: 
DFST               .                                       : 
ILTD               .         Lithology                     : 
DMOD               .         Drill Model                   : 
JOBN               .         AD-FE-0007255267              : 
LATI               .deg      22.900974                     : 
DMF                .         Kelly Bushing                 : 
STIM               .         00.00.00 28-Mar-10            : 
CULG               .                                       : 
SECT               .                                       : 
PDAT               .         Mean Sea Level                : 
CPJM               .                                       : 
STRD               .ft       4648.000000                   : 
WTYP               .         2                             : 
COMP               .         ADCO                          : 
MAGU               .         1453103                       : 
PROV               .         Abu Dhabi                     : 
MMDL               .         bggm2009.dat                  : 
UTMX               .m        788186.312500                 : 
UTMY               .m        2535096.000000                : 
DATE               .         00.00.00 03-Apr-10            : 
TDD                .ft       7648.000000                   : 
MDIP               .deg      34.939442                     : 
GDAT               .                                       : 
LIC                .                                       : 
~Parameter Information Block
#_______________________________________________________________________________
#
#PARAMETER_NAME    .UNIT     VALUE                         : DESCRIPTION
#_______________________________________________________________________________
SET                .         WL_FINAL                      : 
LMF                .         ORTKB                         : Logging Measured From (Name of Logging Elevation Reference)
APD                .F        428.000000                    : Elevation of Depth Reference (LMF) above Permanent Datum
EPD                .F        0.000000                      : Elevation of Permanent Datum above Mean Sea Level
RUN                .         1                             : RUN NUMBER
PDAT               .         MSL                           : Permanent Datum
~Curve Information
#_______________________________________________________________________________
#
#LOGNAME           .UNIT     LOG_ID                        : DESCRIPTION
#_______________________________________________________________________________
DEPT               .F                                      : DEPTH (BOREHOLE) -F10 {F}
C1                 .IN                                     : Caliper 1 -F13 {F}
C2                 .IN                                     : Caliper 2 -F13 {F}
HCGR               .GAPI                                   : HNGS Computed Gamma Ray -F13 {F}
HSGR               .GAPI                                   : HNGS Standard Gamma Ray -F13 {F}
RT_HRLT            .OHMM                                   : HRLT Computed True Resistivity -F13 {F}
RXO_HRLT           .OHMM                                   : HRLT Computed Invaded Zone Resistivity -F13 {F}
TENS               .LBF                                    : Cable Tension -F13 {F}
~Ascii
# ...
6541.5     6.0732     5.9176     1.0526     35.8712    8.1813     16.4463    2841      
6542       6.0846     5.9248     0.7683     36.241     8.5637     17.7782    2876      
6542.5     6.1187     5.9392     1.9092     36.4613    8.3467     16.3105    2912      
6543       6.1263     5.932      1.4044     35.6391    9.0296     17.2864    3014      
6543.5     6.1263     5.9392     1.8388     34.9678    8.8779     17.4199    3038      
6544       6.1263     5.9751     1.2101     34.5206    9.0741     16.8448    2967      
6544.5     6.1187     5.9392     1.5113     34.5567    9.2107     17.5089    2951      
6545       6.1111     5.9104     1.1069     36.14      9.2249     18.9565    2822      
6545.5     6.1111     5.8817     1.8597     36.6088    8.6002     18.0417    2829      
6546       6.1149     5.8673     2.7639     38.5385    7.5703     16.8437    2990      
6546.5     6.1339     5.9176     2.288      38.5845    7.8272     16.917     3014      
6547       6.1377     5.9176     2.9899     41.1285    7.4486     16.0979    3041      
6547.5     6.1377     5.9104     3.1696     38.9404    7.0425     15.6188    3046      
6548       6.1339     5.932      2.2891     38.7074    6.5184     14.4198    2932      
6548.5     6.149      5.932      2.8546     35.6007    7.2583     15.994     2802      
6549       6.149      5.9248     3.0408     37.2948    7.023      15.3751    2841      
6549.5     6.1414     5.9463     3.5767     38.3406    6.777      14.2603    2874      
6550       6.1339     5.9176     3.3382     41.6512    7.1076     15.0631    3016      
6550.5     6.1566     5.9248     4.2232     42.4931    7.1884     15.2776    2992      
6551       6.1414     5.9428     4.7128     43.6338    7.1513     15.4386    3000      
6551.5     6.0278     5.9248     3.6785     43.7425    7.145      15.5006    2812      
6552       6.0505     5.9463     4.0565     42.9331    6.4015     14.3938    2812      
6552.5     6.0354     5.9463     3.6982     40.9192    6.4685     14.0623    2816      
6553       5.9823     5.9679     3.3498     41.0464    5.5921     12.7666    2872      
6553.5     5.9217     5.9248     3.3166     40.2365    6.9077     14.9354    2951      
6554       5.9141     5.932      2.4516     40.7328    8.0984     16.9237    2967      
6554.5     5.9179     5.9104     2.6346     40.2582    8.0467     15.99      3057      
6555       5.9217     5.9248     3.0529     40.7529    9.0861     17.0319    2877      
6555.5     5.9217     5.9392     3.29       40.1849    9.6898     19.3083    2810      
6556       5.9293     5.9248     2.7551     37.4383    7.9602     17.4975    2796      
6556.5     5.9217     5.8961     1.9159     37.9319    8.0859     17.8738    2790      
6557       5.9065     5.8889     1.867      36.634     7.3966     16.9838    2936      
6557.5     5.9217     5.9104     2.5107     37.1289    5.5276     13.6884    2968      
6558       5.9179     5.9104     2.3108     35.7426    6.227      15.049     3017      
6558.5     5.9141     5.8961     2.5565     35.1186    6.2679     15.4042    3004      
6559       5.9103     5.9032     2.2321     34.2347    6.3614     15.6312    2873      
6559.5     5.9255     5.9284     2.695      34.1079    7.8284     18.5602    2830      
6560       5.9217     5.9032     3.0331     35.2311    9.4264     20.994     2861      
6560.5     5.9293     5.9284     3.1474     37.2762    8.5174     19.0111    2940      
6561       5.9368     5.9104     3.4162     36.4017    7.8432     18.6227    2968      
6561.5     5.9141     5.9032     3.8588     35.7091    7.8117     18.4428    2975      
6562       5.9141     5.9104     3.6774     33.3712    6.6885     16.0989    2914      
6562.5     5.9141     5.932      3.6418     32.8717    5.3056     13.5695    2959      
6563       5.9293     5.9104     2.7828     30.9977    7.0068     16.6324    2889      
6563.5     5.8952     5.9248     2.7441     30.6974    6.6247     16.1142    2824      
6564       5.8686     5.9032     2.8616     30.3936    7.1359     17.4658    2783      
6564.5     5.9217     5.9176     3.7733     32.4815    7.1899     17.3916    2951      
6565       5.9179     5.9104     3.6136     33.7609    7.0448     17.0637    2950      
6565.5     5.9217     5.9248     2.7699     33.9183    6.2652     16.0818    3021      
6566       5.9217     5.9248     2.3607     33.1635    4.4946     11.7828    2881      
6566.5     5.9293     5.9392     1.6589     32.2751    4.1999     11.2562    2920      
6567       5.9293     5.9248     1.2504     31.8663    5.4461     14.1732    2847      
6567.5     5.9065     5.9032     0.9805     31.3927    5.6662     14.8725    2836      
6568       5.9141     5.9176     0.8827     30.992     5.8148     15.0877    2942      
6568.5     5.9141     5.9104     1.0972     30.3642    5.9273     14.5342    2912      
6569       5.9141     5.9104     1.3597     30.579     5.9654     14.4792    2987      
6569.5     5.9179     5.9104     1.3579     31.371     6.566      15.2284    2967      
6570       5.9217     5.9176     0.451      32.0038    6.8381     16.4525    2860      
6570.5     5.9293     5.9104     0.1659     31.9996    7.3863     17.8963    2839      
6571       5.9255     5.9068     0.3538     32.0477    7.8111     19.1583    2866      
6571.5     5.9065     5.8961     1.0144     31.7924    7.8493     19.6359    2856      
6572       5.9141     5.8961     1.7297     31.3089    7.7821     19.2905    2865      
6572.5     5.9293     5.8961     2.0446     29.7371    7.3576     16.922     2969      
6573       5.9103     5.9032     2.4846     31.2859    7.0449     18.3341    2980      
6573.5     5.9065     5.8961     2.8481     31.4535    7.0619     18.9078    2876      
6574       5.9141     5.8961     2.8925     33.2306    4.9563     12.382     2983      
6574.5     5.9179     5.9032     2.2115     33.1939    3.452      8.8027     2836      
6575       5.9217     5.9248     2.5547     32.3561    7.1963     18.7567    2854      
6575.5     5.9217     5.9176     3.3735     32.1225    7.8289     21.9529    2908      
6576       5.9141     5.9176     3.667      32.4491    7.3616     18.5676    3005      
6576.5     5.9293     5.9284     4.122      35.9602    7.5937     17.7524    2967      
6577       5.9103     5.9248     3.5709     34.9431    7.4435     17.3195    2898      
6577.5     5.9179     5.9032     3.2032     34.9078    5.2667     13.518     2910      
6578       5.9103     5.9248     2.745      32.6334    5.2478     14.2545    2806      
6578.5     5.9217     5.9248     2.6305     33.0771    8.2942     21.4792    2862      
6579       5.9103     5.9392     2.1907     30.7216    5.8492     14.509     2794      
6579.5     5.9217     5.9392     2.4565     30.3212    5.1292     11.9407    2889      
6580       5.9217     5.9176     3.058      29.6373    6.3755     16.1551    2984      
6580.5     5.9141     5.9248     2.9233     31.1506    6.7227     17.0974    3011      
6581       5.9141     5.9176     2.9706     31.4689    6.7321     16.3135    2902      
6581.5     5.9065     5.9248     2.6613     31.6964    6.586      16.2619    2823      
6582       5.9179     5.9284     2.6783     30.7854    6.8533     16.6202    2803      
6582.5     5.9141     5.932      2.782      30.3182    6.842      16.5066    2823      
6583       5.9293     5.9176     3.2986     31.3452    6.5992     15.7177    2845      
6583.5     5.9217     5.932      3.4849     32.6043    6.1052     14.5279    2948      
6584       5.9065     5.914      2.9853     34.669     7.0686     16.3148    2967      
6584.5     5.9179     5.9032     2.9002     34.1588    6.4431     15.5702    2930      
6585       5.9217     5.9032     3.7172     34.144     6.9663     17.421     2806      
6585.5     5.9217     5.8889     3.3225     33.7066    6.3672     15.5629    2896      
6586       5.9368     5.9032     2.9401     34.684     3.943      10.3902    2766      
6586.5     5.9065     5.9176     2.8983     34.7125    4.2972     11.1505    2791      
