~Version Information
 VERS.                  2.0:   CWLS log ASCII Standard -VERSION 2.0
 WRAP.                   NO:   One line per depth step
~Well Information Block
#MNEM.UNIT     VALUE/NAME     DESCRIPTION
#---------     -----------    ---------------------------
 STRT.M              5223.0528: START DEPTH
 STOP.M              5533.9488: STOP DEPTH
 STEP.M                 0.1524: STEP DEPTH
 NULL.               -999.2500: NULL VALUE
 DFWT.                        :  DIST FWL TEXT
 DFST.                        :  DIST FSL TEXT
 DMF .             Drill Floor:  DRILL MEAS FROM
 STIM.      11.30.00 09-Jul-16:  START TIME
 DATE.      11.29.04 14-Aug-16:  END TIME
 SPUD.               17-Aug-15:  SPUD DATE
 NREF.                    Grid:  NORTH REFERENCE
 HPTY.       Minimum Curvature:  HOLE POS TYPE
 DMOD.             Drill Model:  DRILL MOD DESC
 SVYD.                  Survey:  SURVEY DESC
 ILTD.               Lithology:  INTERP LTH DESC
 FTOP.          Formation Tops:  FORM TOPS DESC
 WELL.              AF011-3D-1:  WELL NAME
 COMP.               TOTAL-ABK:  COMPANY
 SON .        AD-XX-0902156848:  JOB NUMBER
 GCDE.     Generic Lat/Long's, Degrees, -180 ==> +180:  GEO COORD DESC
 CCDE.     UTM Clarke 1880 (CM 51), Meters:  CART COORD DESC
 GGSY.                      LL:  GEO GRID SYS
 CGSY.               SS CLRK51:  CART GRID SYS
 GREF.     Ellipsoid World Geodetic System :  GEO REFERENCE
 CREF.     Ellipsoid Clarke - 1880:  CART REFERENCE
 MMDL.            bggm2016.dat:  MAGNETIC MODEL
 MMDD.            20 May, 2016:  MAG DATA DATE
 MDS .              Win MagUTM:  MAG DATA SOURCE
 LLGR.      Latitude/Longitude:  LLGROUP
 XYGR.     UTM Zones, Northern Hemisphere, Meters:  XYGROUP
 PDAT.          Mean Sea Level:  PERMANENT DATUM
 WTYP.                Deviated:  WELL TYPE
 BASE.               Abu Dhabi:  LOGGING EQUIPMENT BASE LOCATION
 REGN.     Middle East/North Africa:  REGION
 PROV.               Abu Dhabi:  PROVINCE
 STAT.               Abu Dhabi:  STATE NAME
 CTRY.     United Arab Emirates:  COUNTRY NAME
 FLD .         Abu Al Bukhoosh:  FIELD NAME
 SRVC.                  SAIPEM:  CONTRACTOR
 MWDS.                Musaffah:  MWD SHOP
 RIG .           Perro Negro 8:  RIG NAME
 CNTY.               Abu Dhabi:  COUNTY NAME
 DCON.             HALLIBURTON:  DIRECTNL CONTR
 UNIT.                    9804:  LOGGING EQUIPMENT ID
 DOE .        AD-XX-0902156848:  DOE NUMBER
 API .                        :  API NUMBER
 UWI .                        :  UNIQUE WELL IDENTIFIER
 LOC .                        :  LOCATION
 LMF .             Drill Floor:  LOG MEASURED FROM
 TVDS.m              43.899999:  TVDSS CORRECTN
 LATI.deg            25.504513:  LATITUDE
 LONG.deg            53.120396:  LONGITUDE
 WHNS.m               0.000000:  WELL HEAD N/S
 WHEW.m               0.000000:  WELL HEAD E/W
 UTMX.m          713123.300043:  UTM X
 UTMY.m         2822281.299893:  UTM Y
 DFWL.m               0.000000:  DISTANCE FWL
 DFSL.m               0.000000:  DISTANCE FSL
 SDEP.m            5253.990000:  START DEPTH
 TDD .m            5543.669658:  TOTAL DEPTH (DRILLER)
 VSDR.deg           249.940002:  VERT SEC DIRECT
 GVFD.g               1.000000:  GRAVITY FIELD
 MFLD.nT          43940.839844:  MAGNETIC FIELD
 MDIP.deg            39.918472:  MAGNETIC DIP
 MDEC.deg             2.250056:  MAGNETIC DECL
 GRDC.deg             0.913350:  GRID CORRECTION
 AZTC.deg             1.336706:  AZM TOTAL CORR
 EPD .m               0.000000:  ELEVATION
 EGL .m             -45.400001:  GROUND ELEVATION
 WDMS.m              45.400001:  WD ELEV
 APD .m              43.899999:  DEPTH ABOVE PD
 MMDE.m               0.000000:  MAGUTM CALC DEP
 CMER.deg            51.000000:  CENTRL MERIDIAN
 AGAP.m              23.099999:  AIR GAP
 EKB .m              43.899999:  KB ELEVATION
 EDF .m              43.899999:  DF ELEVATION
 VSC .                       0:  VS TO CLOSURE
 MAGU.                 1527179:  MAGUTM CHECKSUM
~Parameter Information Block
#MNEM.UNIT       Value        Description
#---------     -----------    ---------------------------
 AV  .mps             1.500000:  Ann Velocity 
 AVMX.mps             2.400000:  Max Ann Veloc 
 AZIF.deg           257.739990:  Azm, Final 
 BHAT.                 Turbine:  BHA Type 
 BROT.°/100'          0.000000:  Build Rotating 
 BS  .in              8.500000:  Bit Size 
 BSZ .in              8.500000:  Bit Size 
 BTPL.psig           43.511005:  Bit Press Loss 
 CABU.                      No:  Customer Abuse 
 TCS .hr            149.515671:  Time Ciculation Ended 
 CV  .mps             3.000000:  Crit Velocity 
 CVMX.mps             4.000000:  Max Crit Veloc 
 DD1 .            Ahmed Bayoud:  Direct Drillr 1 
 DD2 .        Hany Abdel Hafez:  Direct Drillr 2 
 DDSV.                 Turbine:  DD Service 
 DEFF.%              98.000000:  % Det Eff 
 DLRX.°/100'          0.000000:  Dogleg Rot Max 
 DLSO.°/100'          0.000000:  Dogleg Oriented 
 DLSX.°/100'          0.000000:  Dogleg Str Max 
 DRET.      12.28.32 23-Jun-16:  Drill End Time 
 DRST.      14.30.00 17-Jun-16:  Drill Start Tim 
 DTIM.hr            102.349998:  Time Drilling 
 EDEP.m            5254.000000:  End Depth 
 ENG1.         Ahmed Montasser:  Engineer 1 
 ENG2.              Do Dang Sa:  Engineer 2 
 ENG3.           Khaled Khalaf:  Engineer 3 
 ENG4.         Muhammad Mubeen:  Engineer 4 
 ETIM.      05.40.54 26-Jun-16:  End Time 
 FLOI.lpm          1800.000122:  Flow In 
 FLON.lpm          1500.000000:  Flow In Min 
 FLOS.lpm             0.000000:  Fluid Loss 
 FLOX.lpm          1800.000122:  Flow In Max 
 DFT .                   Other:  Mud Type 
 HFLO.                      No:  High Flow 
 HPRE.                      No:  High Pressure 
 HTEM.                      No:  High Temp 
 HYDO.m               1.400000:  Hydro Offset 
 IFIN.deg            10.460000:  Inc, Final 
 IMAX.deg            32.367214:  Inc Max 
 IMIN.deg            11.447388:  Inc Min 
 IMND.m            5236.799805:  Inc Min Depth 
 IMXD.m            4790.299805:  Inc Max Depth 
 JARR.                      No:  Jarring 
 LETM.      12.28.32 23-Jun-16:  Log End Time 
 LOST.hr                     0:  Lost Rig Time 
 LSTM.      14.30.00 17-Jun-16:  Log Start Time 
 MDCL.ppm         23000.000000:  Mud Chlorides 
 MDES.             Fresh Water:  Mud Desc 
 DFD .g/c3            1.170004:  Mud Density 
 MDMN.g/c3            1.160004:  Dens Mud Min 
 MDMX.g/c3            1.170004:  Dens Mud Max 
 PH  .pH              9.400000:  Mud pH 
 MOIL.                       0:  Run Mud Oil % 
 MOWR.                    1 91:  Run Mud OWR 
 MSND.                     0.1:  Run Mud Sand % 
 MSOL.                     6.2:  Run Mud Solids% 
 DFV .spl            73.000000:  Mud Viscosity 
 MWOD.in              6.750000:  MWD Tool OD 
 MWSI.                      No:  Serv Intrp, MWD 
 OTIM.hr            238.111023:  Time Operating 
 PMAX.psig         4000.000000:  Press Op, Max 
 PV  .mPsec          36.000000:  Mud PV 
 RMS .ohmm            0.299000:  Mud Resistivity 
 RMCS.ohmm            0.397000:  Mud Cake Resistivity 
 MCST.degC           35.000000:  Mud Cake Sample Temperature 
 RMFS.ohmm            0.200000:  Mud Filtrate Resistivity 
 RMFT.degC           35.000000:  Mud Filtrate Sample Temperature 
 RMMT.ohmm            0.118100:  Rm @ Max Temp 
 MST .degC           35.000000:  Mud Sample Temperature 
 RUN .                    3300:  Run Number 
 ROPA.m/hr            4.450000:  ROP Avg 
 ROPN.m/hr            2.000000:  ROP Min 
 ROPX.m/hr            7.000000:  ROP Max 
 RPMA.rpm            78.000000:  RPM Surface Avg 
 RPMN.rpm            35.000000:  RPM Surface Min 
 RPMX.rpm            80.000000:  RPM Surface Max 
 RRUN.                    3300:  Rig Run Number 
 RTIM.hr              7.150000:  Time Reaming 
 SAZI.deg           249.699997:  Azm, Start 
 SDEP.m            4799.000000:  Start Depth 
 SIDD.                      No:  Serv Intrp, DD 
 SINC.deg            30.049999:  Inc, Start 
 SPPA.psig         4543.999023:  SPP Avg 
 SPPN.psig         4264.078613:  SPP Min 
 SPPX.psig         4641.173828:  SPP Max 
 STIM.      09.00.00 16-Jun-16:  Start Time 
 SVCS.                 DD, MWD:  Services 
 SVER.                8.300000:  Sperry Version 
 TDAT.m             455.000000:  Tot Depth Attmp 
 TDDF.                      No:  Trip for DD 
 TDLG.m             455.000000:  Tot Depth Loggd 
 TFF .                      No:  Trip for Fail 
 TQAA.f-p         37070.000000:  Torque Abs Avg 
 TQAN.f-p         35000.000000:  Torque Abs Min 
 TQAX.f-p         39000.000000:  Torque Abs Max 
 TRRT.°/100'          0.000000:  Turn Rotating 
 MRT .                     PWD:  Maximum Recorded Temperature 
 TTMX.degC          121.568352:  Max Tool Temp 
 VS01.     AD90473258H2V5WGV2COXF1(6):  Virtual Str1 SN 
 WBMN.klb             4.409245:  WOB Min 
 WITN.           Roger Butters:  Customer Rep 
 WOBA.klb             9.788525:  WOB Avg 
 WOBX.klb            13.227736:  WOB Max 
 YP  .pa             43.000000:  Yield Point 
~Curve Information Block
#MNEM.UNIT                 API CODE     Curve Description
#---------               -----------    ---------------------------
 DEPT.M                 00 000 000 000:  Depth
 DGRCC.api              00 000 000 000:  DGR Comb Gamma Ray BCorr
 ALHSI.in               00 000 000 000:  ALD Hole Size Indicator
 ABR .ohmm              00 000 000 000:  At-Bit Resistivity
 AFRSA.ohmm             00 000 000 000:  AFR Shallow Avg Res
 AFRMA.ohmm             00 000 000 000:  AFR Medium Avg Res
 AFRDA.ohmm             00 000 000 000:  AFR Deep Avg Res
 AFXT.hr                00 000 000 000:  AFR Form Exp Time
 ALCDLC.g/c3            00 000 000 000:  ALD LCRB Comp Density
 ALPELC.NONE            00 000 000 000:  ALD LCRB Pe Factor
 ALDCLC.g/c3            00 000 000 000:  ALD LCRB Den Correction
 TNPL.pu                00 000 000 000:  CTN Porosity Limestone
 DTC .uspf              00 000 000 000:  BAT DTC
 DTRS.uspf              00 000 000 000:  BAT Refracted Shear
 VPVS.NONE              00 000 000 000:  BAT VP/VS
#Other Information
#
#WARRANTY: Halliburton will use its best efforts to furnish customers with 
#accurate information and interpretations that are part of, and incident to, the services 
#provided.  However, Halliburton cannot and does not warrant the accuracy 
#or correctness of such information and interpretations.  Under no circumstances should any 
#such information or interpretation be relied upon as the sole basis for any drilling, 
#completion, production, or financial decision or any procedure involving any risk to the 
#safety of any drilling venture, drilling rig or its crew or any other third party.  The 
#Customer has full responsibility for all drilling, completion and production operation.  
#Halliburton makes no representations or warranties, either expressed or 
#implied, including, but not limited to, the implied warranties of merchantability or fitness 
#for a particular purpose, with respect to the services rendered.  In no event will 
#Halliburton be liable for failure to obtain any particular results or for 
#any damages, including, but not limited to, indirect, special or consequential damages, 
#resulting from the use of any information or interpretation provided by Halliburton.
#
~A   DEPT      DGRCC     ALHSI      ABR      AFRSA     AFRMA     AFRDA     AFXT     ALCDLC    ALPELC    ALDCLC     TNPL       DTC      DTRS      VPVS    
# ...
   5400.7512   30.6637 -999.2500 -999.2500    6.2212    5.4703    5.0240   69.6658    2.5818    9.8813    0.3091   11.6044   68.7593  103.3554    1.5032
   5400.9036   30.8931 -999.2500 -999.2500    6.6151    5.8649    5.4170   69.6628    2.4762    7.6875    0.1620   11.2030   68.0568  102.3695    1.5042
   5401.0560   33.1626 -999.2500 -999.2500    7.0662    6.5475    6.0013   69.6589    2.4307    6.1572    0.0776   11.2983   68.1836  101.4874    1.4885
   5401.2084   31.7145 -999.2500 -999.2500    7.1776    6.9312    6.2479   69.6557    2.4697    4.9381    0.0578   11.2463   68.2313  100.5382    1.4735
   5401.3608   26.8815 -999.2500 -999.2500    7.3955    7.1399    6.5115   69.6531    2.5384    6.8071    0.1415   10.4145   68.3733  100.1863    1.4655
   5401.5132   20.3173 -999.2500 -999.2500    7.7809    7.1325    6.9523   69.6501    2.6002    9.0069    0.2487    9.7721   67.4687  101.4823    1.5045
   5401.6656   19.7216 -999.2500 -999.2500    8.2475    7.2712    7.7129   69.6322    2.5954   10.7281    0.2863    9.7203   66.3534  102.4231    1.5439
   5401.8180   15.9803 -999.2500 -999.2500    9.1987    8.0294    8.7949   69.6065    2.4984   11.4964    0.2126    9.6316   66.3406  104.0340    1.5682
   5401.9704   17.7740 -999.2500 -999.2500   10.7059    9.4447   10.2236   69.5852    2.5415    9.7677    0.2380    9.9265   67.1380  105.6238    1.5733
   5402.1228   23.5376 -999.2500 -999.2500   10.0230    8.7059    9.2978   69.5730    2.5540    9.0784    0.2556   11.1990   68.1770  106.4894    1.5621
   5402.2752   29.5229 -999.2500 -999.2500    8.1069    6.7296    7.3286   69.5689    2.5497    8.8379    0.2728   12.5162   69.5058  107.2635    1.5434
   5402.4276   25.9554 -999.2500 -999.2500    6.8713    5.3867    6.1357   69.5591    2.5457    9.1760    0.2905   12.7468   69.8861  106.6170    1.5256
   5402.5800   25.7767 -999.2500 -999.2500    6.2048    4.9993    5.4791   69.5474    2.5164    8.9964    0.2607   12.1993   68.0812  104.0595    1.5285
   5402.7324   25.6134 -999.2500 -999.2500    6.3347    5.5333    5.4250   69.5417    2.4854    8.4842    0.2112   11.5342   66.6810  101.6532    1.5243
   5402.8848   35.0785 -999.2500 -999.2500    7.5865    7.5103    6.0909   69.5367    2.4528    7.1817    0.1160   11.2999   65.3745   97.7168    1.4948
   5403.0372   48.1394 -999.2500 -999.2500    9.4661   10.4806    7.2625   69.5267    2.5201    5.6362    0.0763   10.7788   63.5679   96.5795    1.5204
   5403.1896   49.5289 -999.2500 -999.2500   10.9959   11.3500    8.7731   69.5194    2.5770    5.3124    0.0937    9.6350   61.9153   96.4027    1.5573
   5403.3420   39.9667 -999.2500 -999.2500   11.6870   10.0363   10.0124   69.5117    2.6508    6.2263    0.1829    8.7353   62.2598   97.4204    1.5648
   5403.4944   30.5543 -999.2500 -999.2500   11.2651    9.3985    9.8855   69.5069    2.7495    8.5004    0.3532    8.7388   63.2490   98.1189    1.5514
   5403.6468   28.5943 -999.2500 -999.2500   10.6563    9.1839    9.3040   69.5033    2.6548    9.5480    0.3445    9.0023   63.9481   98.3189    1.5375
   5403.7992   32.0779 -999.2500 -999.2500   10.5987    9.4091    9.1903   69.4994    2.5960    9.2322    0.3055    8.7794   64.4988   99.1580    1.5373
   5403.9516   34.3798 -999.2500 -999.2500   11.1259   10.1481    9.6397   69.4960    2.5424    8.7310    0.2627    9.1032   65.0742  100.2768    1.5409
   5404.1040   32.9675 -999.2500 -999.2500   10.3448    9.1708    8.8222   69.4925    2.5193    9.2355    0.2631    9.7948   65.2143  100.0545    1.5342
   5404.2564   36.3667 -999.2500 -999.2500    8.6148    7.2886    7.1084   69.4891    2.5237    9.2999    0.2724   10.4756   64.7443   98.6259    1.5232
   5404.4088   31.0312 -999.2500 -999.2500    7.8422    6.4708    6.3348   69.4855    2.5470    9.4283    0.2884   10.4533   63.8090   95.9931    1.5042
   5404.5612   35.9289 -999.2500 -999.2500    9.2496    7.4798    7.7120   69.4821    2.6028    9.9338    0.3334   10.8298   62.0527   93.0689    1.4999
   5404.7136   40.0374 -999.2500 -999.2500   14.2158   11.4562   12.7015   69.4786    2.6419   10.8739    0.4044   11.3177   60.6420   92.0456    1.5184
   5404.8660   37.1310 -999.2500 -999.2500   19.8198   15.8899   18.5984   69.4749    2.5859   12.0617    0.4076    9.7455   58.9827   92.4420    1.5681
   5405.0184   24.6953 -999.2500 -999.2500   16.4710   13.3909   15.6093   69.4713    2.5262   12.4617    0.3811    7.8730   58.0262   94.4187    1.6274
   5405.1708   21.7464 -999.2500 -999.2500   12.2499   10.4858   11.5589   69.4680    2.4662   11.5263    0.3129    6.4295   59.1054   97.9862    1.6579
   5405.3232   31.6449 -999.2500 -999.2500    8.8501    7.9453    8.2707   69.4644    2.5354   10.1571    0.2893    6.0960   61.1938  100.6048    1.6444
   5405.4756   40.4384 -999.2500 -999.2500    6.1794    5.5945    5.7762   69.4608    2.5876    9.6943    0.3111    7.7724   63.1620  103.0320    1.6314
   5405.6280   48.6886 -999.2500 -999.2500    4.8928    4.5070    4.6374   69.4573    2.5974    9.9871    0.3463   10.8320   65.2137  106.1448    1.6277
   5405.7804   49.7820 -999.2500 -999.2500    4.5195    4.3487    4.3691   69.4538    2.5432   11.0014    0.3624   13.4426   66.1250  106.6900    1.6135
   5405.9328   42.1832 -999.2500 -999.2500    4.5308    4.5144    4.5671   69.4503    2.5000   11.5842    0.3587   14.8448   66.2355  106.1026    1.6020
   5406.0852   35.7002 -999.2500 -999.2500    4.9252    4.9749    5.2285   69.4468    2.4830   11.7223    0.3501   15.5564   64.9366  104.9899    1.6170
   5406.2376   39.5920 -999.2500 -999.2500    5.2592    5.2119    5.7679   69.4434    2.4684   11.2900    0.3190   15.2310   64.5503  104.8615    1.6245
   5406.3900   49.7519 -999.2500 -999.2500    5.1413    4.9723    5.6914   69.4398    2.4714    9.5943    0.2593   15.4901   64.3492  104.7729    1.6282
   5406.5424   53.6306 -999.2500 -999.2500    4.9616    4.7762    5.5745   69.4361    2.5433   10.0700    0.3189   15.7133   64.6351  104.2377    1.6128
   5406.6948   50.9400 -999.2500 -999.2500    5.1619    5.0077    5.9943   69.4326    2.5703   10.7045    0.3609   15.6065   64.8151  103.7280    1.6004
   5406.8472   52.1933 -999.2500 -999.2500    5.5921    5.5671    6.6646   69.4291    2.5107   11.0504    0.3465   15.2390   64.9304  104.6296    1.6114
   5406.9996   53.6544 -999.2500 -999.2500    5.4903    5.5363    6.4984   69.4256    2.4532   10.9308    0.2927   15.6354   65.7433  105.8212    1.6097
   5407.1520   48.1276 -999.2500 -999.2500    4.8500    4.8617    5.6172   69.4221    2.4810   10.3918    0.2881   15.6241   66.5791  106.5839    1.6009
   5407.3044   47.9210 -999.2500 -999.2500    4.6588    4.6386    5.3167   69.4187    2.5270   10.3626    0.3174   15.2247   67.4719  107.1651    1.5884
   5407.4568   45.8311 -999.2500 -999.2500    4.8626    4.8674    5.5126   69.4152    2.5183   11.8154    0.3604   16.0716   68.7460  107.8140    1.5685
   5407.6092   40.9207 -999.2500 -999.2500    4.9535    5.0181    5.5623   69.4114    2.4812   11.4433    0.3261   16.3640   69.5536  108.1148    1.5545
   5407.7616   37.6395 -999.2500 -999.2500    4.8704    4.8626    5.3256   69.4080    2.4830   10.8078    0.3085   16.1722   69.4207  107.5141    1.5487
   5407.9140   41.1915 -999.2500 -999.2500    4.9382    4.7083    5.1963   69.4047    2.5309    9.7797    0.3081   15.7581   69.3332  106.4313    1.5351
   5408.0664   42.4160 -999.2500 -999.2500    5.3006    4.8539    5.4377   69.4012    2.4929    9.5563    0.2646   14.9289   69.2917  104.9833    1.5151
   5408.2188   36.1801 -999.2500 -999.2500    6.2680    5.7084    6.5045   69.3979    2.4711    9.2129    0.2331   14.1383   68.9018  104.2418    1.5130
   5408.3712   31.7082 -999.2500 -999.2500    7.6737    7.0819    8.1168   69.3947    2.4690    8.3336    0.1979   13.5661   67.7890  103.4951    1.5268
   5408.5236   36.5985 -999.2500 -999.2500    8.3998    7.5791    8.7084   69.3913    2.4656    6.8057    0.1234   12.4472   67.0871  102.6537    1.5302
   5408.6760   43.5122 -999.2500 -999.2500    8.0122    6.9003    7.9144   69.3878    2.4704    5.6887    0.0737   11.3371   66.7540  101.9499    1.5272
