~Version Information
 VERS.                  2.0:   CWLS log ASCII Standard -VERSION 2.0
 WRAP.                   NO:   One line per depth step
~Well Information Block
#MNEM.UNIT     VALUE/NAME     DESCRIPTION
#---------     -----------    ---------------------------
 STRT.M              5223.0528: START DEPTH
 STOP.M              5533.9488: STOP DEPTH
 STEP.M                 0.1524: STEP DEPTH
 NULL.               -999.2500: NULL VALUE
 DFWT.                        :  DIST FWL TEXT
 DFST.                        :  DIST FSL TEXT
 DMF .             Drill Floor:  DRILL MEAS FROM
 STIM.      11.30.00 09-Jul-16:  START TIME
 DATE.      11.29.04 14-Aug-16:  END TIME
 SPUD.               17-Aug-15:  SPUD DATE
 NREF.                    Grid:  NORTH REFERENCE
 HPTY.       Minimum Curvature:  HOLE POS TYPE
 DMOD.             Drill Model:  DRILL MOD DESC
 SVYD.                  Survey:  SURVEY DESC
 ILTD.               Lithology:  INTERP LTH DESC
 FTOP.          Formation Tops:  FORM TOPS DESC
 WELL.              AF011-3D-1:  WELL NAME
 COMP.               TOTAL-ABK:  COMPANY
 SON .        AD-XX-0902156848:  JOB NUMBER
 GCDE.     Generic Lat/Long's, Degrees, -180 ==> +180:  GEO COORD DESC
 CCDE.     UTM Clarke 1880 (CM 51), Meters:  CART COORD DESC
 GGSY.                      LL:  GEO GRID SYS
 CGSY.               SS CLRK51:  CART GRID SYS
 GREF.     Ellipsoid World Geodetic System :  GEO REFERENCE
 CREF.     Ellipsoid Clarke - 1880:  CART REFERENCE
 MMDL.            bggm2016.dat:  MAGNETIC MODEL
 MMDD.            20 May, 2016:  MAG DATA DATE
 MDS .              Win MagUTM:  MAG DATA SOURCE
 LLGR.      Latitude/Longitude:  LLGROUP
 XYGR.     UTM Zones, Northern Hemisphere, Meters:  XYGROUP
 PDAT.          Mean Sea Level:  PERMANENT DATUM
 WTYP.                Deviated:  WELL TYPE
 BASE.               Abu Dhabi:  LOGGING EQUIPMENT BASE LOCATION
 REGN.     Middle East/North Africa:  REGION
 PROV.               Abu Dhabi:  PROVINCE
 STAT.               Abu Dhabi:  STATE NAME
 CTRY.     United Arab Emirates:  COUNTRY NAME
 FLD .         Abu Al Bukhoosh:  FIELD NAME
 SRVC.                  SAIPEM:  CONTRACTOR
 MWDS.                Musaffah:  MWD SHOP
 RIG .           Perro Negro 8:  RIG NAME
 CNTY.               Abu Dhabi:  COUNTY NAME
 DCON.             HALLIBURTON:  DIRECTNL CONTR
 UNIT.                    9804:  LOGGING EQUIPMENT ID
 DOE .        AD-XX-0902156848:  DOE NUMBER
 API .                        :  API NUMBER
 UWI .                        :  UNIQUE WELL IDENTIFIER
 LOC .                        :  LOCATION
 LMF .             Drill Floor:  LOG MEASURED FROM
 TVDS.m              43.899999:  TVDSS CORRECTN
 LATI.deg            25.504513:  LATITUDE
 LONG.deg            53.120396:  LONGITUDE
 WHNS.m               0.000000:  WELL HEAD N/S
 WHEW.m               0.000000:  WELL HEAD E/W
 UTMX.m          713123.300043:  UTM X
 UTMY.m         2822281.299893:  UTM Y
 DFWL.m               0.000000:  DISTANCE FWL
 DFSL.m               0.000000:  DISTANCE FSL
 SDEP.m            5253.990000:  START DEPTH
 TDD .m            5543.669658:  TOTAL DEPTH (DRILLER)
 VSDR.deg           249.940002:  VERT SEC DIRECT
 GVFD.g               1.000000:  GRAVITY FIELD
 MFLD.nT          43940.839844:  MAGNETIC FIELD
 MDIP.deg            39.918472:  MAGNETIC DIP
 MDEC.deg             2.250056:  MAGNETIC DECL
 GRDC.deg             0.913350:  GRID CORRECTION
 AZTC.deg             1.336706:  AZM TOTAL CORR
 EPD .m               0.000000:  ELEVATION
 EGL .m             -45.400001:  GROUND ELEVATION
 WDMS.m              45.400001:  WD ELEV
 APD .m              43.899999:  DEPTH ABOVE PD
 MMDE.m               0.000000:  MAGUTM CALC DEP
 CMER.deg            51.000000:  CENTRL MERIDIAN
 AGAP.m              23.099999:  AIR GAP
 EKB .m              43.899999:  KB ELEVATION
 EDF .m              43.899999:  DF ELEVATION
 VSC .                       0:  VS TO CLOSURE
 MAGU.                 1527179:  MAGUTM CHECKSUM
~Parameter Information Block
#MNEM.UNIT       Value        Description
#---------     -----------    ---------------------------
 AV  .mps             1.500000:  Ann Velocity 
 AVMX.mps             2.400000:  Max Ann Veloc 
 AZIF.deg           257.739990:  Azm, Final 
 BHAT.                 Turbine:  BHA Type 
 BROT.°/100'          0.000000:  Build Rotating 
 BS  .in              8.500000:  Bit Size 
 BSZ .in              8.500000:  Bit Size 
 BTPL.psig           43.511005:  Bit Press Loss 
 CABU.                      No:  Customer Abuse 
 TCS .hr            149.515671:  Time Ciculation Ended 
 CV  .mps             3.000000:  Crit Velocity 
 CVMX.mps             4.000000:  Max Crit Veloc 
 DD1 .            Ahmed Bayoud:  Direct Drillr 1 
 DD2 .        Hany Abdel Hafez:  Direct Drillr 2 
 DDSV.                 Turbine:  DD Service 
 DEFF.%              98.000000:  % Det Eff 
 DLRX.°/100'          0.000000:  Dogleg Rot Max 
 DLSO.°/100'          0.000000:  Dogleg Oriented 
 DLSX.°/100'          0.000000:  Dogleg Str Max 
 DRET.      12.28.32 23-Jun-16:  Drill End Time 
 DRST.      14.30.00 17-Jun-16:  Drill Start Tim 
 DTIM.hr            102.349998:  Time Drilling 
 EDEP.m            5254.000000:  End Depth 
 ENG1.         Ahmed Montasser:  Engineer 1 
 ENG2.              Do Dang Sa:  Engineer 2 
 ENG3.           Khaled Khalaf:  Engineer 3 
 ENG4.         Muhammad Mubeen:  Engineer 4 
 ETIM.      05.40.54 26-Jun-16:  End Time 
 FLOI.lpm          1800.000122:  Flow In 
 FLON.lpm          1500.000000:  Flow In Min 
 FLOS.lpm             0.000000:  Fluid Loss 
 FLOX.lpm          1800.000122:  Flow In Max 
 DFT .                   Other:  Mud Type 
 HFLO.                      No:  High Flow 
 HPRE.                      No:  High Pressure 
 HTEM.                      No:  High Temp 
 HYDO.m               1.400000:  Hydro Offset 
 IFIN.deg            10.460000:  Inc, Final 
 IMAX.deg            32.367214:  Inc Max 
 IMIN.deg            11.447388:  Inc Min 
 IMND.m            5236.799805:  Inc Min Depth 
 IMXD.m            4790.299805:  Inc Max Depth 
 JARR.                      No:  Jarring 
 LETM.      12.28.32 23-Jun-16:  Log End Time 
 LOST.hr                     0:  Lost Rig Time 
 LSTM.      14.30.00 17-Jun-16:  Log Start Time 
 MDCL.ppm         23000.000000:  Mud Chlorides 
 MDES.             Fresh Water:  Mud Desc 
 DFD .g/c3            1.170004:  Mud Density 
 MDMN.g/c3            1.160004:  Dens Mud Min 
 MDMX.g/c3            1.170004:  Dens Mud Max 
 PH  .pH              9.400000:  Mud pH 
 MOIL.                       0:  Run Mud Oil % 
 MOWR.                    1 91:  Run Mud OWR 
 MSND.                     0.1:  Run Mud Sand % 
 MSOL.                     6.2:  Run Mud Solids% 
 DFV .spl            73.000000:  Mud Viscosity 
 MWOD.in              6.750000:  MWD Tool OD 
 MWSI.                      No:  Serv Intrp, MWD 
 OTIM.hr            238.111023:  Time Operating 
 PMAX.psig         4000.000000:  Press Op, Max 
 PV  .mPsec          36.000000:  Mud PV 
 RMS .ohmm            0.299000:  Mud Resistivity 
 RMCS.ohmm            0.397000:  Mud Cake Resistivity 
 MCST.degC           35.000000:  Mud Cake Sample Temperature 
 RMFS.ohmm            0.200000:  Mud Filtrate Resistivity 
 RMFT.degC           35.000000:  Mud Filtrate Sample Temperature 
 RMMT.ohmm            0.118100:  Rm @ Max Temp 
 MST .degC           35.000000:  Mud Sample Temperature 
 RUN .                    3300:  Run Number 
 ROPA.m/hr            4.450000:  ROP Avg 
 ROPN.m/hr            2.000000:  ROP Min 
 ROPX.m/hr            7.000000:  ROP Max 
 RPMA.rpm            78.000000:  RPM Surface Avg 
 RPMN.rpm            35.000000:  RPM Surface Min 
 RPMX.rpm            80.000000:  RPM Surface Max 
 RRUN.                    3300:  Rig Run Number 
 RTIM.hr              7.150000:  Time Reaming 
 SAZI.deg           249.699997:  Azm, Start 
 SDEP.m            4799.000000:  Start Depth 
 SIDD.                      No:  Serv Intrp, DD 
 SINC.deg            30.049999:  Inc, Start 
 SPPA.psig         4543.999023:  SPP Avg 
 SPPN.psig         4264.078613:  SPP Min 
 SPPX.psig         4641.173828:  SPP Max 
 STIM.      09.00.00 16-Jun-16:  Start Time 
 SVCS.                 DD, MWD:  Services 
 SVER.                8.300000:  Sperry Version 
 TDAT.m             455.000000:  Tot Depth Attmp 
 TDDF.                      No:  Trip for DD 
 TDLG.m             455.000000:  Tot Depth Loggd 
 TFF .                      No:  Trip for Fail 
 TQAA.f-p         37070.000000:  Torque Abs Avg 
 TQAN.f-p         35000.000000:  Torque Abs Min 
 TQAX.f-p         39000.000000:  Torque Abs Max 
 TRRT.°/100'          0.000000:  Turn Rotating 
 MRT .                     PWD:  Maximum Recorded Temperature 
 TTMX.degC          121.568352:  Max Tool Temp 
 VS01.     AD90473258H2V5WGV2COXF1(6):  Virtual Str1 SN 
 WBMN.klb             4.409245:  WOB Min 
 WITN.           Roger Butters:  Customer Rep 
 WOBA.klb             9.788525:  WOB Avg 
 WOBX.klb            13.227736:  WOB Max 
 YP  .pa             43.000000:  Yield Point 
~Curve Information Block
#MNEM.UNIT                 API CODE     Curve Description
#---------               -----------    ---------------------------
 DEPT.M                 00 000 000 000:  Depth
 DGRCC.api              00 000 000 000:  DGR Comb Gamma Ray BCorr
 ALHSI.in               00 000 000 000:  ALD Hole Size Indicator
 ABR .ohmm              00 000 000 000:  At-Bit Resistivity
 AFRSA.ohmm             00 000 000 000:  AFR Shallow Avg Res
 AFRMA.ohmm             00 000 000 000:  AFR Medium Avg Res
 AFRDA.ohmm             00 000 000 000:  AFR Deep Avg Res
 AFXT.hr                00 000 000 000:  AFR Form Exp Time
 ALCDLC.g/c3            00 000 000 000:  ALD LCRB Comp Density
 ALPELC.NONE            00 000 000 000:  ALD LCRB Pe Factor
 ALDCLC.g/c3            00 000 000 000:  ALD LCRB Den Correction
 TNPL.pu                00 000 000 000:  CTN Porosity Limestone
 DTC .uspf              00 000 000 000:  BAT DTC
 DTRS.uspf              00 000 000 000:  BAT Refracted Shear
 VPVS.NONE              00 000 000 000:  BAT VP/VS
#Other Information
#
#WARRANTY: Halliburton will use its best efforts to furnish customers with 
#accurate information and interpretations that are part of, and incident to, the services 
#provided.  However, Halliburton cannot and does not warrant the accuracy 
#or correctness of such information and interpretations.  Under no circumstances should any 
#such information or interpretation be relied upon as the sole basis for any drilling, 
#completion, production, or financial decision or any procedure involving any risk to the 
#safety of any drilling venture, drilling rig or its crew or any other third party.  The 
#Customer has full responsibility for all drilling, completion and production operation.  
#Halliburton makes no representations or warranties, either expressed or 
#implied, including, but not limited to, the implied warranties of merchantability or fitness 
#for a particular purpose, with respect to the services rendered.  In no event will 
#Halliburton be liable for failure to obtain any particular results or for 
#any damages, including, but not limited to, indirect, special or consequential damages, 
#resulting from the use of any information or interpretation provided by Halliburton.
#
~A   DEPT      DGRCC     ALHSI      ABR      AFRSA     AFRMA     AFRDA     AFXT     ALCDLC    ALPELC    ALDCLC     TNPL       DTC      DTRS      VPVS    
# ...
   5328.0564  106.6725 -999.2500 -999.2500    1.7985   14.6263   16.6518   71.3880    1.7070   15.0057   -0.0138   44.2196   72.3156 -999.2500 -999.2500
   5328.2088  102.9823 -999.2500 -999.2500    1.9582   15.1851   16.4959   71.3845    1.7458   15.1072    0.0200   41.9792   75.2227 -999.2500 -999.2500
   5328.3612  101.8756 -999.2500 -999.2500    2.4837   16.6385   17.6469   71.3814    1.8838   14.3746    0.0798   37.1850   77.6043 -999.2500 -999.2500
   5328.5136  102.0221 -999.2500 -999.2500    3.8544   19.2427   19.8183   71.3780    2.0476   13.1255    0.1269   31.8124   79.9250 -999.2500 -999.2500
   5328.6660  105.3806 -999.2500 -999.2500    6.5752   23.5995   24.7850   71.3748    2.2546   11.0471    0.1519   25.9683   79.3726 -999.2500 -999.2500
   5328.8184  112.1057 -999.2500 -999.2500   12.3833   32.5970   34.6901   71.3716    2.3935   10.5555    0.2097   17.4155   77.0520 -999.2500 -999.2500
   5328.9708  115.4096 -999.2500 -999.2500   21.3589   44.7973   49.2386   71.3682    2.4487   11.9976    0.2903   11.1834   74.7384   94.2354    1.4053
   5329.1232  112.8867 -999.2500 -999.2500   29.7861   55.5341   62.7988   71.3651    2.4010   11.8768    0.2692    9.0291   71.7217   94.0864    1.4166
   5329.2756  106.9649 -999.2500 -999.2500   36.3491   64.8302   70.3076   71.3617    2.3432   11.0899    0.2159    8.8543   67.0263   93.8060    1.4218
   5329.4280  102.5232 -999.2500 -999.2500   40.3942   65.1649   67.6946   71.3586    2.3501    9.9685    0.1679    9.0993   64.1010   92.4221    1.4494
   5329.5804   82.4107 -999.2500 -999.2500   43.2392   66.7261   67.3565   71.3553    2.4241    9.8649    0.2045    8.7010   61.8284   90.0576    1.4566
   5329.7328   34.8560 -999.2500 -999.2500   45.4066   74.3311   74.6883   71.3521    2.4005   10.2801    0.2095    7.4771   60.9565   88.7776    1.4564
   5329.8852   31.4949 -999.2500 -999.2500   46.1267   84.3032   85.1385   71.3489    2.3685   10.4963    0.1957    6.6487   61.1342   88.6826    1.4506
   5330.0376   26.9173 -999.2500 -999.2500   45.5001   90.9644   94.4934   71.3454    2.3456   10.3014    0.1747    6.6665   61.6860   89.5585    1.4517
   5330.1900   25.1785 -999.2500 -999.2500   46.8270   98.9165  105.7866   71.3423    2.3535    8.8243    0.1476    6.7515   62.5401   92.0110    1.4711
   5330.3424   19.9171 -999.2500 -999.2500   53.1921  120.7554  127.8508   71.3390    2.4277    8.8862    0.1876    6.2588   62.2744   90.4201    1.4520
   5330.4948   20.1758 -999.2500 -999.2500   65.1210  147.9167  156.8297   71.3357    2.4804    9.9434    0.2422    5.6636   61.0832   89.4237    1.4643
   5330.6472   20.2469 -999.2500 -999.2500   80.5291  166.3980  182.3904   71.3326    2.4910   10.7567    0.2667    5.5334   60.3271   88.9429    1.4744
   5330.7996   20.6356 -999.2500 -999.2500   88.1062  170.2681  189.1451   71.3291    2.4939   11.6600    0.2887    5.7348   60.4304   89.4091    1.4795
   5330.9520   26.2297 -999.2500 -999.2500   82.9120  157.6464  173.4300   71.3260    2.5269   12.4193    0.3205    6.3321   61.0310   91.4676    1.4990
   5331.1044   31.0748 -999.2500 -999.2500   76.8010  135.3488  150.2813   71.3228    2.5189   13.6356    0.2964    6.5474   62.5308   91.0962    1.4572
   5331.2568   33.4194 -999.2500 -999.2500   72.5424  113.9022  125.2523   71.3196    2.5011   13.0867    0.2624    6.5241   62.9420   90.7663    1.4421
   5331.4092   32.4586 -999.2500 -999.2500   70.3474  110.7534  114.2434   71.3165    2.4916   11.2566    0.2236    6.0023   62.6674   91.0424    1.4528
   5331.5616   26.1779 -999.2500 -999.2500   77.9234  135.8269  134.9744   71.3133    2.5289    9.8262    0.2175    5.0983   62.1213   91.4514    1.4723
   5331.7140   19.2294 -999.2500 -999.2500   99.3581  182.1048  184.1635   71.3102    2.5100    8.1483    0.1511    4.4135   61.7476   90.6741    1.4685
   5331.8664   15.6024 -999.2500 -999.2500  124.0171  231.2815  220.3622   71.3070    2.4960    7.4388    0.1093    4.1799   61.3026   89.8043    1.4649
   5332.0188   14.5986 -999.2500 -999.2500  123.5184  215.1928  189.4375   71.3040    2.5004    7.4919    0.0887    4.2548   59.8768   87.7292    1.4653
   5332.1712   16.4795 -999.2500 -999.2500  109.3574  160.2835  145.6982   71.3012    2.5583    9.3158    0.1594    4.0109   58.4055   86.3465    1.4785
   5332.3236   19.1286 -999.2500 -999.2500  113.8220  146.3060  150.1733   71.2979    2.6345   11.7732    0.2742    3.4652   57.6515   85.0025    1.4744
   5332.4760   13.1730 -999.2500 -999.2500  141.3491  190.5638  204.1593   71.2950    2.6633   12.9118    0.3427    3.2685   57.5581   83.9057    1.4579
   5332.6284   14.1996 -999.2500 -999.2500  166.3901  261.8442  266.7919   71.2918    2.6010   13.0830    0.3722    3.3863   56.4859   82.6338    1.4631
   5332.7808   16.6135 -999.2500 -999.2500  153.9683  289.5843  300.8329   71.2889    2.3519   13.2197    0.2700    3.5816   56.2508   82.0990    1.4597
   5332.9332   14.8756 -999.2500 -999.2500  106.4170  247.2796  258.6558   71.2858    2.2337   12.3695    0.1930    4.2242   56.8027   82.3135    1.4496
   5333.0856   15.4712 -999.2500 -999.2500   73.2081  190.9795  194.3185   71.2828    2.2284   10.9928    0.1551    4.9835   58.6649   85.5085    1.4569
   5333.2380   17.4452 -999.2500 -999.2500   58.0150  154.1602  161.3906   71.2800    2.3045    9.5565    0.1546    5.3838   60.1968   92.3333    1.5332
   5333.3904   20.0328 -999.2500 -999.2500   49.3801  140.0980  153.6219   71.2767    2.3268   10.0199    0.1740    5.3827   60.8461   96.9101    1.5926
   5333.5428   19.3037 -999.2500 -999.2500   47.8092  145.3819  157.6850   71.2736    2.3454   10.9331    0.2039    5.4498   61.2025   97.0217    1.5853
   5333.6952   19.6387 -999.2500 -999.2500   49.7522  151.9445  157.1551   71.2702    2.3636   12.3375    0.2471    5.9531   61.3676   95.6416    1.5586
   5333.8476   20.0440 -999.2500 -999.2500   49.0283  146.1637  152.1207   71.2670    2.3461   13.2570    0.2642    6.3377   61.1852   93.8303    1.5336
   5334.0000   25.5139 -999.2500 -999.2500   47.5208  131.1720  140.2027   71.2639    2.3232   11.4015    0.2018    7.2765   60.2730   91.7939    1.5229
   5334.1524   31.9804 -999.2500 -999.2500   48.8484  116.9365  118.0350   71.2607    2.3456   10.2583    0.1803    8.2772   60.0032   89.3851    1.4896
   5334.3048   44.7848 -999.2500 -999.2500   50.9166   95.5269   91.5466   71.2574    2.4124    9.4365    0.1881    9.1821   60.4166   91.9920    1.5223
   5334.4572   48.8429 -999.2500 -999.2500   48.8279   66.0808   66.5789   71.2540    2.4529    9.5146    0.2075   10.4645   61.1191   95.0070    1.5543
   5334.6096   47.7666 -999.2500 -999.2500   45.3478   55.2636   53.2718   71.2509    2.4267    9.1564    0.1844   10.3344   61.6587   96.6878    1.5681
   5334.7620   37.8203 -999.2500 -999.2500   49.6749   65.8152   57.6233   71.2476    2.4473    9.3299    0.2059    8.2594   62.2197   97.5740    1.5683
   5334.9144   31.5791 -999.2500 -999.2500   59.1118   80.2178   73.0197   71.2445    2.5487   10.7453    0.3124    7.6196   61.9929   97.3873    1.5710
   5335.0668   33.3853 -999.2500 -999.2500   60.6106   80.7424   78.4976   71.2412    2.5638   12.8326    0.3796    7.6405   62.1124   96.6144    1.5556
   5335.2192   37.8951 -999.2500 -999.2500   56.3491   71.7916   71.7254   71.2380    2.5092   13.0907    0.3573    7.8537   62.6813   96.6384    1.5417
   5335.3716   40.5677 -999.2500 -999.2500   50.2837   56.4444   59.9022   71.2350    2.4556   12.8656    0.3222    8.2345   61.6393   94.4741    1.5326
   5335.5240   43.1877 -999.2500 -999.2500   43.7045   42.8885   50.4269   71.2315    2.3811   12.4807    0.2721    8.0924   60.6953   92.0254    1.5160
   5335.6764   37.0935 -999.2500 -999.2500   43.6401   48.6553   55.7829   71.2284    2.3495   10.6955    0.2082    7.4261   60.1396   89.3577    1.4857
   5335.8288   28.4792 -999.2500 -999.2500   55.9865   82.1746   85.3614   71.2251    2.3792    9.7006    0.1879    7.1358   59.8034   88.1515    1.4740
   5335.9812   26.9159 -999.2500 -999.2500   73.5064  123.6552  123.8343   71.2219    2.4210    9.4819    0.1895    7.9955   59.2299   88.1282    1.4879
