~Version Information
 VERS.                  2.0:   CWLS log ASCII Standard -VERSION 2.0
 WRAP.                   NO:   One line per depth step
~Well Information Block
#MNEM.UNIT     VALUE/NAME     DESCRIPTION
#---------     -----------    ---------------------------
 STRT.M              5223.0528: START DEPTH
 STOP.M              5533.9488: STOP DEPTH
 STEP.M                 0.1524: STEP DEPTH
 NULL.               -999.2500: NULL VALUE
 DFWT.                        :  DIST FWL TEXT
 DFST.                        :  DIST FSL TEXT
 DMF .             Drill Floor:  DRILL MEAS FROM
 STIM.      11.30.00 09-Jul-16:  START TIME
 DATE.      11.29.04 14-Aug-16:  END TIME
 SPUD.               17-Aug-15:  SPUD DATE
 NREF.                    Grid:  NORTH REFERENCE
 HPTY.       Minimum Curvature:  HOLE POS TYPE
 DMOD.             Drill Model:  DRILL MOD DESC
 SVYD.                  Survey:  SURVEY DESC
 ILTD.               Lithology:  INTERP LTH DESC
 FTOP.          Formation Tops:  FORM TOPS DESC
 WELL.              AF011-3D-1:  WELL NAME
 COMP.               TOTAL-ABK:  COMPANY
 SON .        AD-XX-0902156848:  JOB NUMBER
 GCDE.     Generic Lat/Long's, Degrees, -180 ==> +180:  GEO COORD DESC
 CCDE.     UTM Clarke 1880 (CM 51), Meters:  CART COORD DESC
 GGSY.                      LL:  GEO GRID SYS
 CGSY.               SS CLRK51:  CART GRID SYS
 GREF.     Ellipsoid World Geodetic System :  GEO REFERENCE
 CREF.     Ellipsoid Clarke - 1880:  CART REFERENCE
 MMDL.            bggm2016.dat:  MAGNETIC MODEL
 MMDD.            20 May, 2016:  MAG DATA DATE
 MDS .              Win MagUTM:  MAG DATA SOURCE
 LLGR.      Latitude/Longitude:  LLGROUP
 XYGR.     UTM Zones, Northern Hemisphere, Meters:  XYGROUP
 PDAT.          Mean Sea Level:  PERMANENT DATUM
 WTYP.                Deviated:  WELL TYPE
 BASE.               Abu Dhabi:  LOGGING EQUIPMENT BASE LOCATION
 REGN.     Middle East/North Africa:  REGION
 PROV.               Abu Dhabi:  PROVINCE
 STAT.               Abu Dhabi:  STATE NAME
 CTRY.     United Arab Emirates:  COUNTRY NAME
 FLD .         Abu Al Bukhoosh:  FIELD NAME
 SRVC.                  SAIPEM:  CONTRACTOR
 MWDS.                Musaffah:  MWD SHOP
 RIG .           Perro Negro 8:  RIG NAME
 CNTY.               Abu Dhabi:  COUNTY NAME
 DCON.             HALLIBURTON:  DIRECTNL CONTR
 UNIT.                    9804:  LOGGING EQUIPMENT ID
 DOE .        AD-XX-0902156848:  DOE NUMBER
 API .                        :  API NUMBER
 UWI .                        :  UNIQUE WELL IDENTIFIER
 LOC .                        :  LOCATION
 LMF .             Drill Floor:  LOG MEASURED FROM
 TVDS.m              43.899999:  TVDSS CORRECTN
 LATI.deg            25.504513:  LATITUDE
 LONG.deg            53.120396:  LONGITUDE
 WHNS.m               0.000000:  WELL HEAD N/S
 WHEW.m               0.000000:  WELL HEAD E/W
 UTMX.m          713123.300043:  UTM X
 UTMY.m         2822281.299893:  UTM Y
 DFWL.m               0.000000:  DISTANCE FWL
 DFSL.m               0.000000:  DISTANCE FSL
 SDEP.m            5253.990000:  START DEPTH
 TDD .m            5543.669658:  TOTAL DEPTH (DRILLER)
 VSDR.deg           249.940002:  VERT SEC DIRECT
 GVFD.g               1.000000:  GRAVITY FIELD
 MFLD.nT          43940.839844:  MAGNETIC FIELD
 MDIP.deg            39.918472:  MAGNETIC DIP
 MDEC.deg             2.250056:  MAGNETIC DECL
 GRDC.deg             0.913350:  GRID CORRECTION
 AZTC.deg             1.336706:  AZM TOTAL CORR
 EPD .m               0.000000:  ELEVATION
 EGL .m             -45.400001:  GROUND ELEVATION
 WDMS.m              45.400001:  WD ELEV
 APD .m              43.899999:  DEPTH ABOVE PD
 MMDE.m               0.000000:  MAGUTM CALC DEP
 CMER.deg            51.000000:  CENTRL MERIDIAN
 AGAP.m              23.099999:  AIR GAP
 EKB .m              43.899999:  KB ELEVATION
 EDF .m              43.899999:  DF ELEVATION
 VSC .                       0:  VS TO CLOSURE
 MAGU.                 1527179:  MAGUTM CHECKSUM
~Parameter Information Block
#MNEM.UNIT       Value        Description
#---------     -----------    ---------------------------
 AV  .mps             1.500000:  Ann Velocity 
 AVMX.mps             2.400000:  Max Ann Veloc 
 AZIF.deg           257.739990:  Azm, Final 
 BHAT.                 Turbine:  BHA Type 
 BROT.°/100'          0.000000:  Build Rotating 
 BS  .in              8.500000:  Bit Size 
 BSZ .in              8.500000:  Bit Size 
 BTPL.psig           43.511005:  Bit Press Loss 
 CABU.                      No:  Customer Abuse 
 TCS .hr            149.515671:  Time Ciculation Ended 
 CV  .mps             3.000000:  Crit Velocity 
 CVMX.mps             4.000000:  Max Crit Veloc 
 DD1 .            Ahmed Bayoud:  Direct Drillr 1 
 DD2 .        Hany Abdel Hafez:  Direct Drillr 2 
 DDSV.                 Turbine:  DD Service 
 DEFF.%              98.000000:  % Det Eff 
 DLRX.°/100'          0.000000:  Dogleg Rot Max 
 DLSO.°/100'          0.000000:  Dogleg Oriented 
 DLSX.°/100'          0.000000:  Dogleg Str Max 
 DRET.      12.28.32 23-Jun-16:  Drill End Time 
 DRST.      14.30.00 17-Jun-16:  Drill Start Tim 
 DTIM.hr            102.349998:  Time Drilling 
 EDEP.m            5254.000000:  End Depth 
 ENG1.         Ahmed Montasser:  Engineer 1 
 ENG2.              Do Dang Sa:  Engineer 2 
 ENG3.           Khaled Khalaf:  Engineer 3 
 ENG4.         Muhammad Mubeen:  Engineer 4 
 ETIM.      05.40.54 26-Jun-16:  End Time 
 FLOI.lpm          1800.000122:  Flow In 
 FLON.lpm          1500.000000:  Flow In Min 
 FLOS.lpm             0.000000:  Fluid Loss 
 FLOX.lpm          1800.000122:  Flow In Max 
 DFT .                   Other:  Mud Type 
 HFLO.                      No:  High Flow 
 HPRE.                      No:  High Pressure 
 HTEM.                      No:  High Temp 
 HYDO.m               1.400000:  Hydro Offset 
 IFIN.deg            10.460000:  Inc, Final 
 IMAX.deg            32.367214:  Inc Max 
 IMIN.deg            11.447388:  Inc Min 
 IMND.m            5236.799805:  Inc Min Depth 
 IMXD.m            4790.299805:  Inc Max Depth 
 JARR.                      No:  Jarring 
 LETM.      12.28.32 23-Jun-16:  Log End Time 
 LOST.hr                     0:  Lost Rig Time 
 LSTM.      14.30.00 17-Jun-16:  Log Start Time 
 MDCL.ppm         23000.000000:  Mud Chlorides 
 MDES.             Fresh Water:  Mud Desc 
 DFD .g/c3            1.170004:  Mud Density 
 MDMN.g/c3            1.160004:  Dens Mud Min 
 MDMX.g/c3            1.170004:  Dens Mud Max 
 PH  .pH              9.400000:  Mud pH 
 MOIL.                       0:  Run Mud Oil % 
 MOWR.                    1 91:  Run Mud OWR 
 MSND.                     0.1:  Run Mud Sand % 
 MSOL.                     6.2:  Run Mud Solids% 
 DFV .spl            73.000000:  Mud Viscosity 
 MWOD.in              6.750000:  MWD Tool OD 
 MWSI.                      No:  Serv Intrp, MWD 
 OTIM.hr            238.111023:  Time Operating 
 PMAX.psig         4000.000000:  Press Op, Max 
 PV  .mPsec          36.000000:  Mud PV 
 RMS .ohmm            0.299000:  Mud Resistivity 
 RMCS.ohmm            0.397000:  Mud Cake Resistivity 
 MCST.degC           35.000000:  Mud Cake Sample Temperature 
 RMFS.ohmm            0.200000:  Mud Filtrate Resistivity 
 RMFT.degC           35.000000:  Mud Filtrate Sample Temperature 
 RMMT.ohmm            0.118100:  Rm @ Max Temp 
 MST .degC           35.000000:  Mud Sample Temperature 
 RUN .                    3300:  Run Number 
 ROPA.m/hr            4.450000:  ROP Avg 
 ROPN.m/hr            2.000000:  ROP Min 
 ROPX.m/hr            7.000000:  ROP Max 
 RPMA.rpm            78.000000:  RPM Surface Avg 
 RPMN.rpm            35.000000:  RPM Surface Min 
 RPMX.rpm            80.000000:  RPM Surface Max 
 RRUN.                    3300:  Rig Run Number 
 RTIM.hr              7.150000:  Time Reaming 
 SAZI.deg           249.699997:  Azm, Start 
 SDEP.m            4799.000000:  Start Depth 
 SIDD.                      No:  Serv Intrp, DD 
 SINC.deg            30.049999:  Inc, Start 
 SPPA.psig         4543.999023:  SPP Avg 
 SPPN.psig         4264.078613:  SPP Min 
 SPPX.psig         4641.173828:  SPP Max 
 STIM.      09.00.00 16-Jun-16:  Start Time 
 SVCS.                 DD, MWD:  Services 
 SVER.                8.300000:  Sperry Version 
 TDAT.m             455.000000:  Tot Depth Attmp 
 TDDF.                      No:  Trip for DD 
 TDLG.m             455.000000:  Tot Depth Loggd 
 TFF .                      No:  Trip for Fail 
 TQAA.f-p         37070.000000:  Torque Abs Avg 
 TQAN.f-p         35000.000000:  Torque Abs Min 
 TQAX.f-p         39000.000000:  Torque Abs Max 
 TRRT.°/100'          0.000000:  Turn Rotating 
 MRT .                     PWD:  Maximum Recorded Temperature 
 TTMX.degC          121.568352:  Max Tool Temp 
 VS01.     AD90473258H2V5WGV2COXF1(6):  Virtual Str1 SN 
 WBMN.klb             4.409245:  WOB Min 
 WITN.           Roger Butters:  Customer Rep 
 WOBA.klb             9.788525:  WOB Avg 
 WOBX.klb            13.227736:  WOB Max 
 YP  .pa             43.000000:  Yield Point 
~Curve Information Block
#MNEM.UNIT                 API CODE     Curve Description
#---------               -----------    ---------------------------
 DEPT.M                 00 000 000 000:  Depth
 DGRCC.api              00 000 000 000:  DGR Comb Gamma Ray BCorr
 ALHSI.in               00 000 000 000:  ALD Hole Size Indicator
 ABR .ohmm              00 000 000 000:  At-Bit Resistivity
 AFRSA.ohmm             00 000 000 000:  AFR Shallow Avg Res
 AFRMA.ohmm             00 000 000 000:  AFR Medium Avg Res
 AFRDA.ohmm             00 000 000 000:  AFR Deep Avg Res
 AFXT.hr                00 000 000 000:  AFR Form Exp Time
 ALCDLC.g/c3            00 000 000 000:  ALD LCRB Comp Density
 ALPELC.NONE            00 000 000 000:  ALD LCRB Pe Factor
 ALDCLC.g/c3            00 000 000 000:  ALD LCRB Den Correction
 TNPL.pu                00 000 000 000:  CTN Porosity Limestone
 DTC .uspf              00 000 000 000:  BAT DTC
 DTRS.uspf              00 000 000 000:  BAT Refracted Shear
 VPVS.NONE              00 000 000 000:  BAT VP/VS
#Other Information
#
#WARRANTY: Halliburton will use its best efforts to furnish customers with 
#accurate information and interpretations that are part of, and incident to, the services 
#provided.  However, Halliburton cannot and does not warrant the accuracy 
#or correctness of such information and interpretations.  Under no circumstances should any 
#such information or interpretation be relied upon as the sole basis for any drilling, 
#completion, production, or financial decision or any procedure involving any risk to the 
#safety of any drilling venture, drilling rig or its crew or any other third party.  The 
#Customer has full responsibility for all drilling, completion and production operation.  
#Halliburton makes no representations or warranties, either expressed or 
#implied, including, but not limited to, the implied warranties of merchantability or fitness 
#for a particular purpose, with respect to the services rendered.  In no event will 
#Halliburton be liable for failure to obtain any particular results or for 
#any damages, including, but not limited to, indirect, special or consequential damages, 
#resulting from the use of any information or interpretation provided by Halliburton.
#
~A   DEPT      DGRCC     ALHSI      ABR      AFRSA     AFRMA     AFRDA     AFXT     ALCDLC    ALPELC    ALDCLC     TNPL       DTC      DTRS      VPVS    
# ...
   5497.6776   39.9991 -999.2500 -999.2500   13.4911    9.8700   13.7302   67.1972    2.5540    3.6335    0.0481    5.8104   61.5591   95.0638    1.5443
   5497.8300   41.8794 -999.2500 -999.2500   12.7479    9.4531   13.6058   67.1976    2.5559    3.6552    0.0468    5.2342   61.4323   94.4701    1.5378
   5497.9824   42.7303 -999.2500 -999.2500   11.9247    9.3574   13.1756   67.1906    2.5562    3.6549    0.0413    4.2725   61.2888   94.2627    1.5380
   5498.1348   48.2623 -999.2500 -999.2500   11.3668    9.2675   12.7147   67.1836    2.5521    3.8178    0.0395    4.3775   61.4747   95.2760    1.5498
   5498.2872   47.1857 -999.2500 -999.2500   10.7679    9.0615   11.9624   67.1797    2.5431    3.7751    0.0350    5.5924   61.7484   95.9721    1.5543
   5498.4396   43.0376 -999.2500 -999.2500    9.9296    8.6631   10.8368   67.1759    2.5389    3.6123    0.0295    6.8137   62.3451   96.0383    1.5405
   5498.5920   40.7316 -999.2500 -999.2500    9.2546    8.2777   10.0194   67.1708    2.5415    3.7427    0.0389    7.1448   63.0301   95.9669    1.5226
   5498.7444   46.1269 -999.2500 -999.2500    9.0417    8.0357    9.9002   67.1725    2.5331    3.4787    0.0247    6.8938   63.3802   96.2904    1.5193
   5498.8968   46.8018 -999.2500 -999.2500    8.8815    7.7803    9.9382   67.1715    2.5307    3.2078    0.0176    6.1535   63.4176   96.4597    1.5210
   5499.0492   41.2899 -999.2500 -999.2500    8.6383    7.4718    9.8452   67.1595    2.5851    6.2088    0.1867    6.0093   63.3144   96.7898    1.5287
   5499.2016   38.5509 -999.2500 -999.2500    8.1488    7.1858    9.2053   67.1411    2.5028    8.6445    0.2341    6.5571   63.0155   96.8767    1.5374
   5499.3540   40.9021 -999.2500 -999.2500    7.4167    6.9166    8.0630   67.1316    2.4417    8.1018    0.1852    7.3724   62.8139   97.4373    1.5512
   5499.5064   38.2861 -999.2500 -999.2500    7.2240    7.1741    7.6586   67.1276    2.4271    5.5082    0.0929    8.1576   62.8429   97.6025    1.5531
   5499.6588   41.8355 -999.2500 -999.2500    7.9339    8.1728    8.5308   67.1247    2.5576    5.9758    0.1708    8.0762   62.7631   97.7838    1.5580
   5499.8112   46.6146 -999.2500 -999.2500    9.0786    9.3862    9.9209   67.1216    2.6118    7.0644    0.2224    6.9173   62.4791   97.7385    1.5643
   5499.9636   41.3029 -999.2500   17.8241   10.2489   10.2908   11.0673   67.1185    2.5697    6.3236    0.1610    6.6337   62.2078   96.9989    1.5592
   5500.1160   32.7855 -999.2500   17.7388   11.3810   11.0889   11.9634   67.1154    2.4515    3.2460   -0.0280    7.5116   61.3977   94.7894    1.5436
   5500.2684   29.5992 -999.2500   17.6426   12.1400   11.6919   12.4782   67.1124    2.4986    2.1179   -0.0508    7.7558   60.4402   92.2229    1.5258
   5500.4208   32.4440 -999.2500   17.5191   12.2885   11.8742   12.4603   67.1094    2.5394    2.3605   -0.0300    6.4614   60.2302   91.6487    1.5216
   5500.5732   34.4171 -999.2500   17.3749   12.2162   11.9627   12.2718   67.1063    2.5420    2.4996   -0.0259    5.8369   60.2582   91.3869    1.5166
   5500.7256   38.0619 -999.2500   17.2548   12.6746   12.2710   12.4754   67.1032    2.5195    2.3345   -0.0377    5.9985   60.1641   91.4553    1.5202
   5500.8780   39.0376 -999.2500   17.1784   13.8556   13.0438   13.4586   67.1002    2.5258    2.5278   -0.0242    5.5621   59.7316   91.9710    1.5398
   5501.0304   40.7417 -999.2500   17.1200   15.8226   14.7377   15.4574   67.0972    2.5240    3.3918    0.0113    5.1222   59.5939   92.4462    1.5513
   5501.1828   43.4692 -999.2500   17.0533   17.5304   16.3089   17.0273   67.0941    2.5362    5.0045    0.0832    5.1635   59.9346   92.7456    1.5475
   5501.3352   43.4692 -999.2500   16.9801   16.9013   15.5945   16.0673   67.0910    2.5855    8.4879    0.2469    5.4576   60.0273   93.1032    1.5510
   5501.4876   44.0423 -999.2500   16.9487   15.9226   14.7502   15.0360   67.0880    2.5830    7.2212    0.1869    5.6124   60.3299   93.1749    1.5444
   5501.6400   43.9376 -999.2500   17.0155   16.1148   15.4046   15.5990   67.0850    2.5694    4.9630    0.0823    5.2360   60.2327   92.6617    1.5384
   5501.7924   41.7996 -999.2500   17.1591   16.2085   16.0263   16.4050   67.0819    2.5630    3.7866    0.0287    4.9161   59.6718   91.5005    1.5334
   5501.9448   41.7256 -999.2500   17.3885   16.7224   16.6824   17.3493   67.0788    2.5584    3.7863    0.0278    4.8886   59.1386   90.1142    1.5238
   5502.0972   44.2656 -999.2500   17.6858   16.7251   16.3468   17.0558   67.0758    2.5110    3.6510    0.0054    4.9080   58.9825   89.3687    1.5152
   5502.2496   40.6936 -999.2500   18.1025   15.1400   14.7160   14.8088   67.0728    2.4890    3.4024   -0.0036 -999.2500   58.7882   89.4473    1.5215
   5502.4020   42.3128 -999.2500   18.6795   13.4577   13.2865   12.7227   67.0697    2.4960    3.0128   -0.0092 -999.2500   58.8150   90.1419    1.5326
   5502.5544   46.3356 -999.2500   19.3539   13.1928   13.1167   12.2433   67.0666    2.5390    2.4252   -0.0301 -999.2500   59.0976   90.9768    1.5394
   5502.7068   44.7282 -999.2500   19.9122   13.2140   13.0541   12.0456   67.0636    2.5583    2.4904   -0.0242 -999.2500   59.5178   92.3872    1.5522
   5502.8592   43.8525 -999.2500   20.2444   12.6569   12.4093   11.1951   67.0605    2.5427    3.4008    0.0067 -999.2500   60.0032   93.7465    1.5623
   5503.0116   40.0281 -999.2500   20.4524   12.2757   11.6126   10.4210   67.0575    2.4962    5.2168    0.0633 -999.2500   60.2483   94.8074    1.5736
   5503.1640   39.4338 -999.2500   20.5063   12.4270   11.8051   10.5525   67.0543    2.5197    4.9246    0.0598 -999.2500   60.3240   96.2376    1.5953
   5503.3164   35.1547 -999.2500   20.2666   18.3598   19.1068   16.8818   67.0513    2.5297    5.0801    0.0673 -999.2500   60.2817   97.1737    1.6120
   5503.4688   38.6987 -999.2500   19.8684   35.6579   38.6981   34.6285   67.0482    2.5399    5.8693    0.0937 -999.2500   60.0967   97.1307    1.6163
   5503.6212   62.9089 -999.2500   19.4437   51.2385   52.1534   48.7823   67.0452    2.6028    5.2857    0.0739 -999.2500   59.7144   96.6286    1.6181
   5503.7736  108.1511 -999.2500   18.9853   56.9024   54.9951   53.0872   67.0421    2.6092    4.1267    0.0224 -999.2500   58.7611   93.8052    1.5962
   5503.9260  137.4133 -999.2500   18.2832   61.9112   54.6067   55.4293   67.0392    2.6035    3.3733   -0.0076 -999.2500   58.2529   92.4311    1.5867
   5504.0784  134.8586 -999.2500   17.4262   60.1523   50.5707   53.6791   67.0363    2.6789    5.5722    0.1210 -999.2500   57.8089   91.7076    1.5864
   5504.2308  139.1663 -999.2500   16.7990   58.7029   50.5844   56.5707   67.0333    2.6555    5.3303    0.1030 -999.2500   57.2611   91.5874    1.5995
   5504.3832  134.2555 -999.2500   16.3947   59.7053   55.5204   61.5737   67.0303    2.6057    4.0529    0.0313 -999.2500   56.9290   91.9778    1.6157
   5504.5356  117.4295 -999.2500   16.2743   68.1851   70.4529   70.7895   67.0275    2.5858    2.9953   -0.0150 -999.2500   57.0761   92.6923    1.6240
   5504.6880  110.5832 -999.2500   16.3814   74.7831   87.3298   78.7210   67.0247    2.5644    3.9829    0.0138 -999.2500   57.5697   93.4065    1.6226
   5504.8404  135.5591 -999.2500   16.4843   58.5373   70.0034   60.7218   67.0219    2.5549    4.6375    0.0288 -999.2500   58.2777   93.5632    1.6056
   5504.9928  163.8029 -999.2500   16.5688   42.2701   47.0816   42.3634   67.0188    2.5695    4.4826    0.0171 -999.2500   58.8955   93.2909    1.5841
   5505.1452  171.3329 -999.2500   16.7049   35.8034   36.1647   34.1329   67.0159    2.6071    5.4949    0.0880 -999.2500   59.2420   93.0939    1.5714
   5505.2976  164.1000 -999.2500   16.8471   33.1535   32.2233   30.8506   67.0131    2.6079    5.6202    0.0947 -999.2500   59.4960   93.1144    1.5651
   5505.4500  146.7121 -999.2500   16.9343   31.4532   31.0539   29.7060   67.0103    2.5772    4.7929    0.0361 -999.2500   59.8219   93.5868    1.5644
   5505.6024  138.4048 -999.2500   16.9893   35.7457   37.4653   35.2843   67.0075    2.5763    4.0576    0.0070 -999.2500   59.8441   93.1508    1.5566
