~Version Information
 VERS.                  2.0:   CWLS log ASCII Standard -VERSION 2.0
 WRAP.                   NO:   One line per depth step
~Well Information Block
#MNEM.UNIT     VALUE/NAME     DESCRIPTION
#---------     -----------    ---------------------------
 STRT.M              5223.0528: START DEPTH
 STOP.M              5533.9488: STOP DEPTH
 STEP.M                 0.1524: STEP DEPTH
 NULL.               -999.2500: NULL VALUE
 DFWT.                        :  DIST FWL TEXT
 DFST.                        :  DIST FSL TEXT
 DMF .             Drill Floor:  DRILL MEAS FROM
 STIM.      11.30.00 09-Jul-16:  START TIME
 DATE.      11.29.04 14-Aug-16:  END TIME
 SPUD.               17-Aug-15:  SPUD DATE
 NREF.                    Grid:  NORTH REFERENCE
 HPTY.       Minimum Curvature:  HOLE POS TYPE
 DMOD.             Drill Model:  DRILL MOD DESC
 SVYD.                  Survey:  SURVEY DESC
 ILTD.               Lithology:  INTERP LTH DESC
 FTOP.          Formation Tops:  FORM TOPS DESC
 WELL.              AF011-3D-1:  WELL NAME
 COMP.               TOTAL-ABK:  COMPANY
 SON .        AD-XX-0902156848:  JOB NUMBER
 GCDE.     Generic Lat/Long's, Degrees, -180 ==> +180:  GEO COORD DESC
 CCDE.     UTM Clarke 1880 (CM 51), Meters:  CART COORD DESC
 GGSY.                      LL:  GEO GRID SYS
 CGSY.               SS CLRK51:  CART GRID SYS
 GREF.     Ellipsoid World Geodetic System :  GEO REFERENCE
 CREF.     Ellipsoid Clarke - 1880:  CART REFERENCE
 MMDL.            bggm2016.dat:  MAGNETIC MODEL
 MMDD.            20 May, 2016:  MAG DATA DATE
 MDS .              Win MagUTM:  MAG DATA SOURCE
 LLGR.      Latitude/Longitude:  LLGROUP
 XYGR.     UTM Zones, Northern Hemisphere, Meters:  XYGROUP
 PDAT.          Mean Sea Level:  PERMANENT DATUM
 WTYP.                Deviated:  WELL TYPE
 BASE.               Abu Dhabi:  LOGGING EQUIPMENT BASE LOCATION
 REGN.     Middle East/North Africa:  REGION
 PROV.               Abu Dhabi:  PROVINCE
 STAT.               Abu Dhabi:  STATE NAME
 CTRY.     United Arab Emirates:  COUNTRY NAME
 FLD .         Abu Al Bukhoosh:  FIELD NAME
 SRVC.                  SAIPEM:  CONTRACTOR
 MWDS.                Musaffah:  MWD SHOP
 RIG .           Perro Negro 8:  RIG NAME
 CNTY.               Abu Dhabi:  COUNTY NAME
 DCON.             HALLIBURTON:  DIRECTNL CONTR
 UNIT.                    9804:  LOGGING EQUIPMENT ID
 DOE .        AD-XX-0902156848:  DOE NUMBER
 API .                        :  API NUMBER
 UWI .                        :  UNIQUE WELL IDENTIFIER
 LOC .                        :  LOCATION
 LMF .             Drill Floor:  LOG MEASURED FROM
 TVDS.m              43.899999:  TVDSS CORRECTN
 LATI.deg            25.504513:  LATITUDE
 LONG.deg            53.120396:  LONGITUDE
 WHNS.m               0.000000:  WELL HEAD N/S
 WHEW.m               0.000000:  WELL HEAD E/W
 UTMX.m          713123.300043:  UTM X
 UTMY.m         2822281.299893:  UTM Y
 DFWL.m               0.000000:  DISTANCE FWL
 DFSL.m               0.000000:  DISTANCE FSL
 SDEP.m            5253.990000:  START DEPTH
 TDD .m            5543.669658:  TOTAL DEPTH (DRILLER)
 VSDR.deg           249.940002:  VERT SEC DIRECT
 GVFD.g               1.000000:  GRAVITY FIELD
 MFLD.nT          43940.839844:  MAGNETIC FIELD
 MDIP.deg            39.918472:  MAGNETIC DIP
 MDEC.deg             2.250056:  MAGNETIC DECL
 GRDC.deg             0.913350:  GRID CORRECTION
 AZTC.deg             1.336706:  AZM TOTAL CORR
 EPD .m               0.000000:  ELEVATION
 EGL .m             -45.400001:  GROUND ELEVATION
 WDMS.m              45.400001:  WD ELEV
 APD .m              43.899999:  DEPTH ABOVE PD
 MMDE.m               0.000000:  MAGUTM CALC DEP
 CMER.deg            51.000000:  CENTRL MERIDIAN
 AGAP.m              23.099999:  AIR GAP
 EKB .m              43.899999:  KB ELEVATION
 EDF .m              43.899999:  DF ELEVATION
 VSC .                       0:  VS TO CLOSURE
 MAGU.                 1527179:  MAGUTM CHECKSUM
~Parameter Information Block
#MNEM.UNIT       Value        Description
#---------     -----------    ---------------------------
 AV  .mps             1.500000:  Ann Velocity 
 AVMX.mps             2.400000:  Max Ann Veloc 
 AZIF.deg           257.739990:  Azm, Final 
 BHAT.                 Turbine:  BHA Type 
 BROT.°/100'          0.000000:  Build Rotating 
 BS  .in              8.500000:  Bit Size 
 BSZ .in              8.500000:  Bit Size 
 BTPL.psig           43.511005:  Bit Press Loss 
 CABU.                      No:  Customer Abuse 
 TCS .hr            149.515671:  Time Ciculation Ended 
 CV  .mps             3.000000:  Crit Velocity 
 CVMX.mps             4.000000:  Max Crit Veloc 
 DD1 .            Ahmed Bayoud:  Direct Drillr 1 
 DD2 .        Hany Abdel Hafez:  Direct Drillr 2 
 DDSV.                 Turbine:  DD Service 
 DEFF.%              98.000000:  % Det Eff 
 DLRX.°/100'          0.000000:  Dogleg Rot Max 
 DLSO.°/100'          0.000000:  Dogleg Oriented 
 DLSX.°/100'          0.000000:  Dogleg Str Max 
 DRET.      12.28.32 23-Jun-16:  Drill End Time 
 DRST.      14.30.00 17-Jun-16:  Drill Start Tim 
 DTIM.hr            102.349998:  Time Drilling 
 EDEP.m            5254.000000:  End Depth 
 ENG1.         Ahmed Montasser:  Engineer 1 
 ENG2.              Do Dang Sa:  Engineer 2 
 ENG3.           Khaled Khalaf:  Engineer 3 
 ENG4.         Muhammad Mubeen:  Engineer 4 
 ETIM.      05.40.54 26-Jun-16:  End Time 
 FLOI.lpm          1800.000122:  Flow In 
 FLON.lpm          1500.000000:  Flow In Min 
 FLOS.lpm             0.000000:  Fluid Loss 
 FLOX.lpm          1800.000122:  Flow In Max 
 DFT .                   Other:  Mud Type 
 HFLO.                      No:  High Flow 
 HPRE.                      No:  High Pressure 
 HTEM.                      No:  High Temp 
 HYDO.m               1.400000:  Hydro Offset 
 IFIN.deg            10.460000:  Inc, Final 
 IMAX.deg            32.367214:  Inc Max 
 IMIN.deg            11.447388:  Inc Min 
 IMND.m            5236.799805:  Inc Min Depth 
 IMXD.m            4790.299805:  Inc Max Depth 
 JARR.                      No:  Jarring 
 LETM.      12.28.32 23-Jun-16:  Log End Time 
 LOST.hr                     0:  Lost Rig Time 
 LSTM.      14.30.00 17-Jun-16:  Log Start Time 
 MDCL.ppm         23000.000000:  Mud Chlorides 
 MDES.             Fresh Water:  Mud Desc 
 DFD .g/c3            1.170004:  Mud Density 
 MDMN.g/c3            1.160004:  Dens Mud Min 
 MDMX.g/c3            1.170004:  Dens Mud Max 
 PH  .pH              9.400000:  Mud pH 
 MOIL.                       0:  Run Mud Oil % 
 MOWR.                    1 91:  Run Mud OWR 
 MSND.                     0.1:  Run Mud Sand % 
 MSOL.                     6.2:  Run Mud Solids% 
 DFV .spl            73.000000:  Mud Viscosity 
 MWOD.in              6.750000:  MWD Tool OD 
 MWSI.                      No:  Serv Intrp, MWD 
 OTIM.hr            238.111023:  Time Operating 
 PMAX.psig         4000.000000:  Press Op, Max 
 PV  .mPsec          36.000000:  Mud PV 
 RMS .ohmm            0.299000:  Mud Resistivity 
 RMCS.ohmm            0.397000:  Mud Cake Resistivity 
 MCST.degC           35.000000:  Mud Cake Sample Temperature 
 RMFS.ohmm            0.200000:  Mud Filtrate Resistivity 
 RMFT.degC           35.000000:  Mud Filtrate Sample Temperature 
 RMMT.ohmm            0.118100:  Rm @ Max Temp 
 MST .degC           35.000000:  Mud Sample Temperature 
 RUN .                    3300:  Run Number 
 ROPA.m/hr            4.450000:  ROP Avg 
 ROPN.m/hr            2.000000:  ROP Min 
 ROPX.m/hr            7.000000:  ROP Max 
 RPMA.rpm            78.000000:  RPM Surface Avg 
 RPMN.rpm            35.000000:  RPM Surface Min 
 RPMX.rpm            80.000000:  RPM Surface Max 
 RRUN.                    3300:  Rig Run Number 
 RTIM.hr              7.150000:  Time Reaming 
 SAZI.deg           249.699997:  Azm, Start 
 SDEP.m            4799.000000:  Start Depth 
 SIDD.                      No:  Serv Intrp, DD 
 SINC.deg            30.049999:  Inc, Start 
 SPPA.psig         4543.999023:  SPP Avg 
 SPPN.psig         4264.078613:  SPP Min 
 SPPX.psig         4641.173828:  SPP Max 
 STIM.      09.00.00 16-Jun-16:  Start Time 
 SVCS.                 DD, MWD:  Services 
 SVER.                8.300000:  Sperry Version 
 TDAT.m             455.000000:  Tot Depth Attmp 
 TDDF.                      No:  Trip for DD 
 TDLG.m             455.000000:  Tot Depth Loggd 
 TFF .                      No:  Trip for Fail 
 TQAA.f-p         37070.000000:  Torque Abs Avg 
 TQAN.f-p         35000.000000:  Torque Abs Min 
 TQAX.f-p         39000.000000:  Torque Abs Max 
 TRRT.°/100'          0.000000:  Turn Rotating 
 MRT .                     PWD:  Maximum Recorded Temperature 
 TTMX.degC          121.568352:  Max Tool Temp 
 VS01.     AD90473258H2V5WGV2COXF1(6):  Virtual Str1 SN 
 WBMN.klb             4.409245:  WOB Min 
 WITN.           Roger Butters:  Customer Rep 
 WOBA.klb             9.788525:  WOB Avg 
 WOBX.klb            13.227736:  WOB Max 
 YP  .pa             43.000000:  Yield Point 
~Curve Information Block
#MNEM.UNIT                 API CODE     Curve Description
#---------               -----------    ---------------------------
 DEPT.M                 00 000 000 000:  Depth
 DGRCC.api              00 000 000 000:  DGR Comb Gamma Ray BCorr
 ALHSI.in               00 000 000 000:  ALD Hole Size Indicator
 ABR .ohmm              00 000 000 000:  At-Bit Resistivity
 AFRSA.ohmm             00 000 000 000:  AFR Shallow Avg Res
 AFRMA.ohmm             00 000 000 000:  AFR Medium Avg Res
 AFRDA.ohmm             00 000 000 000:  AFR Deep Avg Res
 AFXT.hr                00 000 000 000:  AFR Form Exp Time
 ALCDLC.g/c3            00 000 000 000:  ALD LCRB Comp Density
 ALPELC.NONE            00 000 000 000:  ALD LCRB Pe Factor
 ALDCLC.g/c3            00 000 000 000:  ALD LCRB Den Correction
 TNPL.pu                00 000 000 000:  CTN Porosity Limestone
 DTC .uspf              00 000 000 000:  BAT DTC
 DTRS.uspf              00 000 000 000:  BAT Refracted Shear
 VPVS.NONE              00 000 000 000:  BAT VP/VS
#Other Information
#
#WARRANTY: Halliburton will use its best efforts to furnish customers with 
#accurate information and interpretations that are part of, and incident to, the services 
#provided.  However, Halliburton cannot and does not warrant the accuracy 
#or correctness of such information and interpretations.  Under no circumstances should any 
#such information or interpretation be relied upon as the sole basis for any drilling, 
#completion, production, or financial decision or any procedure involving any risk to the 
#safety of any drilling venture, drilling rig or its crew or any other third party.  The 
#Customer has full responsibility for all drilling, completion and production operation.  
#Halliburton makes no representations or warranties, either expressed or 
#implied, including, but not limited to, the implied warranties of merchantability or fitness 
#for a particular purpose, with respect to the services rendered.  In no event will 
#Halliburton be liable for failure to obtain any particular results or for 
#any damages, including, but not limited to, indirect, special or consequential damages, 
#resulting from the use of any information or interpretation provided by Halliburton.
#
~A   DEPT      DGRCC     ALHSI      ABR      AFRSA     AFRMA     AFRDA     AFXT     ALCDLC    ALPELC    ALDCLC     TNPL       DTC      DTRS      VPVS    
# ...
   5384.5968   54.7013 -999.2500 -999.2500    5.7359    4.7430    4.9241   70.0099    2.5134    6.0299    0.0698   14.0851   68.7926  112.7059    1.6383
   5384.7492   41.5823 -999.2500 -999.2500    4.5410    3.6696    3.8559   70.0064    2.5169    5.3405    0.0768   14.7142   68.3976  111.8240    1.6349
   5384.9016   38.1547 -999.2500 -999.2500    4.2089    3.4493    3.5461   70.0030    2.5565    6.2765    0.1631   14.4032   68.6413  114.0713    1.6616
   5385.0540   39.5051 -999.2500 -999.2500    4.7763    4.1161    4.2330   69.9999    2.5644    7.8542    0.2019   13.3168   69.2424  117.3088    1.6941
   5385.2064   45.2511 -999.2500 -999.2500    5.4856    5.0599    5.2426   69.9966    2.5208    7.4792    0.1503   13.0103   69.4276  117.0398    1.6858
   5385.3588   50.0880 -999.2500 -999.2500    5.5390    5.3120    5.3069   69.9930    2.4677    5.2450    0.0423   14.9407   68.8158  117.0357    1.7008
   5385.5112   46.6263 -999.2500 -999.2500    4.9950    4.6997    4.6237   69.9898    2.5734    5.1440    0.0880   17.4318   68.7370  117.4626    1.7090
   5385.6636   55.2484 -999.2500 -999.2500    4.5186    4.0618    4.0550   69.9866    2.5652    5.2939    0.1020   20.0564   69.6233  118.1171    1.6966
   5385.8160   69.5975 -999.2500 -999.2500    4.2387    3.8339    3.7989   69.9832    2.5735    6.7551    0.1603   20.9503   70.8289  120.3343    1.6987
   5385.9684   82.8837 -999.2500 -999.2500    4.0843    3.8819    3.8023   69.9799    2.5468    8.0270    0.1838   23.9599   72.2714  124.4011    1.7211
   5386.1208   82.0080 -999.2500 -999.2500    3.8423    3.7027    3.4698   69.9768    2.4754    8.5936    0.1467   22.2524   73.1431  126.1125    1.7243
   5386.2732   86.4552 -999.2500 -999.2500    3.8028    3.4994    3.2778   69.9735    2.5760    8.7458    0.2105   17.0678   73.7522  124.9888    1.6948
   5386.4256   86.8499 -999.2500 -999.2500    3.8298    3.3961    3.3636   69.9699    2.5350    7.3308    0.1593   15.4870   73.9987  122.7463    1.6588
   5386.5780  103.1337 -999.2500 -999.2500    3.6428    3.2960    3.3609   69.9667    2.4941    6.2674    0.1030   16.0328   73.8007  120.0184    1.6262
   5386.7304   87.5077 -999.2500 -999.2500    3.3068    3.1721    3.2332   69.9635    2.5062    5.8843    0.0989   15.9614   73.0718  117.8136    1.6125
   5386.8828   78.5486 -999.2500 -999.2500    3.3663    3.3796    3.5122   69.9599    2.6153    7.3475    0.2190   15.7062   70.9952  116.3254    1.6395
   5387.0352   76.9206 -999.2500 -999.2500    3.5453    3.5820    3.8324   69.9566    2.5566    9.1005    0.2371   16.3899   69.3473  115.2994    1.6629
   5387.1876   74.4709 -999.2500 -999.2500    3.2892    3.2904    3.5758   69.9534    2.4586    7.6858    0.1551   17.2274   69.3388  115.2333    1.6619
   5387.3400   76.5963 -999.2500 -999.2500    3.0239    2.9088    3.2434   69.9500    2.4616    7.1369    0.1382   17.4449   69.5279  115.0654    1.6550
   5387.4924   78.5723 -999.2500 -999.2500    2.9368    2.7849    3.0948   69.9467    2.5067    7.2698    0.1672   17.3544   69.5577  114.9708    1.6529
   5387.6448   73.1763 -999.2500 -999.2500    2.9849    2.8385    3.0831   69.9435    2.5559    8.2457    0.2512   16.7390   69.7735  116.6365    1.6715
   5387.7972   73.2009 -999.2500 -999.2500    2.9572    2.6876    2.9526   69.9402    2.4502    9.2217    0.1942   16.9439   70.3295  119.3776    1.6974
   5387.9496   68.3888 -999.2500 -999.2500    2.7793    2.4380    2.6802   69.9369    2.4170    6.9454    0.1016   16.9563   70.7543  119.5986    1.6904
   5388.1020   67.4640 -999.2500 -999.2500    2.9106    2.6803    2.8147   69.9337    2.4992    6.7038    0.1523   16.6622   70.7235  119.2098    1.6856
   5388.2544   72.1265 -999.2500 -999.2500    3.2680    3.1212    3.1755   69.9304    2.6297    8.8181    0.3113   16.6325   70.4592  118.6072    1.6834
   5388.4068   74.2627 -999.2500 -999.2500    3.3033    2.9595    3.0968   69.9268    2.5647   11.2104    0.3603   17.4076   69.9025  117.8553    1.6860
   5388.5592   74.8069 -999.2500 -999.2500    3.3364    2.8418    2.9988   69.9235    2.3761   10.5738    0.2360   17.1258   70.1557  118.1015    1.6836
   5388.7116   62.2600 -999.2500 -999.2500    3.4632    2.9571    3.0594   69.9204    2.3317    9.4426    0.1739   16.6141   71.2750  118.4772    1.6625
   5388.8640   56.8780 -999.2500 -999.2500    3.0848    2.6580    2.6650   69.9172    2.3482    7.7256    0.1099   16.3511   72.9128  119.5149    1.6394
   5389.0164   55.3445 -999.2500 -999.2500    2.6715    2.2702    2.2432   69.9137    2.4274    5.8834    0.0461   16.0613   75.2898  121.7667    1.6174
   5389.1688   62.7311 -999.2500 -999.2500    3.0373    2.7021    2.5967   69.9107    2.5085    4.9963    0.0492   15.6590   74.4133  119.2124    1.6015
   5389.3212   72.0352 -999.2500 -999.2500    4.3135    4.2020    3.9561   69.9077    2.5009    4.7135    0.0552   15.9239   71.7886  113.6886    1.5837
   5389.4736   78.4518 -999.2500 -999.2500    4.8730    4.8795    4.7811   69.9043    2.4349    4.5529    0.0521   17.2212   70.0838  112.8964    1.6110
   5389.6260   63.2861 -999.2500 -999.2500    3.5411    3.2349    3.2019   69.9012    2.3309    4.6328    0.0268   17.6023   70.1394  116.1379    1.6557
   5389.7784   36.0126 -999.2500 -999.2500    2.3987    1.9614    1.8672   69.8982    2.2949    4.5876    0.0093   17.3648   70.9639  120.5662    1.6993
   5389.9308   23.3707 -999.2500 -999.2500    1.9714    1.5326    1.4710   69.8951    2.2976    4.4732    0.0076   17.3193   73.2880  122.0452    1.6665
   5390.0832   17.7256 -999.2500 -999.2500    1.9314    1.5453    1.6136   69.8919    2.3151    4.3006    0.0108   16.2316   76.4075  122.6040    1.6073
   5390.2356   17.9395 -999.2500 -999.2500    2.0553    1.6969    1.9234   69.8891    2.3205    4.3462    0.0029   14.7390   79.5349  123.1361    1.5491
   5390.3880   18.7978 -999.2500 -999.2500    2.2014    1.9550    2.3334   69.8861    2.3496    4.4923    0.0097   13.9635   79.4451  122.7298    1.5452
   5390.5404   20.2502 -999.2500 -999.2500    2.2244    2.4186    2.9669   69.8828    2.3681    4.5917    0.0188   14.1941   75.1048  118.4973    1.5786
   5390.6928   18.9909 -999.2500 -999.2500    2.5985    3.0372    4.2218   69.8798    2.3703    4.6378    0.0300   15.5938   72.9786  117.1276    1.6053
   5390.8452   15.3827 -999.2500 -999.2500    2.9612    3.2001    5.6527   69.8769    2.3267    4.4307    0.0237   17.4023   71.9912  116.5851    1.6196
   5390.9976   15.3623 -999.2500 -999.2500    1.9503    2.0713    4.0360   69.8735    2.3050    4.5419    0.0224   20.0769   72.9689  117.8286    1.6153
   5391.1500   16.1286 -999.2500 -999.2500    1.1005    1.1886    2.2546   69.8702    2.2980    4.5998    0.0232   22.2508   75.6272  119.8713    1.5855
   5391.3024   16.8475 -999.2500 -999.2500    0.7284    0.8428    1.3484   69.8670    2.2916    4.3150    0.0216   23.7691   79.2714  126.6870    1.5970
   5391.4548   16.5638 -999.2500 -999.2500    0.6282    0.8312    1.0392   69.8636    2.2821    4.4071    0.0117   24.2333   82.5690  138.3929    1.6748
   5391.6072   16.9835 -999.2500 -999.2500    0.6005    0.9224    0.9243   69.8604    2.2715    4.5512   -0.0002   24.2531   84.5496  143.1347    1.6927
   5391.7596   11.4414 -999.2500 -999.2500    0.5731    0.9230    0.8399   69.8572    2.2678    4.6947   -0.0113   24.7917   85.9309  145.1254    1.6890
   5391.9120   17.1293 -999.2500 -999.2500    0.5577    0.8327    0.7841   69.8539    2.2938    4.8706   -0.0128   22.9802   86.6564  144.0587    1.6625
   5392.0644   24.2968 -999.2500 -999.2500    0.5585    0.7420    0.7922   69.8503    2.3691    5.1621    0.0145   20.4889   86.7868  143.4067    1.6524
   5392.2168   25.9599 -999.2500 -999.2500    0.6157    0.7772    0.9714   69.8472    2.3977    5.3844    0.0258   16.6873   87.1468  142.5289    1.6356
   5392.3692   24.4915 -999.2500 -999.2500    1.1504    1.4381    2.1409   69.8440    2.4149    5.8502    0.0365   14.0052   87.5055  137.9320    1.5763
   5392.5216   28.0381 -999.2500 -999.2500    2.8479    3.4184    5.4988   69.8406    2.4359    6.5750    0.0583   12.9504   86.5406  132.7631    1.5341
