~Version Information
 VERS.                  2.0:   CWLS log ASCII Standard -VERSION 2.0
 WRAP.                   NO:   One line per depth step
~Well Information Block
#MNEM.UNIT     VALUE/NAME     DESCRIPTION
#---------     -----------    ---------------------------
 STRT.M              5223.0528: START DEPTH
 STOP.M              5533.9488: STOP DEPTH
 STEP.M                 0.1524: STEP DEPTH
 NULL.               -999.2500: NULL VALUE
 DFWT.                        :  DIST FWL TEXT
 DFST.                        :  DIST FSL TEXT
 DMF .             Drill Floor:  DRILL MEAS FROM
 STIM.      11.30.00 09-Jul-16:  START TIME
 DATE.      11.29.04 14-Aug-16:  END TIME
 SPUD.               17-Aug-15:  SPUD DATE
 NREF.                    Grid:  NORTH REFERENCE
 HPTY.       Minimum Curvature:  HOLE POS TYPE
 DMOD.             Drill Model:  DRILL MOD DESC
 SVYD.                  Survey:  SURVEY DESC
 ILTD.               Lithology:  INTERP LTH DESC
 FTOP.          Formation Tops:  FORM TOPS DESC
 WELL.              AF011-3D-1:  WELL NAME
 COMP.               TOTAL-ABK:  COMPANY
 SON .        AD-XX-0902156848:  JOB NUMBER
 GCDE.     Generic Lat/Long's, Degrees, -180 ==> +180:  GEO COORD DESC
 CCDE.     UTM Clarke 1880 (CM 51), Meters:  CART COORD DESC
 GGSY.                      LL:  GEO GRID SYS
 CGSY.               SS CLRK51:  CART GRID SYS
 GREF.     Ellipsoid World Geodetic System :  GEO REFERENCE
 CREF.     Ellipsoid Clarke - 1880:  CART REFERENCE
 MMDL.            bggm2016.dat:  MAGNETIC MODEL
 MMDD.            20 May, 2016:  MAG DATA DATE
 MDS .              Win MagUTM:  MAG DATA SOURCE
 LLGR.      Latitude/Longitude:  LLGROUP
 XYGR.     UTM Zones, Northern Hemisphere, Meters:  XYGROUP
 PDAT.          Mean Sea Level:  PERMANENT DATUM
 WTYP.                Deviated:  WELL TYPE
 BASE.               Abu Dhabi:  LOGGING EQUIPMENT BASE LOCATION
 REGN.     Middle East/North Africa:  REGION
 PROV.               Abu Dhabi:  PROVINCE
 STAT.               Abu Dhabi:  STATE NAME
 CTRY.     United Arab Emirates:  COUNTRY NAME
 FLD .         Abu Al Bukhoosh:  FIELD NAME
 SRVC.                  SAIPEM:  CONTRACTOR
 MWDS.                Musaffah:  MWD SHOP
 RIG .           Perro Negro 8:  RIG NAME
 CNTY.               Abu Dhabi:  COUNTY NAME
 DCON.             HALLIBURTON:  DIRECTNL CONTR
 UNIT.                    9804:  LOGGING EQUIPMENT ID
 DOE .        AD-XX-0902156848:  DOE NUMBER
 API .                        :  API NUMBER
 UWI .                        :  UNIQUE WELL IDENTIFIER
 LOC .                        :  LOCATION
 LMF .             Drill Floor:  LOG MEASURED FROM
 TVDS.m              43.899999:  TVDSS CORRECTN
 LATI.deg            25.504513:  LATITUDE
 LONG.deg            53.120396:  LONGITUDE
 WHNS.m               0.000000:  WELL HEAD N/S
 WHEW.m               0.000000:  WELL HEAD E/W
 UTMX.m          713123.300043:  UTM X
 UTMY.m         2822281.299893:  UTM Y
 DFWL.m               0.000000:  DISTANCE FWL
 DFSL.m               0.000000:  DISTANCE FSL
 SDEP.m            5253.990000:  START DEPTH
 TDD .m            5543.669658:  TOTAL DEPTH (DRILLER)
 VSDR.deg           249.940002:  VERT SEC DIRECT
 GVFD.g               1.000000:  GRAVITY FIELD
 MFLD.nT          43940.839844:  MAGNETIC FIELD
 MDIP.deg            39.918472:  MAGNETIC DIP
 MDEC.deg             2.250056:  MAGNETIC DECL
 GRDC.deg             0.913350:  GRID CORRECTION
 AZTC.deg             1.336706:  AZM TOTAL CORR
 EPD .m               0.000000:  ELEVATION
 EGL .m             -45.400001:  GROUND ELEVATION
 WDMS.m              45.400001:  WD ELEV
 APD .m              43.899999:  DEPTH ABOVE PD
 MMDE.m               0.000000:  MAGUTM CALC DEP
 CMER.deg            51.000000:  CENTRL MERIDIAN
 AGAP.m              23.099999:  AIR GAP
 EKB .m              43.899999:  KB ELEVATION
 EDF .m              43.899999:  DF ELEVATION
 VSC .                       0:  VS TO CLOSURE
 MAGU.                 1527179:  MAGUTM CHECKSUM
~Parameter Information Block
#MNEM.UNIT       Value        Description
#---------     -----------    ---------------------------
 AV  .mps             1.500000:  Ann Velocity 
 AVMX.mps             2.400000:  Max Ann Veloc 
 AZIF.deg           257.739990:  Azm, Final 
 BHAT.                 Turbine:  BHA Type 
 BROT.°/100'          0.000000:  Build Rotating 
 BS  .in              8.500000:  Bit Size 
 BSZ .in              8.500000:  Bit Size 
 BTPL.psig           43.511005:  Bit Press Loss 
 CABU.                      No:  Customer Abuse 
 TCS .hr            149.515671:  Time Ciculation Ended 
 CV  .mps             3.000000:  Crit Velocity 
 CVMX.mps             4.000000:  Max Crit Veloc 
 DD1 .            Ahmed Bayoud:  Direct Drillr 1 
 DD2 .        Hany Abdel Hafez:  Direct Drillr 2 
 DDSV.                 Turbine:  DD Service 
 DEFF.%              98.000000:  % Det Eff 
 DLRX.°/100'          0.000000:  Dogleg Rot Max 
 DLSO.°/100'          0.000000:  Dogleg Oriented 
 DLSX.°/100'          0.000000:  Dogleg Str Max 
 DRET.      12.28.32 23-Jun-16:  Drill End Time 
 DRST.      14.30.00 17-Jun-16:  Drill Start Tim 
 DTIM.hr            102.349998:  Time Drilling 
 EDEP.m            5254.000000:  End Depth 
 ENG1.         Ahmed Montasser:  Engineer 1 
 ENG2.              Do Dang Sa:  Engineer 2 
 ENG3.           Khaled Khalaf:  Engineer 3 
 ENG4.         Muhammad Mubeen:  Engineer 4 
 ETIM.      05.40.54 26-Jun-16:  End Time 
 FLOI.lpm          1800.000122:  Flow In 
 FLON.lpm          1500.000000:  Flow In Min 
 FLOS.lpm             0.000000:  Fluid Loss 
 FLOX.lpm          1800.000122:  Flow In Max 
 DFT .                   Other:  Mud Type 
 HFLO.                      No:  High Flow 
 HPRE.                      No:  High Pressure 
 HTEM.                      No:  High Temp 
 HYDO.m               1.400000:  Hydro Offset 
 IFIN.deg            10.460000:  Inc, Final 
 IMAX.deg            32.367214:  Inc Max 
 IMIN.deg            11.447388:  Inc Min 
 IMND.m            5236.799805:  Inc Min Depth 
 IMXD.m            4790.299805:  Inc Max Depth 
 JARR.                      No:  Jarring 
 LETM.      12.28.32 23-Jun-16:  Log End Time 
 LOST.hr                     0:  Lost Rig Time 
 LSTM.      14.30.00 17-Jun-16:  Log Start Time 
 MDCL.ppm         23000.000000:  Mud Chlorides 
 MDES.             Fresh Water:  Mud Desc 
 DFD .g/c3            1.170004:  Mud Density 
 MDMN.g/c3            1.160004:  Dens Mud Min 
 MDMX.g/c3            1.170004:  Dens Mud Max 
 PH  .pH              9.400000:  Mud pH 
 MOIL.                       0:  Run Mud Oil % 
 MOWR.                    1 91:  Run Mud OWR 
 MSND.                     0.1:  Run Mud Sand % 
 MSOL.                     6.2:  Run Mud Solids% 
 DFV .spl            73.000000:  Mud Viscosity 
 MWOD.in              6.750000:  MWD Tool OD 
 MWSI.                      No:  Serv Intrp, MWD 
 OTIM.hr            238.111023:  Time Operating 
 PMAX.psig         4000.000000:  Press Op, Max 
 PV  .mPsec          36.000000:  Mud PV 
 RMS .ohmm            0.299000:  Mud Resistivity 
 RMCS.ohmm            0.397000:  Mud Cake Resistivity 
 MCST.degC           35.000000:  Mud Cake Sample Temperature 
 RMFS.ohmm            0.200000:  Mud Filtrate Resistivity 
 RMFT.degC           35.000000:  Mud Filtrate Sample Temperature 
 RMMT.ohmm            0.118100:  Rm @ Max Temp 
 MST .degC           35.000000:  Mud Sample Temperature 
 RUN .                    3300:  Run Number 
 ROPA.m/hr            4.450000:  ROP Avg 
 ROPN.m/hr            2.000000:  ROP Min 
 ROPX.m/hr            7.000000:  ROP Max 
 RPMA.rpm            78.000000:  RPM Surface Avg 
 RPMN.rpm            35.000000:  RPM Surface Min 
 RPMX.rpm            80.000000:  RPM Surface Max 
 RRUN.                    3300:  Rig Run Number 
 RTIM.hr              7.150000:  Time Reaming 
 SAZI.deg           249.699997:  Azm, Start 
 SDEP.m            4799.000000:  Start Depth 
 SIDD.                      No:  Serv Intrp, DD 
 SINC.deg            30.049999:  Inc, Start 
 SPPA.psig         4543.999023:  SPP Avg 
 SPPN.psig         4264.078613:  SPP Min 
 SPPX.psig         4641.173828:  SPP Max 
 STIM.      09.00.00 16-Jun-16:  Start Time 
 SVCS.                 DD, MWD:  Services 
 SVER.                8.300000:  Sperry Version 
 TDAT.m             455.000000:  Tot Depth Attmp 
 TDDF.                      No:  Trip for DD 
 TDLG.m             455.000000:  Tot Depth Loggd 
 TFF .                      No:  Trip for Fail 
 TQAA.f-p         37070.000000:  Torque Abs Avg 
 TQAN.f-p         35000.000000:  Torque Abs Min 
 TQAX.f-p         39000.000000:  Torque Abs Max 
 TRRT.°/100'          0.000000:  Turn Rotating 
 MRT .                     PWD:  Maximum Recorded Temperature 
 TTMX.degC          121.568352:  Max Tool Temp 
 VS01.     AD90473258H2V5WGV2COXF1(6):  Virtual Str1 SN 
 WBMN.klb             4.409245:  WOB Min 
 WITN.           Roger Butters:  Customer Rep 
 WOBA.klb             9.788525:  WOB Avg 
 WOBX.klb            13.227736:  WOB Max 
 YP  .pa             43.000000:  Yield Point 
~Curve Information Block
#MNEM.UNIT                 API CODE     Curve Description
#---------               -----------    ---------------------------
 DEPT.M                 00 000 000 000:  Depth
 DGRCC.api              00 000 000 000:  DGR Comb Gamma Ray BCorr
 ALHSI.in               00 000 000 000:  ALD Hole Size Indicator
 ABR .ohmm              00 000 000 000:  At-Bit Resistivity
 AFRSA.ohmm             00 000 000 000:  AFR Shallow Avg Res
 AFRMA.ohmm             00 000 000 000:  AFR Medium Avg Res
 AFRDA.ohmm             00 000 000 000:  AFR Deep Avg Res
 AFXT.hr                00 000 000 000:  AFR Form Exp Time
 ALCDLC.g/c3            00 000 000 000:  ALD LCRB Comp Density
 ALPELC.NONE            00 000 000 000:  ALD LCRB Pe Factor
 ALDCLC.g/c3            00 000 000 000:  ALD LCRB Den Correction
 TNPL.pu                00 000 000 000:  CTN Porosity Limestone
 DTC .uspf              00 000 000 000:  BAT DTC
 DTRS.uspf              00 000 000 000:  BAT Refracted Shear
 VPVS.NONE              00 000 000 000:  BAT VP/VS
#Other Information
#
#WARRANTY: Halliburton will use its best efforts to furnish customers with 
#accurate information and interpretations that are part of, and incident to, the services 
#provided.  However, Halliburton cannot and does not warrant the accuracy 
#or correctness of such information and interpretations.  Under no circumstances should any 
#such information or interpretation be relied upon as the sole basis for any drilling, 
#completion, production, or financial decision or any procedure involving any risk to the 
#safety of any drilling venture, drilling rig or its crew or any other third party.  The 
#Customer has full responsibility for all drilling, completion and production operation.  
#Halliburton makes no representations or warranties, either expressed or 
#implied, including, but not limited to, the implied warranties of merchantability or fitness 
#for a particular purpose, with respect to the services rendered.  In no event will 
#Halliburton be liable for failure to obtain any particular results or for 
#any damages, including, but not limited to, indirect, special or consequential damages, 
#resulting from the use of any information or interpretation provided by Halliburton.
#
~A   DEPT      DGRCC     ALHSI      ABR      AFRSA     AFRMA     AFRDA     AFXT     ALCDLC    ALPELC    ALDCLC     TNPL       DTC      DTRS      VPVS    
# ...
   5247.2844   57.6764 -999.2500 -999.2500    0.0089   21.3576 -999.2500   73.3500    1.1356   14.3048   -1.5270   14.8433   51.4031  102.0273    1.9849
   5247.4368   47.5073 -999.2500 -999.2500    0.0088   20.4559 -999.2500   73.3471    1.0920   13.8324   -1.5592   14.7732   51.4058  102.1379    1.9870
   5247.5892   32.0144 -999.2500 -999.2500    0.0088   19.5543 -999.2500   73.3438    1.0728   13.9916   -1.5598   14.8957   51.4433  102.7001    1.9964
   5247.7416   20.6345 -999.2500 -999.2500    0.0088   18.6526 -999.2500   73.3407    1.0634   14.2983   -1.5446   14.6964   51.7403  103.7517    2.0055
   5247.8940   15.0540 -999.2500 -999.2500    0.0087   17.7510 -999.2500   73.3378    1.0201   14.5329   -1.5467   14.6774   53.0325  104.5700    1.9726
   5248.0464   13.9525 -999.2500 -999.2500    0.0091   16.8493 -999.2500   73.3346    0.8651   14.3862   -1.6759   14.1840   54.2936  104.4902    1.9297
   5248.1988   17.1974 -999.2500 -999.2500    0.0093   15.9477 -999.2500   73.3315    0.8280   14.3957   -1.7169   13.4665   54.8039  103.5626    1.8968
   5248.3512   17.8921 -999.2500 -999.2500    0.0091   15.0460 -999.2500   73.3285    0.9509   14.6814   -1.6292   13.0480   55.8477  102.4428    1.8077
   5248.5036   15.6424 -999.2500 -999.2500    0.0089   14.1443 -999.2500   73.3253    1.0659   14.8376   -1.5307   12.1867   55.9795  101.3261    1.8050
   5248.6560   18.0338 -999.2500 -999.2500    0.0090   13.2427 -999.2500   73.3221    1.0869   14.8647   -1.5148   11.9960   55.7031  103.1458    1.8519
   5248.8084   20.8010 -999.2500 -999.2500    0.0091   12.3410 -999.2500   73.3192    1.0713   14.8548   -1.5423   11.0423   54.4684  102.7203    1.8865
   5248.9608   18.0439 -999.2500 -999.2500    0.0093   11.4394 -999.2500   73.3161    1.1341   14.9853   -1.5259   11.4310   53.4616  102.0945    1.9099
   5249.1132   16.0082 -999.2500 -999.2500    0.0096   10.5377 -999.2500   73.3130    1.1057   15.1784   -1.5628   11.6016   53.1515  103.2770    1.9433
   5249.2656   20.2637 -999.2500 -999.2500    0.0093    9.6361 -999.2500   73.3100    0.9980   15.1849   -1.6405   10.8249   52.9638  104.6888    1.9771
   5249.4180   21.0037 -999.2500 -999.2500    0.0091    8.7344 -999.2500   73.3068    0.9005   14.2289   -1.7740   10.2527   51.4379  105.6702    2.0556
   5249.5704   18.8179 -999.2500 -999.2500    0.0094    7.8327 -999.2500   73.3038    0.8727   14.2623   -2.2998   11.0521   50.5716  106.0624    2.0976
   5249.7228   17.4305 -999.2500 -999.2500    0.0092    6.9311 -999.2500   73.3007    0.8727   14.8257   -2.8506   12.9370   50.2964  106.3757    2.1150
   5249.8752   20.6282 -999.2500 -999.2500    0.0087    6.0294 -999.2500   73.2978    0.8527   15.5078   -3.5141   13.0740   50.2800  105.7963    2.1046
   5250.0276   21.4629 -999.2500 -999.2500    0.0087    7.2036 -999.2500   73.2945    0.8326   15.4246   -4.5101   11.7402   51.8208  105.6007    2.0386
   5250.1800   21.5801 -999.2500 -999.2500    0.0091    7.1891 -999.2500   73.2915    0.8125   15.2876   -4.4601   11.6267   52.4384  105.1955    2.0061
   5250.3324   21.8415 -999.2500 -999.2500    0.0112    3.2874 -999.2500   73.2885    0.7924   15.3359   -4.1167   11.9971   52.4025  105.7379    2.0178
   5250.4848   21.1633 -999.2500 -999.2500    0.0266    1.6045 -999.2500   73.2854    0.7924   14.8535   -2.8769   10.5807   52.4720  105.9862    2.0200
   5250.6372   19.1458 -999.2500 -999.2500    0.0804    1.9444 -999.2500   73.2822    1.4288   14.5373   -1.4036    9.2542   52.5090  103.2350    1.9666
   5250.7896   18.7169 -999.2500 -999.2500    0.1867    3.1602 -999.2500   73.2793    2.4765   14.5241    0.0870    9.1311   52.8973  100.6893    1.9048
   5250.9420   23.3136 -999.2500 -999.2500    0.4185    4.9851 -999.2500   73.2762    2.6139   14.6548    0.2471    7.6306   51.1595   99.4607    1.9447
   5251.0944   28.1030 -999.2500 -999.2500    1.3027   10.3785 -999.2500   73.2729    2.6200   14.6974    0.2498    6.6374   51.0903   99.8440    1.9466
   5251.2468   17.0574 -999.2500 -999.2500    3.2654   22.5495   97.0196   73.2701    2.6279   14.7623    0.2513    6.1469   51.2846  102.0347    1.9409
   5251.3992   22.9883 -999.2500 -999.2500    4.4810   35.9089   68.1865   73.2670    2.6170   14.6336    0.2426    5.0717   52.1950  104.0565    2.0038
   5251.5516   20.7662 -999.2500 -999.2500    5.3646   46.5754   55.8600   73.2637    2.6193   14.5975    0.2427    4.2750   52.4035  104.4978    1.9947
   5251.7040   23.5536 -999.2500 -999.2500    6.0376   55.0458   62.0851   73.2607    2.6316   14.6473    0.2483    3.8619   53.4966  104.2124    1.9479
   5251.8564   27.3926 -999.2500 -999.2500    6.1322   51.4192   58.3685   73.2578    2.6356   14.5362    0.2386    4.2666   54.1284  104.0365    1.9222
   5252.0088   27.0101 -999.2500 -999.2500    5.7265   27.1810   29.2366   73.2544    2.6514   14.2798    0.2362    5.2392   54.4551  103.4569    1.9000
   5252.1612   23.8566 -999.2500 -999.2500    5.1973   14.1228   14.4971   73.2515    2.6658   14.0564    0.2346    6.6608   54.4418  102.0565    1.8749
   5252.3136   19.9008 -999.2500 -999.2500    5.4357   15.2840   15.8316   73.2485    2.6481   14.1454    0.2159    7.8522   54.7770   99.7211    1.8206
   5252.4660   16.9741 -999.2500 -999.2500    7.0960   28.2399   29.4713   73.2451    2.6490   14.0361    0.2032    8.8124   54.7883   99.6002    1.8178
   5252.6184   17.4662 -999.2500 -999.2500    8.8225   35.2855   36.0973   73.2422    2.6551   13.8302    0.1921    9.5390   54.2207   97.6431    1.8007
   5252.7708   15.0507 -999.2500 -999.2500    9.2126   27.8636   27.5551   73.2392    2.6519   13.7633    0.1998   11.5430   53.8871   96.4054    1.7890
   5252.9232   18.2224 -999.2500 -999.2500    8.4792   17.0184   16.7195   73.2359    2.6389   13.7572    0.1999   13.5157   53.6860   95.6758    1.7821
   5253.0756   13.1782 -999.2500 -999.2500    7.9521   12.2016   12.1761   73.2328    2.6531   12.5938    0.1494   19.2389   53.5849   95.1175    1.7751
   5253.2280   17.7916 -999.2500 -999.2500    7.4453   10.8501   10.9857   73.2300    2.6649   11.9163    0.1132   21.1611   53.8843   95.6234    1.7748
   5253.3804   20.9728 -999.2500 -999.2500    6.7546    9.8577    9.8327   73.2268    2.6379   10.1567    0.0373   20.7120   55.3476   96.7161    1.7480
   5253.5328   16.8547 -999.2500 -999.2500    6.6018    9.5737    9.1747   73.2236    2.6357    8.4587   -0.0128   19.4628   57.2036   98.6953    1.7256
   5253.6852   18.5381 -999.2500 -999.2500    7.0884    9.9584    9.7019   73.2207    2.6627    6.3361   -0.0479   19.9957   57.4132   99.3178    1.7299
   5253.8376   22.4262 -999.2500 -999.2500    7.8353   10.2237   10.6725   73.2176    2.6676    5.9258   -0.0480   20.2607   57.0676   99.1910    1.7381
   5253.9900   21.2351 -999.2500 -999.2500    9.2449   10.3775   11.2575   73.2143    2.6603    5.8959   -0.0508   17.2446   56.4595   98.2220    1.7402
   5254.1424   18.1861 -999.2500 -999.2500   11.2429   11.3250   12.5102   73.2113    2.6410    5.9259   -0.0637   14.8951   53.6249   95.6683    1.7866
   5254.2948   18.2445 -999.2500 -999.2500   13.0816   13.0093   15.3520   73.2083    2.6642    5.8017   -0.0533   14.2299   51.4709   94.3156    1.8329
   5254.4472   17.3522 -999.2500 -999.2500   15.0523   15.0202   18.7892   73.2050    2.6800    5.9532   -0.0369   14.5302   51.5584   95.3750    1.8499
   5254.5996   21.6252 -999.2500 -999.2500   15.4314   15.8719   20.1343   73.2023    2.6870    6.4434   -0.0118   15.4997   51.9728   96.1638    1.8508
   5254.7520   20.2578 -999.2500 -999.2500   14.0006   15.3053   19.9287   73.1995    2.6731    6.5087   -0.0060   16.6703   53.6183   97.4779    1.8184
   5254.9044   15.4713 -999.2500 -999.2500   12.2105   13.4484   17.6100   73.1963    2.6480    6.7184   -0.0090   17.6342   55.1580   99.1870    1.7985
   5255.0568   15.1977 -999.2500 -999.2500   10.2145   10.8543   14.0465   73.1935    2.6132    7.1615   -0.0200   18.9431   56.8871  100.9437    1.7749
   5255.2092   16.0283 -999.2500 -999.2500    8.2608    8.9830   10.5245   73.1907    2.6111    7.1787   -0.0352   19.3630   57.7973  101.5184    1.7566
