~Version
 VERS              .         3                             : CWLS LOG ASCII STANDARD - VERSION 3.0
 WRAP              .         NO                            : ONE LINE PER DEPTH STEP
 DLM               .         SPACE                         : DELIMITING CHARACTER(SPACE TAB OR COMMA)
~Well Information
#_______________________________________________________________________________
#
#PARAMETER_NAME    .UNIT     VALUE                         : DESCRIPTION
#_______________________________________________________________________________
STRT               .F        4494                          : First reference value
STOP               .F        7635                          : Last reference value
STEP               .F        0.5                           : Step increment
NULL               .         -9999                         : Missing value
WELL               .         SY027104H                     : Well name
ORIGINALWELLNAME   .         Well                          : 
RANG               .                                       : 
REGN               .         Abu Dhabi                     : 
AZTC               .deg      0.383835                      : 
GRDC               .deg      1.093917                      : 
WHEW               .ft       0.000000                      : 
TDL                .ft       3000.000000                   : 
TOWN               .                                       : 
NREF               .         2                             : 
DOE                .         AD-FE-0007255267              : 
EGL                .ft       407.799988                    : 
GVFD               .g        1.000000                      : 
COLG               .         186HAL_lg.bmp                 : 
WHNS               .ft       0.000000                      : 
CREF               .         Ellipsoid Clarke - 1880       : 
VSDR               .deg      55.740002                     : 
FTOP               .         Formation Tops                : 
LLGR               .         Latitude/Longitude            : 
EPD                .ft       0.000000                      : 
WDMS               .ft       0.000000                      : 
DFWL               .ft       0.000000                      : 
MFLD               .nT       42523.898438                  : 
GREF               .         Ellipsoid World Geodetic System: 
CTRY               .         UN                            : Two letter Internet country code
COUNTRY            .         United Arab Emirates          : 
DFWT               .                                       : 
CNTY               .         Abu Dhabi                     : 
VSEW               .ft       0.000000                      : 
UWI                .         AD-FE-0007255267              : 
CSGD               .ft       4170.000000                   : 
STAT               .         Abu Dhabi                     : 
APD                .ft       429.000000                    : 
BASE               .         Abu Dhabi                     : 
VSNS               .ft       0.000000                      : 
DCON               .         Al-Mansoory                   : 
API                .         AD-FE-0007255267              : 
GPMT               .                                       : 
CSGL               .ft       4170.000000                   : 
MDEC               .deg      1.477752                      : 
LONG               .deg      53.809174                     : 
CSGS               .in       9.625000                      : 
SPUD               .         20-Mar-10                     : 
MDS                .         Win MagUTM                    : 
CMER               .deg      51.000000                     : 
SRVC               .         NDC                           : 
CSGW               .lbpf     47.000000                     : 
SON                .         AD-FE-0007255267              : 
TVDS               .ft       429.000000                    : 
LMF                .         Kelly Bushing                 : 
CGSY               .         SS CLRK51                     : 
EKB                .ft       429.000000                    : 
HPTY               .         0                             : 
MWDS               .         Dubai                         : 
GGSY               .         LL                            : 
RCST               .$/da     0.000000                      : 
FLD                .         Shah                          : 
SVYD               .         Survey_DS                     : 
CCDE               .         UTM Clarke 1880 (CM 51), Meters: 
AGAP               .ft       0.000000                      : 
LOC                .                                       : 
DFSL               .ft       0.000000                      : 
EDF                .ft       428.000031                    : 
UNIT               .         166264                        : 
RIG                .         ND-50                         : 
VSC                .         0                             : 
LEAS               .                                       : 
XYGR               .         UTM Zones, Northern Hemisphere, Meters: 
GCDE               .         Generic Lat/Long's, Degrees, -180 ==> +180: 
DFST               .                                       : 
ILTD               .         Lithology                     : 
DMOD               .         Drill Model                   : 
JOBN               .         AD-FE-0007255267              : 
LATI               .deg      22.900974                     : 
DMF                .         Kelly Bushing                 : 
STIM               .         00.00.00 28-Mar-10            : 
CULG               .                                       : 
SECT               .                                       : 
PDAT               .         Mean Sea Level                : 
CPJM               .                                       : 
STRD               .ft       4648.000000                   : 
WTYP               .         2                             : 
COMP               .         ADCO                          : 
MAGU               .         1453103                       : 
PROV               .         Abu Dhabi                     : 
MMDL               .         bggm2009.dat                  : 
UTMX               .m        788186.312500                 : 
UTMY               .m        2535096.000000                : 
DATE               .         00.00.00 03-Apr-10            : 
TDD                .ft       7648.000000                   : 
MDIP               .deg      34.939442                     : 
GDAT               .                                       : 
LIC                .                                       : 
~Parameter Information Block
#_______________________________________________________________________________
#
#PARAMETER_NAME    .UNIT     VALUE                         : DESCRIPTION
#_______________________________________________________________________________
SET                .         WL_FINAL                      : 
LMF                .         ORTKB                         : Logging Measured From (Name of Logging Elevation Reference)
APD                .F        428.000000                    : Elevation of Depth Reference (LMF) above Permanent Datum
EPD                .F        0.000000                      : Elevation of Permanent Datum above Mean Sea Level
RUN                .         1                             : RUN NUMBER
PDAT               .         MSL                           : Permanent Datum
~Curve Information
#_______________________________________________________________________________
#
#LOGNAME           .UNIT     LOG_ID                        : DESCRIPTION
#_______________________________________________________________________________
DEPT               .F                                      : DEPTH (BOREHOLE) -F10 {F}
C1                 .IN                                     : Caliper 1 -F13 {F}
C2                 .IN                                     : Caliper 2 -F13 {F}
HCGR               .GAPI                                   : HNGS Computed Gamma Ray -F13 {F}
HSGR               .GAPI                                   : HNGS Standard Gamma Ray -F13 {F}
RT_HRLT            .OHMM                                   : HRLT Computed True Resistivity -F13 {F}
RXO_HRLT           .OHMM                                   : HRLT Computed Invaded Zone Resistivity -F13 {F}
TENS               .LBF                                    : Cable Tension -F13 {F}
~Ascii
# ...
5540.5     5.9596     5.8529     4.8872     60.4336    21.1652    20.2344    2859      
5541       5.9672     5.8529     5.3302     58.6581    24.6404    22.7542    2886      
5541.5     5.9672     5.8529     5.3471     58.9416    15.1975    14.7232    2910      
5542       5.9672     5.8601     4.9668     56.3387    14.5694    15.2002    3011      
5542.5     5.9558     5.8601     4.6123     57.0796    14.4363    14.4453    2985      
5543       5.9747     5.8673     4.6681     56.0314    15.24      16.8888    2907      
5543.5     5.9672     5.8673     4.5386     58.4449    18.5461    18.3792    2886      
5544       5.9672     5.8673     3.7446     57.9045    19.1887    19.4346    2813      
5544.5     5.9672     5.8673     3.0085     57.4289    21.2011    18.8988    2875      
5545       5.9672     5.8673     1.5423     57.9718    17.5102    17.8072    2971      
5545.5     5.9634     5.8673     1.7534     58.2719    21.6401    21.7234    3007      
5546       5.952      5.8673     1.8749     63.4933    17.5097    16.4402    2989      
5546.5     5.9672     5.8673     2.1174     65.1992    12.8905    13.4555    2998      
5547       5.9709     5.8673     1.7587     67.2408    15.9762    17.8204    2935      
5547.5     5.9596     5.8745     1.9319     68.0078    19.3647    23.5312    2872      
5548       5.9672     5.8601     2.2434     68.8378    13.4628    14.9599    2812      
5548.5     5.9747     5.8673     2.4873     70.8452    10.2288    13.2919    2892      
5549       5.9747     5.8601     1.9842     69.091     12.4026    16.5638    2876      
5549.5     5.9558     5.8673     2.3896     67.555     12.8114    14.8026    2889      
5550       5.9596     5.8673     2.5691     65.4091    14.2124    14.6286    3020      
5550.5     5.9672     5.8673     3.5672     63.4402    16.3001    16.9056    2973      
5551       5.9709     5.8601     3.4945     61.8641    19.4818    18.8841    2920      
5551.5     5.9747     5.8745     3.2482     58.2452    14.7696    14.2773    2820      
5552       5.9596     5.8601     3.2358     55.2122    17.1175    17.1854    2871      
5552.5     5.9596     5.8529     3.5534     54.6218    18.4067    18.9344    2777      
5553       5.9709     5.8601     3.9171     55.4216    20.397     20.8967    2908      
5553.5     5.9672     5.8493     3.4891     58.197     21.3476    20.374     2950      
5554       5.9672     5.8386     3.4134     57.746     15.5055    15.2439    2987      
5554.5     5.9747     5.8673     3.3497     58.5302    14.9927    15.5872    3067      
5555       5.9672     5.8458     3.327      56.1894    18.3874    17.9584    2891      
5555.5     5.9672     5.8529     3.2869     55.8465    16.453     16.4917    2903      
5556       5.9747     5.8601     2.9577     55.1176    19.232     19.2024    2833      
5556.5     5.9785     5.8601     2.0538     55.4499    20.0064    19.263     2892      
5557       5.9975     5.8458     1.6438     55.6133    16.9269    15.2761    2871      
5557.5     6.0126     5.8601     2.3129     56.2846    13.3002    13.3624    2973      
5558       6.0278     5.8458     1.8928     56.4576    17.0699    16.6252    2995      
5558.5     5.9823     5.8458     1.6416     55.5332    14.7565    15.3653    2957      
5559       5.9709     5.8458     2.4971     56.9802    13.2504    12.6022    2965      
5559.5     5.9672     5.8386     2.3484     59.3836    10.0894    10.3838    2914      
5560       5.9747     5.8493     2.6882     61.5253    12.4137    13.0887    2837      
5560.5     5.9747     5.8386     1.7818     60.4738    16.4937    16.1699    2851      
5561       5.9747     5.8601     1.9209     59.9044    19.2355    15.0852    2967      
5561.5     5.9785     5.8601     1.5946     59.8169    17.9891    10.332     2924      
5562       5.9709     5.8637     2.209      61.0304    15.1414    10.837     2959      
5562.5     5.9596     5.8601     2.8268     61.8636    13.6289    13.0509    2971      
5563       5.9709     5.8565     1.0074     64.0268    14.7016    13.8111    2930      
5563.5     5.9672     5.8493     1.367      64.6162    12.2982    10.7471    2884      
5564       5.9596     5.8529     0.7726     64.1747    11.1762    9.3193     2924      
5564.5     5.9596     5.8601     -0.1247    63.5741    14.163     13.8983    2922      
5565       5.9709     5.8458     -0.4502    62.8129    13.7783    12.6716    2962      
5565.5     5.952      5.8601     -0.1998    61.1901    15.4856    11.0668    3040      
5566       5.9672     5.8565     -0.2017    58.5015    13.6852    10.8096    2989      
5566.5     5.9747     5.8601     0.3261     56.3032    20.5479    14.8367    2894      
5567       5.9672     5.8529     0.8033     57.4039    14.0839    12.0377    2839      
5567.5     5.9672     5.8601     0.9806     56.3177    18.5554    13.9821    2872      
5568       5.9747     5.8601     1.1242     56.488     14.8622    10.9798    3002      
5568.5     5.9596     5.8529     1.944      55.4848    18.829     12.5822    2955      
5569       5.9899     5.8529     2.1669     57.3484    17.6768    12.7536    3009      
5569.5     5.9785     5.8458     3.2145     58.5149    18.5469    14.6316    2999      
5570       5.9747     5.8386     2.5011     58.8468    18.1436    13.9906    2906      
5570.5     5.9634     5.8529     1.6258     59.634     17.8119    11.3445    2844      
5571       5.9596     5.8458     0.9636     60.5495    13.9829    9.7823     2854      
5571.5     5.9747     5.8673     2.0643     63.4425    25.8198    14.8162    2703      
5572       5.9823     5.8601     1.4794     67.5878    15.1085    9.3433     2938      
5572.5     5.9672     5.8544     1.4494     67.7769    12.1616    8.249      2534      
5573       5.9646     5.8601     1.0803     65.8299    13.9688    13.8067    2038      
5573.5     5.9709     5.8673     0.6853     61.2443    10.8076    9.7267     1729      
5574       5.9785     5.8458     0.4202     62.1263    11.862     8.2912     3043      
5574.5     5.9672     5.8673     0.0599     62.5312    9.656      5.8979     2969      
5575       5.9672     5.8673     -0.6797    65.1132    12.3105    9.3409     2818      
5575.5     5.9747     5.8709     -0.0564    66.7153    19.2436    9.9989     2850      
5576       5.9747     5.8745     1.1609     69.5795    18.3956    9.3803     2890      
5576.5     5.9634     5.8817     2.0278     71.0156    18.5381    9.6267     2909      
5577       5.9747     5.8673     0.9707     72.2629    21.3407    12.003     2882      
5577.5     5.9899     5.8673     1.9658     73.3504    14.8384    9.7014     2890      
5578       5.952      5.8422     1.6016     73.6181    14.9096    9.9768     2807      
5578.5     5.9747     5.8458     1.9255     72.7521    14.4541    10.1615    2817      
5579       5.9785     5.8673     2.7554     72.6358    11.8191    8.4118     2838      
5579.5     5.9747     5.8745     3.6976     72.2653    18.3852    9.9148     2871      
5580       5.9823     5.8745     3.8282     70.1426    14.2663    8.5149     2907      
5580.5     5.9672     5.8601     3.8929     68.0842    22.5226    11.8913    2912      
5581       5.9596     5.9032     4.6291     66.1474    23.0415    11.7902    2795      
5581.5     5.9823     5.9032     4.5877     67.163     17.4462    8.7522     2800      
5582       5.9596     5.8817     4.8515     68.0844    13.0669    7.2683     2792      
5582.5     5.9747     5.8961     5.5272     71.8177    14.671     10.5836    2841      
5583       5.9596     5.932      5.1872     73.9813    12.4318    10.5413    2832      
5583.5     5.9747     5.9679     5.2511     75.5507    7.0696     6.231      2940      
5584       5.9747     5.9823     5.7272     74.3652    6.5105     6.3405     2930      
5584.5     5.9634     5.8673     5.6839     74.5299    16.1408    12.6279    2930      
5585       5.9747     5.8601     5.3128     72.7676    19.1106    12.0396    2831      
5585.5     5.9672     5.8529     6.2846     72.8866    8.8257     6.0284     2780      
