~Version
 VERS              .         3                             : CWLS LOG ASCII STANDARD - VERSION 3.0
 WRAP              .         NO                            : ONE LINE PER DEPTH STEP
 DLM               .         SPACE                         : DELIMITING CHARACTER(SPACE TAB OR COMMA)
~Well Information
#_______________________________________________________________________________
#
#PARAMETER_NAME    .UNIT     VALUE                         : DESCRIPTION
#_______________________________________________________________________________
STRT               .F        4494                          : First reference value
STOP               .F        7635                          : Last reference value
STEP               .F        0.5                           : Step increment
NULL               .         -9999                         : Missing value
WELL               .         SY027104H                     : Well name
ORIGINALWELLNAME   .         Well                          : 
RANG               .                                       : 
REGN               .         Abu Dhabi                     : 
AZTC               .deg      0.383835                      : 
GRDC               .deg      1.093917                      : 
WHEW               .ft       0.000000                      : 
TDL                .ft       3000.000000                   : 
TOWN               .                                       : 
NREF               .         2                             : 
DOE                .         AD-FE-0007255267              : 
EGL                .ft       407.799988                    : 
GVFD               .g        1.000000                      : 
COLG               .         186HAL_lg.bmp                 : 
WHNS               .ft       0.000000                      : 
CREF               .         Ellipsoid Clarke - 1880       : 
VSDR               .deg      55.740002                     : 
FTOP               .         Formation Tops                : 
LLGR               .         Latitude/Longitude            : 
EPD                .ft       0.000000                      : 
WDMS               .ft       0.000000                      : 
DFWL               .ft       0.000000                      : 
MFLD               .nT       42523.898438                  : 
GREF               .         Ellipsoid World Geodetic System: 
CTRY               .         UN                            : Two letter Internet country code
COUNTRY            .         United Arab Emirates          : 
DFWT               .                                       : 
CNTY               .         Abu Dhabi                     : 
VSEW               .ft       0.000000                      : 
UWI                .         AD-FE-0007255267              : 
CSGD               .ft       4170.000000                   : 
STAT               .         Abu Dhabi                     : 
APD                .ft       429.000000                    : 
BASE               .         Abu Dhabi                     : 
VSNS               .ft       0.000000                      : 
DCON               .         Al-Mansoory                   : 
API                .         AD-FE-0007255267              : 
GPMT               .                                       : 
CSGL               .ft       4170.000000                   : 
MDEC               .deg      1.477752                      : 
LONG               .deg      53.809174                     : 
CSGS               .in       9.625000                      : 
SPUD               .         20-Mar-10                     : 
MDS                .         Win MagUTM                    : 
CMER               .deg      51.000000                     : 
SRVC               .         NDC                           : 
CSGW               .lbpf     47.000000                     : 
SON                .         AD-FE-0007255267              : 
TVDS               .ft       429.000000                    : 
LMF                .         Kelly Bushing                 : 
CGSY               .         SS CLRK51                     : 
EKB                .ft       429.000000                    : 
HPTY               .         0                             : 
MWDS               .         Dubai                         : 
GGSY               .         LL                            : 
RCST               .$/da     0.000000                      : 
FLD                .         Shah                          : 
SVYD               .         Survey_DS                     : 
CCDE               .         UTM Clarke 1880 (CM 51), Meters: 
AGAP               .ft       0.000000                      : 
LOC                .                                       : 
DFSL               .ft       0.000000                      : 
EDF                .ft       428.000031                    : 
UNIT               .         166264                        : 
RIG                .         ND-50                         : 
VSC                .         0                             : 
LEAS               .                                       : 
XYGR               .         UTM Zones, Northern Hemisphere, Meters: 
GCDE               .         Generic Lat/Long's, Degrees, -180 ==> +180: 
DFST               .                                       : 
ILTD               .         Lithology                     : 
DMOD               .         Drill Model                   : 
JOBN               .         AD-FE-0007255267              : 
LATI               .deg      22.900974                     : 
DMF                .         Kelly Bushing                 : 
STIM               .         00.00.00 28-Mar-10            : 
CULG               .                                       : 
SECT               .                                       : 
PDAT               .         Mean Sea Level                : 
CPJM               .                                       : 
STRD               .ft       4648.000000                   : 
WTYP               .         2                             : 
COMP               .         ADCO                          : 
MAGU               .         1453103                       : 
PROV               .         Abu Dhabi                     : 
MMDL               .         bggm2009.dat                  : 
UTMX               .m        788186.312500                 : 
UTMY               .m        2535096.000000                : 
DATE               .         00.00.00 03-Apr-10            : 
TDD                .ft       7648.000000                   : 
MDIP               .deg      34.939442                     : 
GDAT               .                                       : 
LIC                .                                       : 
~Parameter Information Block
#_______________________________________________________________________________
#
#PARAMETER_NAME    .UNIT     VALUE                         : DESCRIPTION
#_______________________________________________________________________________
SET                .         WL_FINAL                      : 
LMF                .         ORTKB                         : Logging Measured From (Name of Logging Elevation Reference)
APD                .F        428.000000                    : Elevation of Depth Reference (LMF) above Permanent Datum
EPD                .F        0.000000                      : Elevation of Permanent Datum above Mean Sea Level
RUN                .         1                             : RUN NUMBER
PDAT               .         MSL                           : Permanent Datum
~Curve Information
#_______________________________________________________________________________
#
#LOGNAME           .UNIT     LOG_ID                        : DESCRIPTION
#_______________________________________________________________________________
DEPT               .F                                      : DEPTH (BOREHOLE) -F10 {F}
C1                 .IN                                     : Caliper 1 -F13 {F}
C2                 .IN                                     : Caliper 2 -F13 {F}
HCGR               .GAPI                                   : HNGS Computed Gamma Ray -F13 {F}
HSGR               .GAPI                                   : HNGS Standard Gamma Ray -F13 {F}
RT_HRLT            .OHMM                                   : HRLT Computed True Resistivity -F13 {F}
RXO_HRLT           .OHMM                                   : HRLT Computed Invaded Zone Resistivity -F13 {F}
TENS               .LBF                                    : Cable Tension -F13 {F}
~Ascii
# ...
5131       6.0126     5.932      7.6709     90.4469    11.9459    5.5321     2399      
5131.5     6.0088     5.9463     7.3225     90.5858    10.5903    5.074      2426      
5132       6.005      5.9248     7.1917     90.8214    10.7195    5.3278     2448      
5132.5     5.9899     5.9751     6.285      87.7177    10.9535    5.6412     2402      
5133       6.0088     5.9751     6.4057     87.7394    9.3492     4.7847     2289      
5133.5     6.005      5.9032     7.1045     86.7008    8.7946     4.3037     2312      
5134       5.9899     5.9032     7.1226     87.3318    8.9903     4.4727     2339      
5134.5     6.0013     5.9032     7.0544     85.7154    9.8773     5.1388     2413      
5135       6.0088     5.9032     6.7085     84.6876    11.0453    5.5148     2449      
5135.5     6.005      5.8961     7.0636     85.5168    7.8902     4.0098     2420      
5136       5.9747     5.9176     5.8578     86.5765    7.9169     3.8929     2365      
5136.5     5.9899     5.8529     5.6519     85.3143    9.8506     4.884      2350      
5137       5.9709     5.8673     4.9306     84.6823    10.4972    5.4612     2325      
5137.5     5.9709     5.8565     4.5257     83.502     10.9956    5.5315     2299      
5138       5.9747     5.8601     6.1124     83.3358    10.0937    5.1371     2389      
5138.5     5.9596     5.8529     5.4195     84.7007    9.0762     4.7881     2413      
5139       5.9747     5.8565     5.0265     87.0431    9.6644     5.1814     2432      
5139.5     5.9672     5.8673     5.4968     89.4753    9.8805     5.2967     2367      
5140       5.9747     5.8601     5.2943     88.3517    10.9024    5.8712     2318      
5140.5     5.9596     5.8601     4.7135     85.9726    12.4568    6.333      2317      
5141       5.9596     5.8601     6.1033     84.8624    10.3058    5.3381     2280      
5141.5     5.9823     5.8745     5.8019     81.9127    10.6689    5.3566     2299      
5142       5.9747     5.8601     5.6052     81.3452    11.0882    5.6719     2377      
5142.5     5.9747     5.8673     5.7395     80.0842    10.7137    5.5274     2413      
5143       5.9747     5.8458     6.7194     81.9998    10.8177    5.2696     2427      
5143.5     5.9596     5.8601     5.9914     81.7159    10.2738    5.1361     2356      
5144       5.9747     5.8458     7.4631     83.6419    9.9949     5.0273     2361      
5144.5     5.9747     5.8529     7.4965     83.9084    10.3311    5.1533     2277      
5145       5.9596     5.8601     6.3202     86.9216    8.7137     4.597      2305      
5145.5     5.9823     5.8529     6.9253     86.3104    11.3252    5.751      2377      
5146       5.9899     5.8458     7.4839     88.9024    10.2855    5.2983     2428      
5146.5     5.9596     5.8529     6.1794     89.3272    11.5239    5.7779     2423      
5147       5.9672     5.8673     6.0718     88.6228    11.9367    5.5807     2364      
5147.5     5.9747     5.8673     6.1643     86.8261    11.2791    5.184      2376      
5148       5.9672     5.8601     5.229      85.379     11.2441    5.1093     2317      
5148.5     5.9596     5.8673     5.3611     88.26      12.8978    5.9475     2303      
5149       5.9747     5.8529     5.0837     86.4613    13.0489    6.347      2313      
5149.5     5.9672     5.8458     4.7569     85.2701    12.5229    5.9916     2446      
5150       5.9747     5.8565     5.3035     83.4687    9.4448     4.5365     2429      
5150.5     5.9596     5.8529     7.2115     86.7438    9.4325     4.5778     2414      
5151       5.9747     5.8601     7.3894     88.6649    10.2422    5.0456     2296      
5151.5     5.9823     5.8673     7.8671     88.8894    11.8454    5.7563     2252      
5152       5.9709     5.8529     7.3993     90.43      11.7136    5.5951     2265      
5152.5     5.9672     5.8673     7.6627     91.707     11.889     5.7182     2311      
5153       5.9596     5.8745     7.4717     94.2261    11.7442    5.6913     2361      
5153.5     5.9596     5.8601     8.5566     94.4349    10.4745    4.9208     2430      
5154       5.9747     5.8601     8.3397     95.6367    8.6855     4.4914     2426      
5154.5     5.9823     5.8601     8.5076     95.9864    9.0788     4.6842     2307      
5155       5.9596     5.8673     7.1745     94.9889    10.1121    4.9944     2268      
5155.5     5.9672     5.8601     6.226      94.7587    11.3877    5.5081     2279      
5156       5.9672     5.8673     5.855      92.9711    12.995     6.075      2331      
5156.5     5.9672     5.8673     5.8369     93.8019    10.8259    5.3651     2371      
5157       5.9747     5.8529     5.4647     93.3792    10.1413    5.2813     2413      
5157.5     5.9709     5.8529     5.094      94.1629    12.6213    6.5397     2428      
5158       5.9823     5.8673     5.0216     91.2277    10.4574    5.5064     2341      
5158.5     5.9672     5.8673     5.8353     90.9736    10.9759    5.6874     2335      
5159       5.9709     5.8709     5.0714     89.4785    17.9928    8.4646     2267      
5159.5     5.9672     5.8673     5.3683     91.8392    13.8508    7.0092     2258      
5160       5.9672     5.8601     3.9063     91.0213    16.6232    7.7064     2289      
5160.5     5.9672     5.8637     4.107      91.5926    14.5093    7.0481     2384      
5161       5.9747     5.8745     5.1204     90.4122    12.6988    6.2569     2354      
5161.5     5.9747     5.8817     4.5266     87.9367    12.4107    6.0463     2462      
5162       5.9634     5.8673     4.7148     85.3286    10.4183    5.7418     2376      
5162.5     5.9634     5.8601     5.1747     83.6275    11.9747    6.8156     2364      
5163       5.9672     5.8745     4.8417     82.0285    10.286     5.3908     2279      
5163.5     5.9747     5.8709     4.4437     84.904     9.2023     4.855      2312      
5164       5.9747     5.8601     3.2948     83.1014    11.7962    6.0804     2332      
5164.5     5.9634     5.8745     4.3753     84.2263    12.0598    6.1458     2439      
5165       5.9823     5.8529     3.411      81.7565    11.6009    5.6914     2482      
5165.5     5.9747     5.8601     5.5603     82.2651    12.4441    5.6577     2405      
5166       5.9672     5.8637     5.7882     83.1446    12.9263    6.0108     2401      
5166.5     5.9672     5.8529     4.9684     82.4571    14.7081    6.8302     2295      
5167       5.9747     5.8565     4.2034     82.9749    12.81      6.4045     2290      
5167.5     5.9672     5.8529     3.1345     83.3606    11.5254    5.4675     2373      
5168       5.9747     5.8601     2.1201     82.4178    8.8962     4.2247     2414      
5168.5     5.9672     5.8601     3.1711     82.8519    10.061     5.1023     2437      
5169       5.9672     5.8601     3.9293     81.7705    14.9543    7.3461     2423      
5169.5     5.9672     5.8673     4.4469     81.841     10.6579    5.2419     2423      
5170       5.9596     5.8529     4.5898     84.0332    9.8738     4.7112     2387      
5170.5     5.9709     5.8709     5.6548     84.7782    13.803     6.366      2283      
5171       5.9672     5.8673     4.0674     87.3792    11.2467    5.5684     2320      
5171.5     5.9747     5.8673     3.7871     85.6336    11.4449    5.5114     2386      
5172       5.9709     5.8817     4.4179     85.0631    12.0487    5.7692     2385      
5172.5     5.9747     5.8673     5.5305     83.5731    11.5827    5.7131     2472      
5173       5.952      5.8529     5.4252     82.9918    10.8489    5.4024     2437      
5173.5     5.9709     5.8529     6.0356     81.1376    11.131     6.1479     2321      
5174       5.9672     5.8745     5.5285     82.6518    11.4903    6.2733     2354      
5174.5     5.9672     5.8601     5.3635     83.1783    12.9214    6.3723     2327      
5175       5.9823     5.8565     5.1541     84.0521    11.1685    5.7413     2330      
5175.5     5.9747     5.8601     5.501      82.5461    11.5951    6.5236     2384      
5176       5.9672     5.8745     4.7452     81.4639    18.6118    10.1443    2431      
