~Version
 VERS              .         3                             : CWLS LOG ASCII STANDARD - VERSION 3.0
 WRAP              .         NO                            : ONE LINE PER DEPTH STEP
 DLM               .         SPACE                         : DELIMITING CHARACTER(SPACE TAB OR COMMA)
~Well Information
#_______________________________________________________________________________
#
#PARAMETER_NAME    .UNIT     VALUE                         : DESCRIPTION
#_______________________________________________________________________________
STRT               .F        4494                          : First reference value
STOP               .F        7635                          : Last reference value
STEP               .F        0.5                           : Step increment
NULL               .         -9999                         : Missing value
WELL               .         SY027104H                     : Well name
ORIGINALWELLNAME   .         Well                          : 
RANG               .                                       : 
REGN               .         Abu Dhabi                     : 
AZTC               .deg      0.383835                      : 
GRDC               .deg      1.093917                      : 
WHEW               .ft       0.000000                      : 
TDL                .ft       3000.000000                   : 
TOWN               .                                       : 
NREF               .         2                             : 
DOE                .         AD-FE-0007255267              : 
EGL                .ft       407.799988                    : 
GVFD               .g        1.000000                      : 
COLG               .         186HAL_lg.bmp                 : 
WHNS               .ft       0.000000                      : 
CREF               .         Ellipsoid Clarke - 1880       : 
VSDR               .deg      55.740002                     : 
FTOP               .         Formation Tops                : 
LLGR               .         Latitude/Longitude            : 
EPD                .ft       0.000000                      : 
WDMS               .ft       0.000000                      : 
DFWL               .ft       0.000000                      : 
MFLD               .nT       42523.898438                  : 
GREF               .         Ellipsoid World Geodetic System: 
CTRY               .         UN                            : Two letter Internet country code
COUNTRY            .         United Arab Emirates          : 
DFWT               .                                       : 
CNTY               .         Abu Dhabi                     : 
VSEW               .ft       0.000000                      : 
UWI                .         AD-FE-0007255267              : 
CSGD               .ft       4170.000000                   : 
STAT               .         Abu Dhabi                     : 
APD                .ft       429.000000                    : 
BASE               .         Abu Dhabi                     : 
VSNS               .ft       0.000000                      : 
DCON               .         Al-Mansoory                   : 
API                .         AD-FE-0007255267              : 
GPMT               .                                       : 
CSGL               .ft       4170.000000                   : 
MDEC               .deg      1.477752                      : 
LONG               .deg      53.809174                     : 
CSGS               .in       9.625000                      : 
SPUD               .         20-Mar-10                     : 
MDS                .         Win MagUTM                    : 
CMER               .deg      51.000000                     : 
SRVC               .         NDC                           : 
CSGW               .lbpf     47.000000                     : 
SON                .         AD-FE-0007255267              : 
TVDS               .ft       429.000000                    : 
LMF                .         Kelly Bushing                 : 
CGSY               .         SS CLRK51                     : 
EKB                .ft       429.000000                    : 
HPTY               .         0                             : 
MWDS               .         Dubai                         : 
GGSY               .         LL                            : 
RCST               .$/da     0.000000                      : 
FLD                .         Shah                          : 
SVYD               .         Survey_DS                     : 
CCDE               .         UTM Clarke 1880 (CM 51), Meters: 
AGAP               .ft       0.000000                      : 
LOC                .                                       : 
DFSL               .ft       0.000000                      : 
EDF                .ft       428.000031                    : 
UNIT               .         166264                        : 
RIG                .         ND-50                         : 
VSC                .         0                             : 
LEAS               .                                       : 
XYGR               .         UTM Zones, Northern Hemisphere, Meters: 
GCDE               .         Generic Lat/Long's, Degrees, -180 ==> +180: 
DFST               .                                       : 
ILTD               .         Lithology                     : 
DMOD               .         Drill Model                   : 
JOBN               .         AD-FE-0007255267              : 
LATI               .deg      22.900974                     : 
DMF                .         Kelly Bushing                 : 
STIM               .         00.00.00 28-Mar-10            : 
CULG               .                                       : 
SECT               .                                       : 
PDAT               .         Mean Sea Level                : 
CPJM               .                                       : 
STRD               .ft       4648.000000                   : 
WTYP               .         2                             : 
COMP               .         ADCO                          : 
MAGU               .         1453103                       : 
PROV               .         Abu Dhabi                     : 
MMDL               .         bggm2009.dat                  : 
UTMX               .m        788186.312500                 : 
UTMY               .m        2535096.000000                : 
DATE               .         00.00.00 03-Apr-10            : 
TDD                .ft       7648.000000                   : 
MDIP               .deg      34.939442                     : 
GDAT               .                                       : 
LIC                .                                       : 
~Parameter Information Block
#_______________________________________________________________________________
#
#PARAMETER_NAME    .UNIT     VALUE                         : DESCRIPTION
#_______________________________________________________________________________
SET                .         WL_FINAL                      : 
LMF                .         ORTKB                         : Logging Measured From (Name of Logging Elevation Reference)
APD                .F        428.000000                    : Elevation of Depth Reference (LMF) above Permanent Datum
EPD                .F        0.000000                      : Elevation of Permanent Datum above Mean Sea Level
RUN                .         1                             : RUN NUMBER
PDAT               .         MSL                           : Permanent Datum
~Curve Information
#_______________________________________________________________________________
#
#LOGNAME           .UNIT     LOG_ID                        : DESCRIPTION
#_______________________________________________________________________________
DEPT               .F                                      : DEPTH (BOREHOLE) -F10 {F}
C1                 .IN                                     : Caliper 1 -F13 {F}
C2                 .IN                                     : Caliper 2 -F13 {F}
HCGR               .GAPI                                   : HNGS Computed Gamma Ray -F13 {F}
HSGR               .GAPI                                   : HNGS Standard Gamma Ray -F13 {F}
RT_HRLT            .OHMM                                   : HRLT Computed True Resistivity -F13 {F}
RXO_HRLT           .OHMM                                   : HRLT Computed Invaded Zone Resistivity -F13 {F}
TENS               .LBF                                    : Cable Tension -F13 {F}
~Ascii
# ...
7360.5     6.0695     5.9535     12.3698    75.6807    2.9979     1.2681     2715      
7361       6.0354     5.9104     11.7263    74.5269    3.0548     1.1413     2948      
7361.5     5.9823     5.8601     12.6565    74.4556    2.5636     1.0117     2983      
7362       5.9444     5.8565     14.0728    75.4528    3.8427     1.7775     2941      
7362.5     5.9217     5.8709     15.2154    77.3471    3.453      1.5411     2967      
7363       5.9331     5.8458     15.2986    81.468     1.6991     0.7575     2786      
7363.5     5.9331     5.8673     16.6836    87.5227    1.7359     0.7531     2756      
7364       5.9368     5.8709     18.2392    91.7005    2.3549     1.0738     2807      
7364.5     5.9444     5.8745     17.8947    93.0882    2.8955     1.2983     2845      
7365       5.9368     5.8601     16.8848    92.4993    4.2341     1.7635     2935      
7365.5     5.9331     5.8601     17.7385    91.8833    3.3928     1.6161     2919      
7366       5.9747     5.9032     18.1093    92.2421    2.7054     1.34       2902      
7366.5     6.0543     5.9751     18.1318    90.8351    2.176      1.0767     2838      
7367       6.0126     5.9823     15.9373    87.8864    2.0823     1.1731     2720      
7367.5     5.9899     5.9823     15.2313    83.8067    3.3076     1.786      2801      
7368       5.9293     5.9535     15.2427    81.9942    4.2849     2.3951     2871      
7368.5     5.9293     5.8673     14.9889    79.105     4.1379     2.3161     2738      
7369       5.9368     5.8817     13.6621    77.9693    3.7192     2.1105     2553      
7369.5     5.9368     5.8601     12.2617    75.9669    2.729      1.6105     2376      
7370       5.9293     5.8745     10.0711    76.6424    2.7507     1.8436     2190      
7370.5     5.9444     5.835      8.1873     76.8877    3.7913     2.7151     2002      
7371       5.9444     5.8026     7.3434     76.6054    4.2421     3.0323     1842      
7371.5     5.9444     5.8422     6.1646     75.2166    4.0068     2.698      1631      
7372       5.9823     5.8565     6.8789     72.451     4.0108     2.7354     2892      
7372.5     6.0316     5.9775     8.6823     71.6034    3.7611     3.0475     2903      
7373       6.0202     5.9032     9.0007     71.1849    3.8095     3.7203     3001      
7373.5     6.0126     5.9032     7.3803     70.3518    3.5307     3.5349     2975      
7374       6.0354     5.9176     7.0969     66.0794    3.458      3.4726     2886      
7374.5     6.0202     5.9176     5.5995     62.0862    2.9108     3.046      2719      
7375       6.0126     5.9176     5.8184     61.9745    3.1814     3.8059     2784      
7375.5     6.0202     5.9176     6.2533     64.2124    4.6828     5.5699     2872      
7376       6.0316     5.9392     6.408      65.8462    4.6588     5.3523     2880      
7376.5     5.9293     5.8745     7.7062     64.8156    3.8777     4.7725     2759      
7377       5.8876     5.8601     8.2704     62.4811    4.1976     5.438      2806      
7377.5     5.8762     5.8601     7.1196     61.7997    4.4232     5.9539     2742      
7378       5.9065     5.8673     5.3506     61.0287    3.9569     5.5805     2701      
7378.5     5.8838     5.8601     3.8291     61.4302    3.8325     5.7637     2830      
7379       5.8724     5.8529     4.3151     60.585     3.8435     6.002      2824      
7379.5     5.8838     5.8673     2.7403     61.4213    3.4189     5.4984     2950      
7380       5.8686     5.8529     2.84       60.0697    3.655      6.0398     2904      
7380.5     5.8762     5.8673     2.3325     58.8671    3.919      6.4846     2868      
7381       5.8838     5.8601     2.763      55.7153    3.942      6.3443     2814      
7381.5     5.8535     5.8529     3.3573     54.3       3.9491     6.3364     2769      
7382       5.8762     5.8601     2.2193     52.8889    4.0965     6.7303     2748      
7382.5     5.8686     5.8673     2.0633     55.047     5.0049     8.1966     2857      
7383       5.8838     5.8673     2.6687     56.9349    5.6473     8.8806     2902      
7383.5     5.8762     5.8745     3.7501     58.617     4.9627     7.9586     2953      
7384       5.8649     5.8601     4.0207     59.5342    4.6109     7.4182     2780      
7384.5     5.8762     5.8458     4.1603     59.7258    4.934      7.9101     2749      
7385       5.8686     5.8601     5.5742     56.834     4.0703     6.8592     2822      
7385.5     5.8838     5.8781     6.3516     52.0496    4.1011     6.9168     2822      
7386       5.9293     5.8745     6.1992     49.0667    3.6854     6.3852     2903      
7386.5     5.9331     5.8673     5.9861     50.1307    3.5574     6.1809     2966      
7387       5.952      5.8996     6.4017     50.774     3.763      6.3011     2924      
7387.5     5.9444     5.9104     6.0053     49.5136    3.4116     5.6523     2891      
7388       5.9217     5.8745     6.0403     48.8139    4.3311     7.1098     2863      
7388.5     5.9065     5.8529     4.8726     44.9587    4.7247     7.3592     2869      
7389       5.9179     5.8529     3.3694     41.3474    3.9518     6.0214     2891      
7389.5     5.9217     5.8601     3.0921     37.1376    4.1021     6.2535     2997      
7390       5.9065     5.8745     2.8382     38.2835    4.5803     6.8187     3055      
7390.5     5.8762     5.8673     2.3936     43.768     4.2351     6.1187     2995      
7391       5.8762     5.8529     0.2444     47.3984    4.0214     5.7459     2940      
7391.5     5.8762     5.8529     0.6113     51.3535    3.9087     5.9522     2744      
7392       5.8762     5.8529     1.4647     49.1749    3.879      6.1166     2821      
7392.5     5.8838     5.8529     2.4587     50.3845    3.797      5.9241     2737      
7393       5.8838     5.8601     2.9831     48.0128    3.9729     5.9484     2791      
7393.5     5.8838     5.8529     3.1756     48.9707    4.3045     6.2319     2842      
7394       5.8838     5.8673     2.182      48.5264    4.5527     6.9984     2906      
7394.5     5.8838     5.8673     2.049      49.1704    5.6137     8.0728     2951      
7395       5.8611     5.8529     2.2222     50.5311    4.9569     7.0405     2942      
7395.5     5.8686     5.8386     2.236      52.9684    5.9049     7.6367     2815      
7396       5.8686     5.8422     3.1953     55.8674    6.1385     6.6527     2817      
7396.5     5.8914     5.8601     3.4518     57.5077    5.5255     5.5468     2830      
7397       5.8838     5.8601     2.1246     56.9464    5.6513     5.7537     2874      
7397.5     5.8686     5.8601     1.1096     57.9577    6.3004     6.5258     3021      
7398       5.8838     5.8529     0.259      59.9718    6.7089     6.6137     2989      
7398.5     5.8838     5.8458     0.8927     61.6891    5.4703     4.4291     2906      
7399       5.8838     5.8601     1.3897     61.0404    2.5104     2.0213     2857      
7399.5     5.8762     5.8601     2.896      60.2223    2.0321     2.3674     2800      
7400       5.8686     5.8565     2.8567     60.1031    3.4326     4.2317     2857      
7400.5     5.8611     5.8458     2.9867     61.1518    4.0116     4.8415     2914      
7401       5.8838     5.8458     3.2971     64.4444    1.9457     2.5444     2921      
7401.5     5.8762     5.8458     3.8378     68.2018    1.4126     1.8041     2924      
7402       5.8611     5.8673     5.8021     68.2931    1.5894     1.9534     2956      
7402.5     5.8686     5.8673     6.4626     64.8507    2.0936     2.5918     2839      
7403       5.8611     5.8458     6.2893     60.7249    3.7737     3.8495     2784      
7403.5     5.8838     5.8673     5.8369     58.0953    5.3247     4.9201     2853      
7404       5.8762     5.8673     3.0613     55.4929    5.4869     5.0167     2849      
7404.5     5.8838     5.8673     1.9503     51.6739    4.4567     4.333      2895      
7405       5.8686     5.8745     2.0844     49.9273    4.2776     4.3222     2971      
7405.5     5.8762     5.8745     4.0153     48.1475    4.1751     4.7641     2898      
