~Version Information
 VERS.                  2.0:   CWLS log ASCII Standard -VERSION 2.0
 WRAP.                   NO:   One line per depth step
~Well Information Block
#MNEM.UNIT     VALUE/NAME     DESCRIPTION
#---------     -----------    ---------------------------
 STRT.M              5223.0528: START DEPTH
 STOP.M              5533.9488: STOP DEPTH
 STEP.M                 0.1524: STEP DEPTH
 NULL.               -999.2500: NULL VALUE
 DFWT.                        :  DIST FWL TEXT
 DFST.                        :  DIST FSL TEXT
 DMF .             Drill Floor:  DRILL MEAS FROM
 STIM.      11.30.00 09-Jul-16:  START TIME
 DATE.      11.29.04 14-Aug-16:  END TIME
 SPUD.               17-Aug-15:  SPUD DATE
 NREF.                    Grid:  NORTH REFERENCE
 HPTY.       Minimum Curvature:  HOLE POS TYPE
 DMOD.             Drill Model:  DRILL MOD DESC
 SVYD.                  Survey:  SURVEY DESC
 ILTD.               Lithology:  INTERP LTH DESC
 FTOP.          Formation Tops:  FORM TOPS DESC
 WELL.              AF011-3D-1:  WELL NAME
 COMP.               TOTAL-ABK:  COMPANY
 SON .        AD-XX-0902156848:  JOB NUMBER
 GCDE.     Generic Lat/Long's, Degrees, -180 ==> +180:  GEO COORD DESC
 CCDE.     UTM Clarke 1880 (CM 51), Meters:  CART COORD DESC
 GGSY.                      LL:  GEO GRID SYS
 CGSY.               SS CLRK51:  CART GRID SYS
 GREF.     Ellipsoid World Geodetic System :  GEO REFERENCE
 CREF.     Ellipsoid Clarke - 1880:  CART REFERENCE
 MMDL.            bggm2016.dat:  MAGNETIC MODEL
 MMDD.            20 May, 2016:  MAG DATA DATE
 MDS .              Win MagUTM:  MAG DATA SOURCE
 LLGR.      Latitude/Longitude:  LLGROUP
 XYGR.     UTM Zones, Northern Hemisphere, Meters:  XYGROUP
 PDAT.          Mean Sea Level:  PERMANENT DATUM
 WTYP.                Deviated:  WELL TYPE
 BASE.               Abu Dhabi:  LOGGING EQUIPMENT BASE LOCATION
 REGN.     Middle East/North Africa:  REGION
 PROV.               Abu Dhabi:  PROVINCE
 STAT.               Abu Dhabi:  STATE NAME
 CTRY.     United Arab Emirates:  COUNTRY NAME
 FLD .         Abu Al Bukhoosh:  FIELD NAME
 SRVC.                  SAIPEM:  CONTRACTOR
 MWDS.                Musaffah:  MWD SHOP
 RIG .           Perro Negro 8:  RIG NAME
 CNTY.               Abu Dhabi:  COUNTY NAME
 DCON.             HALLIBURTON:  DIRECTNL CONTR
 UNIT.                    9804:  LOGGING EQUIPMENT ID
 DOE .        AD-XX-0902156848:  DOE NUMBER
 API .                        :  API NUMBER
 UWI .                        :  UNIQUE WELL IDENTIFIER
 LOC .                        :  LOCATION
 LMF .             Drill Floor:  LOG MEASURED FROM
 TVDS.m              43.899999:  TVDSS CORRECTN
 LATI.deg            25.504513:  LATITUDE
 LONG.deg            53.120396:  LONGITUDE
 WHNS.m               0.000000:  WELL HEAD N/S
 WHEW.m               0.000000:  WELL HEAD E/W
 UTMX.m          713123.300043:  UTM X
 UTMY.m         2822281.299893:  UTM Y
 DFWL.m               0.000000:  DISTANCE FWL
 DFSL.m               0.000000:  DISTANCE FSL
 SDEP.m            5253.990000:  START DEPTH
 TDD .m            5543.669658:  TOTAL DEPTH (DRILLER)
 VSDR.deg           249.940002:  VERT SEC DIRECT
 GVFD.g               1.000000:  GRAVITY FIELD
 MFLD.nT          43940.839844:  MAGNETIC FIELD
 MDIP.deg            39.918472:  MAGNETIC DIP
 MDEC.deg             2.250056:  MAGNETIC DECL
 GRDC.deg             0.913350:  GRID CORRECTION
 AZTC.deg             1.336706:  AZM TOTAL CORR
 EPD .m               0.000000:  ELEVATION
 EGL .m             -45.400001:  GROUND ELEVATION
 WDMS.m              45.400001:  WD ELEV
 APD .m              43.899999:  DEPTH ABOVE PD
 MMDE.m               0.000000:  MAGUTM CALC DEP
 CMER.deg            51.000000:  CENTRL MERIDIAN
 AGAP.m              23.099999:  AIR GAP
 EKB .m              43.899999:  KB ELEVATION
 EDF .m              43.899999:  DF ELEVATION
 VSC .                       0:  VS TO CLOSURE
 MAGU.                 1527179:  MAGUTM CHECKSUM
~Parameter Information Block
#MNEM.UNIT       Value        Description
#---------     -----------    ---------------------------
 AV  .mps             1.500000:  Ann Velocity 
 AVMX.mps             2.400000:  Max Ann Veloc 
 AZIF.deg           257.739990:  Azm, Final 
 BHAT.                 Turbine:  BHA Type 
 BROT.°/100'          0.000000:  Build Rotating 
 BS  .in              8.500000:  Bit Size 
 BSZ .in              8.500000:  Bit Size 
 BTPL.psig           43.511005:  Bit Press Loss 
 CABU.                      No:  Customer Abuse 
 TCS .hr            149.515671:  Time Ciculation Ended 
 CV  .mps             3.000000:  Crit Velocity 
 CVMX.mps             4.000000:  Max Crit Veloc 
 DD1 .            Ahmed Bayoud:  Direct Drillr 1 
 DD2 .        Hany Abdel Hafez:  Direct Drillr 2 
 DDSV.                 Turbine:  DD Service 
 DEFF.%              98.000000:  % Det Eff 
 DLRX.°/100'          0.000000:  Dogleg Rot Max 
 DLSO.°/100'          0.000000:  Dogleg Oriented 
 DLSX.°/100'          0.000000:  Dogleg Str Max 
 DRET.      12.28.32 23-Jun-16:  Drill End Time 
 DRST.      14.30.00 17-Jun-16:  Drill Start Tim 
 DTIM.hr            102.349998:  Time Drilling 
 EDEP.m            5254.000000:  End Depth 
 ENG1.         Ahmed Montasser:  Engineer 1 
 ENG2.              Do Dang Sa:  Engineer 2 
 ENG3.           Khaled Khalaf:  Engineer 3 
 ENG4.         Muhammad Mubeen:  Engineer 4 
 ETIM.      05.40.54 26-Jun-16:  End Time 
 FLOI.lpm          1800.000122:  Flow In 
 FLON.lpm          1500.000000:  Flow In Min 
 FLOS.lpm             0.000000:  Fluid Loss 
 FLOX.lpm          1800.000122:  Flow In Max 
 DFT .                   Other:  Mud Type 
 HFLO.                      No:  High Flow 
 HPRE.                      No:  High Pressure 
 HTEM.                      No:  High Temp 
 HYDO.m               1.400000:  Hydro Offset 
 IFIN.deg            10.460000:  Inc, Final 
 IMAX.deg            32.367214:  Inc Max 
 IMIN.deg            11.447388:  Inc Min 
 IMND.m            5236.799805:  Inc Min Depth 
 IMXD.m            4790.299805:  Inc Max Depth 
 JARR.                      No:  Jarring 
 LETM.      12.28.32 23-Jun-16:  Log End Time 
 LOST.hr                     0:  Lost Rig Time 
 LSTM.      14.30.00 17-Jun-16:  Log Start Time 
 MDCL.ppm         23000.000000:  Mud Chlorides 
 MDES.             Fresh Water:  Mud Desc 
 DFD .g/c3            1.170004:  Mud Density 
 MDMN.g/c3            1.160004:  Dens Mud Min 
 MDMX.g/c3            1.170004:  Dens Mud Max 
 PH  .pH              9.400000:  Mud pH 
 MOIL.                       0:  Run Mud Oil % 
 MOWR.                    1 91:  Run Mud OWR 
 MSND.                     0.1:  Run Mud Sand % 
 MSOL.                     6.2:  Run Mud Solids% 
 DFV .spl            73.000000:  Mud Viscosity 
 MWOD.in              6.750000:  MWD Tool OD 
 MWSI.                      No:  Serv Intrp, MWD 
 OTIM.hr            238.111023:  Time Operating 
 PMAX.psig         4000.000000:  Press Op, Max 
 PV  .mPsec          36.000000:  Mud PV 
 RMS .ohmm            0.299000:  Mud Resistivity 
 RMCS.ohmm            0.397000:  Mud Cake Resistivity 
 MCST.degC           35.000000:  Mud Cake Sample Temperature 
 RMFS.ohmm            0.200000:  Mud Filtrate Resistivity 
 RMFT.degC           35.000000:  Mud Filtrate Sample Temperature 
 RMMT.ohmm            0.118100:  Rm @ Max Temp 
 MST .degC           35.000000:  Mud Sample Temperature 
 RUN .                    3300:  Run Number 
 ROPA.m/hr            4.450000:  ROP Avg 
 ROPN.m/hr            2.000000:  ROP Min 
 ROPX.m/hr            7.000000:  ROP Max 
 RPMA.rpm            78.000000:  RPM Surface Avg 
 RPMN.rpm            35.000000:  RPM Surface Min 
 RPMX.rpm            80.000000:  RPM Surface Max 
 RRUN.                    3300:  Rig Run Number 
 RTIM.hr              7.150000:  Time Reaming 
 SAZI.deg           249.699997:  Azm, Start 
 SDEP.m            4799.000000:  Start Depth 
 SIDD.                      No:  Serv Intrp, DD 
 SINC.deg            30.049999:  Inc, Start 
 SPPA.psig         4543.999023:  SPP Avg 
 SPPN.psig         4264.078613:  SPP Min 
 SPPX.psig         4641.173828:  SPP Max 
 STIM.      09.00.00 16-Jun-16:  Start Time 
 SVCS.                 DD, MWD:  Services 
 SVER.                8.300000:  Sperry Version 
 TDAT.m             455.000000:  Tot Depth Attmp 
 TDDF.                      No:  Trip for DD 
 TDLG.m             455.000000:  Tot Depth Loggd 
 TFF .                      No:  Trip for Fail 
 TQAA.f-p         37070.000000:  Torque Abs Avg 
 TQAN.f-p         35000.000000:  Torque Abs Min 
 TQAX.f-p         39000.000000:  Torque Abs Max 
 TRRT.°/100'          0.000000:  Turn Rotating 
 MRT .                     PWD:  Maximum Recorded Temperature 
 TTMX.degC          121.568352:  Max Tool Temp 
 VS01.     AD90473258H2V5WGV2COXF1(6):  Virtual Str1 SN 
 WBMN.klb             4.409245:  WOB Min 
 WITN.           Roger Butters:  Customer Rep 
 WOBA.klb             9.788525:  WOB Avg 
 WOBX.klb            13.227736:  WOB Max 
 YP  .pa             43.000000:  Yield Point 
~Curve Information Block
#MNEM.UNIT                 API CODE     Curve Description
#---------               -----------    ---------------------------
 DEPT.M                 00 000 000 000:  Depth
 DGRCC.api              00 000 000 000:  DGR Comb Gamma Ray BCorr
 ALHSI.in               00 000 000 000:  ALD Hole Size Indicator
 ABR .ohmm              00 000 000 000:  At-Bit Resistivity
 AFRSA.ohmm             00 000 000 000:  AFR Shallow Avg Res
 AFRMA.ohmm             00 000 000 000:  AFR Medium Avg Res
 AFRDA.ohmm             00 000 000 000:  AFR Deep Avg Res
 AFXT.hr                00 000 000 000:  AFR Form Exp Time
 ALCDLC.g/c3            00 000 000 000:  ALD LCRB Comp Density
 ALPELC.NONE            00 000 000 000:  ALD LCRB Pe Factor
 ALDCLC.g/c3            00 000 000 000:  ALD LCRB Den Correction
 TNPL.pu                00 000 000 000:  CTN Porosity Limestone
 DTC .uspf              00 000 000 000:  BAT DTC
 DTRS.uspf              00 000 000 000:  BAT Refracted Shear
 VPVS.NONE              00 000 000 000:  BAT VP/VS
#Other Information
#
#WARRANTY: Halliburton will use its best efforts to furnish customers with 
#accurate information and interpretations that are part of, and incident to, the services 
#provided.  However, Halliburton cannot and does not warrant the accuracy 
#or correctness of such information and interpretations.  Under no circumstances should any 
#such information or interpretation be relied upon as the sole basis for any drilling, 
#completion, production, or financial decision or any procedure involving any risk to the 
#safety of any drilling venture, drilling rig or its crew or any other third party.  The 
#Customer has full responsibility for all drilling, completion and production operation.  
#Halliburton makes no representations or warranties, either expressed or 
#implied, including, but not limited to, the implied warranties of merchantability or fitness 
#for a particular purpose, with respect to the services rendered.  In no event will 
#Halliburton be liable for failure to obtain any particular results or for 
#any damages, including, but not limited to, indirect, special or consequential damages, 
#resulting from the use of any information or interpretation provided by Halliburton.
#
~A   DEPT      DGRCC     ALHSI      ABR      AFRSA     AFRMA     AFRDA     AFXT     ALCDLC    ALPELC    ALDCLC     TNPL       DTC      DTRS      VPVS    
# ...
   5271.5160   15.7916 -999.2500 -999.2500  163.4950  138.8422  144.7575   72.7523    2.7003    9.5382    0.1023    3.9942   52.3562   98.9869    1.8907
   5271.6684   17.0571 -999.2500 -999.2500  151.9215  138.2202  140.5431   72.7610    2.7018    9.5624    0.1073    3.5564   52.1106   99.1076    1.9019
   5271.8208   18.0367 -999.2500 -999.2500  144.4662  132.7347  138.8810   72.7533    2.7026    9.6662    0.1127    3.5010   51.9467   98.9631    1.9051
   5271.9732   18.7639 -999.2500 -999.2500  149.5495  139.2849  145.2601   72.7604    2.7150    9.6647    0.1169    3.1940   51.5838   98.0142    1.9001
   5272.1256   14.5596 -999.2500 -999.2500  164.9158  177.4615  160.2043   72.7578    2.7088    9.7597    0.1173    2.9018   51.3828   97.4603    1.8967
   5272.2780   13.3248 -999.2500 -999.2500  205.4284  263.5506  187.3338   72.7481    2.7038    9.8896    0.1158    2.9449   51.2163   97.3155    1.9002
   5272.4304   15.9985 -999.2500 -999.2500  251.1813  320.2034  204.6598   72.7342    2.6938    9.9054    0.1091    3.2209   50.3108   96.4174    1.9165
   5272.5828   19.0142 -999.2500 -999.2500  318.6498  366.3093  240.8228   72.7132    2.6747    9.7558    0.0948    3.4714   50.0645   96.0704    1.9190
   5272.7352   22.0443 -999.2500 -999.2500  356.7762  333.3722  264.3970   72.7044    2.6718    9.5165    0.0888    3.6633   50.3643   96.2335    1.9109
   5272.8876   20.5648 -999.2500 -999.2500  243.7497  178.4908  176.8401   72.7003    2.6954    9.7166    0.1014    4.3070   51.1048   96.7793    1.8938
   5273.0400   17.1396 -999.2500 -999.2500  200.1669  137.6461  142.1590   72.6974    2.7069    9.8063    0.1105    4.6818   51.3603   96.9262    1.8872
   5273.1924   23.4573 -999.2500 -999.2500  250.5732  204.2927  183.6546   72.6942    2.7095    9.8625    0.1149    3.9486   51.4207   97.0532    1.8874
   5273.3448   32.8205 -999.2500 -999.2500  307.1648  285.3335  242.9605   72.6913    2.6960    9.8552    0.1091    3.7171   51.3691   97.0927    1.8901
   5273.4972   27.3120 -999.2500 -999.2500  352.8214  314.3695  290.6881   72.6883    2.6930    9.5253    0.1003    3.6558   51.2652   97.0394    1.8929
   5273.6496   25.7190 -999.2500 -999.2500  306.4189  243.3744  244.1040   72.6851    2.7071    9.3885    0.1030    3.5929   51.3081   96.9503    1.8896
   5273.8020   22.8452 -999.2500 -999.2500  194.3176  145.8354  146.5378   72.6821    2.7143    9.4247    0.1075    3.6404   51.2082   96.5520    1.8858
   5273.9544   25.0985 -999.2500 -999.2500  199.2877  139.6717  145.7940   72.6791    2.7068    9.6862    0.1116    3.6316   51.3052   96.3228    1.8744
   5274.1068   25.4239 -999.2500 -999.2500  331.5685  241.7113  255.3707   72.6761    2.6936   10.0420    0.1093    3.2879   51.3895   95.9209    1.8658
   5274.2592   20.4688 -999.2500 -999.2500  421.9014  366.8437  351.5204   72.6731    2.7085   10.0499    0.1167    3.2902   50.7605   95.7668    1.8891
   5274.4116   20.7170 -999.2500 -999.2500  405.9801  398.5135  338.3817   72.6704    2.7275    9.8188    0.1226    3.7633   50.4829   95.8515    1.8994
   5274.5640   27.7597 -999.2500 -999.2500  338.7403  366.7209  279.4200   72.6676    2.7314    9.4258    0.1176    4.3023   50.8055   95.8951    1.8876
   5274.7164   37.0005 -999.2500 -999.2500  190.8826  198.8752  155.7872   72.6648    2.7159    9.4025    0.1109    4.6704   51.2865   96.0626    1.8731
   5274.8688   43.4302 -999.2500 -999.2500  151.9165  138.7921  115.3789   72.6617    2.7085    9.5815    0.1107    4.2735   51.5019   96.2402    1.8687
   5275.0212   41.8605 -999.2500 -999.2500  219.3242  198.3355  163.9596   72.6588    2.6949    9.8363    0.1056    3.4564   51.3956   96.4685    1.8770
   5275.1736   33.5625 -999.2500 -999.2500  361.7125  337.6539  293.0797   72.6559    2.6695    9.8304    0.0835    2.9969   51.3430   96.5599    1.8807
   5275.3260   27.6381 -999.2500 -999.2500  460.0034  406.9460  377.3771   72.6532    2.6840    9.7124    0.0911    2.9140   51.3112   96.7777    1.8861
   5275.4784   27.7561 -999.2500 -999.2500  315.1972  244.7179  250.7665   72.6504    2.6878    9.6235    0.0974    3.2442   51.2286   96.5635    1.8849
   5275.6308   29.2329 -999.2500 -999.2500  190.1992  128.8533  143.8712   72.6475    2.6828    9.5292    0.1019    3.4412   50.9000   95.8782    1.8837
   5275.7832   27.9387 -999.2500 -999.2500  214.3170  148.7398  171.7355   72.6445    2.6993    9.5381    0.1073    3.1676   50.5933   95.5680    1.8890
   5275.9356   20.1746 -999.2500 -999.2500  274.0948  208.0882  247.4715   72.6414    2.7028    9.3880    0.1030    3.4735   50.1980   95.0308    1.8931
   5276.0880   18.0454 -999.2500 -999.2500  259.6015  220.4497  226.4218   72.6384    2.6996    9.2290    0.0989    3.9113   49.9919   94.5816    1.8919
   5276.2404   21.9095 -999.2500 -999.2500  278.7944  244.9267  233.5867   72.6353    2.6951    9.0390    0.0967    4.2734   49.8684   94.6151    1.8973
   5276.3928   32.4050 -999.2500 -999.2500  270.4358  206.8985  234.9879   72.6322    2.7123    9.2533    0.1009    4.8469   49.8370   94.8720    1.9036
   5276.5452   41.3670 -999.2500 -999.2500  171.8265  166.6385  154.6111   72.6290    2.7096    9.5264    0.1090    5.4489   50.1374   95.2878    1.9006
   5276.6976   44.5940 -999.2500 -999.2500  106.8357  124.1945   92.5865   72.6259    2.6985    9.6339    0.1121    5.6104   51.1748   96.3842    1.8836
   5276.8500   51.5301 -999.2500 -999.2500   93.4597   87.2420   77.9633   72.6230    2.6944    9.4806    0.1038    5.5284   51.5405   96.7749    1.8776
   5277.0024   42.5416 -999.2500 -999.2500  115.2258   90.9063   97.0960   72.6199    2.7018    9.7900    0.1067    5.2337   51.6003   96.9112    1.8781
   5277.1548   34.0744 -999.2500 -999.2500  149.5325  128.0390  133.3459   72.6166    2.6939    9.7455    0.1021    4.8108   51.5869   96.9052    1.8785
   5277.3072   30.7283 -999.2500 -999.2500  160.5285  152.0264  148.6037   72.6137    2.6755    9.5453    0.0932    4.5132   51.5469   96.8144    1.8782
   5277.4596   31.9803 -999.2500 -999.2500  142.2703  122.4337  124.0494   72.6106    2.6683    9.6549    0.0949    4.4097   51.4188   96.4331    1.8754
   5277.6120   27.1464 -999.2500 -999.2500  182.6031  158.2468  153.3512   72.6074    2.6732    9.5984    0.0979    4.8167   51.2541   96.2363    1.8776
   5277.7644   26.9381 -999.2500 -999.2500  315.7668  323.3768  281.0520   72.6044    2.7031    9.6963    0.1215    6.0384   51.4316   97.3934    1.8937
   5277.9168   36.8244 -999.2500 -999.2500  322.6456  381.7952  338.9194   72.6015    2.7590   10.1178    0.1772    8.1080   51.8391   98.8262    1.9068
   5278.0692   55.9291 -999.2500 -999.2500  205.8646  238.2948  218.1084   72.5982    2.6937   10.3426    0.1645   10.4851   53.7483  100.4864    1.8709
   5278.2216   83.9239 -999.2500 -999.2500   91.2911   84.3234   89.5015   72.5951    2.6368    9.7910    0.1148   13.5295   57.2622  103.8093    1.8145
   5278.3740   79.0444 -999.2500 -999.2500   50.2529   37.3640   41.5361   72.5921    2.6242    9.3535    0.0851   13.1179   58.9346  105.0000    1.7817
   5278.5264   53.3122 -999.2500 -999.2500   54.0008   36.1539   39.5020   72.5891    2.6720    9.1827    0.0837   10.2307   59.6945  105.0000    1.7591
   5278.6788   45.8051 -999.2500 -999.2500   74.2691   53.9985   57.1531   72.5860    2.7155    9.0099    0.0960    8.6823   59.9295  105.0000    1.7521
   5278.8312   50.3184 -999.2500 -999.2500   57.7880   58.1318   50.2798   72.5827    2.7320    8.8023    0.0941    9.3446   59.2152  104.7116    1.7693
   5278.9836   46.8161 -999.2500 -999.2500   42.8713   49.4121   38.6967   72.5798    2.7434    8.7138    0.0947    9.9461   56.7138  103.7313    1.8298
   5279.1360   44.2241 -999.2500 -999.2500   58.6793   60.6583   55.0439   72.5768    2.7599    8.9570    0.1148    8.7434   55.6708  102.5612    1.8423
   5279.2884   56.2248 -999.2500 -999.2500   94.7465   81.6714   92.6968   72.5738    2.7185    9.0485    0.0960    7.7716   55.3262  102.1191    1.8458
   5279.4408   63.0201 -999.2500 -999.2500   70.8878   56.6605   69.9338   72.5705    2.6969    8.9878    0.0813    8.2676   55.3435  102.1611    1.8460
