~Version
 VERS              .         3                             : CWLS LOG ASCII STANDARD - VERSION 3.0
 WRAP              .         NO                            : ONE LINE PER DEPTH STEP
 DLM               .         SPACE                         : DELIMITING CHARACTER(SPACE TAB OR COMMA)
~Well Information
#_______________________________________________________________________________
#
#PARAMETER_NAME    .UNIT     VALUE                         : DESCRIPTION
#_______________________________________________________________________________
STRT               .F        4494                          : First reference value
STOP               .F        7635                          : Last reference value
STEP               .F        0.5                           : Step increment
NULL               .         -9999                         : Missing value
WELL               .         SY027104H                     : Well name
ORIGINALWELLNAME   .         Well                          : 
RANG               .                                       : 
REGN               .         Abu Dhabi                     : 
AZTC               .deg      0.383835                      : 
GRDC               .deg      1.093917                      : 
WHEW               .ft       0.000000                      : 
TDL                .ft       3000.000000                   : 
TOWN               .                                       : 
NREF               .         2                             : 
DOE                .         AD-FE-0007255267              : 
EGL                .ft       407.799988                    : 
GVFD               .g        1.000000                      : 
COLG               .         186HAL_lg.bmp                 : 
WHNS               .ft       0.000000                      : 
CREF               .         Ellipsoid Clarke - 1880       : 
VSDR               .deg      55.740002                     : 
FTOP               .         Formation Tops                : 
LLGR               .         Latitude/Longitude            : 
EPD                .ft       0.000000                      : 
WDMS               .ft       0.000000                      : 
DFWL               .ft       0.000000                      : 
MFLD               .nT       42523.898438                  : 
GREF               .         Ellipsoid World Geodetic System: 
CTRY               .         UN                            : Two letter Internet country code
COUNTRY            .         United Arab Emirates          : 
DFWT               .                                       : 
CNTY               .         Abu Dhabi                     : 
VSEW               .ft       0.000000                      : 
UWI                .         AD-FE-0007255267              : 
CSGD               .ft       4170.000000                   : 
STAT               .         Abu Dhabi                     : 
APD                .ft       429.000000                    : 
BASE               .         Abu Dhabi                     : 
VSNS               .ft       0.000000                      : 
DCON               .         Al-Mansoory                   : 
API                .         AD-FE-0007255267              : 
GPMT               .                                       : 
CSGL               .ft       4170.000000                   : 
MDEC               .deg      1.477752                      : 
LONG               .deg      53.809174                     : 
CSGS               .in       9.625000                      : 
SPUD               .         20-Mar-10                     : 
MDS                .         Win MagUTM                    : 
CMER               .deg      51.000000                     : 
SRVC               .         NDC                           : 
CSGW               .lbpf     47.000000                     : 
SON                .         AD-FE-0007255267              : 
TVDS               .ft       429.000000                    : 
LMF                .         Kelly Bushing                 : 
CGSY               .         SS CLRK51                     : 
EKB                .ft       429.000000                    : 
HPTY               .         0                             : 
MWDS               .         Dubai                         : 
GGSY               .         LL                            : 
RCST               .$/da     0.000000                      : 
FLD                .         Shah                          : 
SVYD               .         Survey_DS                     : 
CCDE               .         UTM Clarke 1880 (CM 51), Meters: 
AGAP               .ft       0.000000                      : 
LOC                .                                       : 
DFSL               .ft       0.000000                      : 
EDF                .ft       428.000031                    : 
UNIT               .         166264                        : 
RIG                .         ND-50                         : 
VSC                .         0                             : 
LEAS               .                                       : 
XYGR               .         UTM Zones, Northern Hemisphere, Meters: 
GCDE               .         Generic Lat/Long's, Degrees, -180 ==> +180: 
DFST               .                                       : 
ILTD               .         Lithology                     : 
DMOD               .         Drill Model                   : 
JOBN               .         AD-FE-0007255267              : 
LATI               .deg      22.900974                     : 
DMF                .         Kelly Bushing                 : 
STIM               .         00.00.00 28-Mar-10            : 
CULG               .                                       : 
SECT               .                                       : 
PDAT               .         Mean Sea Level                : 
CPJM               .                                       : 
STRD               .ft       4648.000000                   : 
WTYP               .         2                             : 
COMP               .         ADCO                          : 
MAGU               .         1453103                       : 
PROV               .         Abu Dhabi                     : 
MMDL               .         bggm2009.dat                  : 
UTMX               .m        788186.312500                 : 
UTMY               .m        2535096.000000                : 
DATE               .         00.00.00 03-Apr-10            : 
TDD                .ft       7648.000000                   : 
MDIP               .deg      34.939442                     : 
GDAT               .                                       : 
LIC                .                                       : 
~Parameter Information Block
#_______________________________________________________________________________
#
#PARAMETER_NAME    .UNIT     VALUE                         : DESCRIPTION
#_______________________________________________________________________________
SET                .         WL_FINAL                      : 
LMF                .         ORTKB                         : Logging Measured From (Name of Logging Elevation Reference)
APD                .F        428.000000                    : Elevation of Depth Reference (LMF) above Permanent Datum
EPD                .F        0.000000                      : Elevation of Permanent Datum above Mean Sea Level
RUN                .         1                             : RUN NUMBER
PDAT               .         MSL                           : Permanent Datum
~Curve Information
#_______________________________________________________________________________
#
#LOGNAME           .UNIT     LOG_ID                        : DESCRIPTION
#_______________________________________________________________________________
DEPT               .F                                      : DEPTH (BOREHOLE) -F10 {F}
C1                 .IN                                     : Caliper 1 -F13 {F}
C2                 .IN                                     : Caliper 2 -F13 {F}
HCGR               .GAPI                                   : HNGS Computed Gamma Ray -F13 {F}
HSGR               .GAPI                                   : HNGS Standard Gamma Ray -F13 {F}
RT_HRLT            .OHMM                                   : HRLT Computed True Resistivity -F13 {F}
RXO_HRLT           .OHMM                                   : HRLT Computed Invaded Zone Resistivity -F13 {F}
TENS               .LBF                                    : Cable Tension -F13 {F}
~Ascii
# ...
6359.5     5.9217     5.9104     4.2254     37.3431    8.5806     4.7056     2880      
6360       5.9065     5.8961     3.0556     37.2222    8.3371     4.4108     2806      
6360.5     5.9217     5.9104     2.1922     36.0649    8.5363     4.4249     2823      
6361       5.9065     5.8961     2.5501     36.1543    8.4215     4.4202     2873      
6361.5     5.9103     5.9176     2.8682     37.0017    8.4085     4.3997     2931      
6362       5.9065     5.9392     2.4746     36.183     8.2689     4.4245     3016      
6362.5     5.9141     5.9248     2.8527     34.7019    8.5409     4.6778     2914      
6363       5.9293     5.9392     2.9615     32.7823    8.4613     4.8657     2757      
6363.5     5.9217     5.9392     3.7305     34.1458    8.5127     5.0158     2812      
6364       5.9217     5.9571     4.238      35.3615    8.4687     5.0288     2859      
6364.5     5.9065     5.9392     3.5426     35.8189    9.0135     5.2881     2835      
6365       5.9217     5.9535     2.4412     34.9377    8.229      4.5903     2978      
6365.5     5.9293     5.9463     3.1562     32.9199    8.2837     4.768      2968      
6366       5.9141     5.932      3.5663     32.5486    8.6822     4.9739     2951      
6366.5     5.9217     5.9392     3.1142     31.6802    8.5059     4.9396     2855      
6367       5.9293     5.932      2.7164     32.5588    8.3342     4.444      2828      
6367.5     5.9217     5.9104     2.6833     31.8185    8.6035     4.7665     2751      
6368       5.9217     5.9248     2.5759     32.3407    9.1425     5.2484     2780      
6368.5     5.9217     5.9104     2.7566     33.3963    8.817      4.5776     2880      
6369       5.9065     5.9104     2.502      33.4272    8.3098     4.4699     2983      
6369.5     5.9255     5.9104     2.1206     33.4287    8.2803     4.8064     2992      
6370       5.9255     5.9463     1.9151     32.2415    8.7739     5.0413     2931      
6370.5     5.9103     5.9392     2.2703     32.5009    8.5086     4.9121     2777      
6371       5.9217     5.9356     1.9966     31.3082    8.1389     4.5589     2783      
6371.5     5.9027     5.9356     1.95       32.1719    8.2284     4.3081     2741      
6372       5.9217     5.9212     1.7418     32.125     8.881      4.6801     2896      
6372.5     5.9217     5.9248     1.7936     32.1773    9.5246     4.9085     2880      
6373       5.9141     5.9248     1.7876     30.0885    9.5849     4.9299     2957      
6373.5     5.9217     5.9248     1.7895     30.2488    9.2682     4.7803     2907      
6374       5.899      5.9392     3.2307     30.7068    8.9917     4.6856     2809      
6374.5     5.9141     5.9428     3.73       31.833     8.9031     4.6647     2809      
6375       5.9065     5.9392     3.6862     32.6276    8.6496     4.4829     2844      
6375.5     5.9065     5.9392     3.8662     33.3482    9.3594     4.726      2892      
6376       5.9141     5.9248     3.5627     32.5761    9.4283     4.8119     2978      
6376.5     5.9217     5.9248     3.8622     31.2726    9.3872     4.8307     2974      
6377       5.9217     5.932      4.3809     31.3299    9.4937     4.7751     2914      
6377.5     5.9217     5.9535     4.9963     31.927     8.2934     4.2075     2975      
6378       5.9065     5.9392     5.7996     33.6792    8.801      4.5107     2860      
6378.5     5.9141     5.9535     5.5908     32.4442    9.7188     4.9847     2829      
6379       5.9217     5.9535     5.9458     34.5011    8.8865     4.595      2824      
6379.5     5.9293     5.9499     4.7108     33.0895    9.0382     4.6589     2942      
6380       5.9103     5.9463     5.0787     35.413     9.502      4.9634     2913      
6380.5     5.9217     5.9499     6.0262     33.9215    8.9739     4.7164     2950      
6381       5.9065     5.9535     6.6621     35.9291    9.1669     4.7631     2872      
6381.5     5.9217     5.9392     6.6717     35.9472    9.4931     4.8722     2885      
6382       5.9217     5.932      5.6715     36.3983    9.5443     4.9687     2804      
6382.5     5.9217     5.9392     6.3517     36.4728    9.4826     4.9245     2826      
6383       5.9217     5.9535     6.6788     36.0998    9.4215     4.9025     2867      
6383.5     5.9141     5.9751     6.5745     36.0478    9.5126     4.8684     3022      
6384       5.9141     5.9535     6.555      35.2478    9.3982     4.8373     3038      
6384.5     5.9141     5.9643     6.1645     36.2326    9.3294     4.7303     3005      
6385       5.9027     5.9535     4.8436     36.2104    8.4681     4.4184     2839      
6385.5     5.9217     5.9535     4.7122     36.5546    8.0858     4.2544     2848      
6386       5.9065     5.9607     3.2536     36.1982    8.1048     4.3044     2844      
6386.5     5.9141     5.9571     3.0569     36.9984    8.1469     4.3585     2862      
6387       5.9255     5.9751     3.4291     36.389     8.5992     4.5284     2898      
6387.5     5.9141     5.9751     4.1549     36.7115    8.2743     4.4272     3021      
6388       5.9217     5.9823     2.894      35.9109    8.5471     4.4759     2935      
6388.5     5.9103     5.9751     1.8263     36.3343    8.1128     4.2708     2888      
6389       5.9293     5.9679     1.8719     35.3006    8.0974     4.2998     2950      
6389.5     5.9293     5.9715     1.5031     35.8901    8.3554     4.3447     2817      
6390       5.9217     5.9715     2.3703     35.2849    7.1605     3.7875     2850      
6390.5     5.9217     5.9607     2.9011     35.2863    7.8323     4.1652     2894      
6391       5.9293     5.9679     2.3487     34.2189    7.6238     4.029      2938      
6391.5     5.9217     5.9463     3.0438     34.4639    7.6707     3.8588     2930      
6392       5.9368     5.9679     3.0636     35.6751    7.1558     3.5738     3003      
6392.5     5.9293     5.9463     2.7947     37.9618    8.1317     4.0493     2766      
6393       5.9368     5.9392     1.799      37.8559    8.5236     4.2011     2862      
6393.5     5.9368     5.9392     1.4523     36.6235    8.148      3.9947     2824      
6394       5.9293     5.9392     1.5472     35.4427    7.7998     3.7827     2898      
6394.5     5.9255     5.9248     1.4501     35.2494    7.5975     3.7247     2924      
6395       5.9368     5.932      2.0458     36.0009    7.5582     3.7275     2977      
6395.5     5.9217     5.932      1.8777     35.5923    7.7231     3.7257     2829      
6396       5.9293     5.9248     1.8779     36.4519    7.7615     3.6802     2875      
6396.5     5.9293     5.932      2.6268     36.1013    8.3589     3.8643     2779      
6397       5.9255     5.9392     2.5986     35.3196    8.7874     4.0286     2757      
6397.5     5.9217     5.9176     2.7103     34.505     8.6865     3.9453     2820      
6398       5.9368     5.9392     3.7415     33.9517    7.9693     3.6285     2922      
6398.5     5.9368     5.9356     5.0453     34.6798    7.8926     3.6107     2908      
6399       5.9368     5.9463     5.0912     35.56      7.6238     3.4158     3009      
6399.5     5.9293     5.9248     5.0187     35.6702    7.0966     3.1797     2926      
6400       5.9293     5.9392     5.5206     35.959     7.424      3.3455     2842      
6400.5     5.9368     5.932      4.9516     34.5774    7.5552     3.4215     2821      
6401       5.9368     5.932      4.7639     34.5952    7.5736     3.371      2761      
6401.5     5.9368     5.932      4.8945     33.5539    7.4484     3.192      2903      
6402       5.9331     5.9356     4.6714     34.2705    7.6443     3.2746     2945      
6402.5     5.9217     5.9176     4.7143     32.8196    8.4585     3.6661     2957      
6403       5.9368     5.932      5.086      34.0134    8.4363     3.7043     3010      
6403.5     5.9141     5.9392     4.0474     34.1394    8.0875     3.5282     2895      
6404       5.9293     5.9356     4.187      35.1667    7.9637     3.4218     2819      
6404.5     5.9444     5.932      5.9169     35.0091    7.464      3.2405     2871      
