~Version
 VERS              .         3                             : CWLS LOG ASCII STANDARD - VERSION 3.0
 WRAP              .         NO                            : ONE LINE PER DEPTH STEP
 DLM               .         SPACE                         : DELIMITING CHARACTER(SPACE TAB OR COMMA)
~Well Information
#_______________________________________________________________________________
#
#PARAMETER_NAME    .UNIT     VALUE                         : DESCRIPTION
#_______________________________________________________________________________
STRT               .F        4494                          : First reference value
STOP               .F        7635                          : Last reference value
STEP               .F        0.5                           : Step increment
NULL               .         -9999                         : Missing value
WELL               .         SY027104H                     : Well name
ORIGINALWELLNAME   .         Well                          : 
RANG               .                                       : 
REGN               .         Abu Dhabi                     : 
AZTC               .deg      0.383835                      : 
GRDC               .deg      1.093917                      : 
WHEW               .ft       0.000000                      : 
TDL                .ft       3000.000000                   : 
TOWN               .                                       : 
NREF               .         2                             : 
DOE                .         AD-FE-0007255267              : 
EGL                .ft       407.799988                    : 
GVFD               .g        1.000000                      : 
COLG               .         186HAL_lg.bmp                 : 
WHNS               .ft       0.000000                      : 
CREF               .         Ellipsoid Clarke - 1880       : 
VSDR               .deg      55.740002                     : 
FTOP               .         Formation Tops                : 
LLGR               .         Latitude/Longitude            : 
EPD                .ft       0.000000                      : 
WDMS               .ft       0.000000                      : 
DFWL               .ft       0.000000                      : 
MFLD               .nT       42523.898438                  : 
GREF               .         Ellipsoid World Geodetic System: 
CTRY               .         UN                            : Two letter Internet country code
COUNTRY            .         United Arab Emirates          : 
DFWT               .                                       : 
CNTY               .         Abu Dhabi                     : 
VSEW               .ft       0.000000                      : 
UWI                .         AD-FE-0007255267              : 
CSGD               .ft       4170.000000                   : 
STAT               .         Abu Dhabi                     : 
APD                .ft       429.000000                    : 
BASE               .         Abu Dhabi                     : 
VSNS               .ft       0.000000                      : 
DCON               .         Al-Mansoory                   : 
API                .         AD-FE-0007255267              : 
GPMT               .                                       : 
CSGL               .ft       4170.000000                   : 
MDEC               .deg      1.477752                      : 
LONG               .deg      53.809174                     : 
CSGS               .in       9.625000                      : 
SPUD               .         20-Mar-10                     : 
MDS                .         Win MagUTM                    : 
CMER               .deg      51.000000                     : 
SRVC               .         NDC                           : 
CSGW               .lbpf     47.000000                     : 
SON                .         AD-FE-0007255267              : 
TVDS               .ft       429.000000                    : 
LMF                .         Kelly Bushing                 : 
CGSY               .         SS CLRK51                     : 
EKB                .ft       429.000000                    : 
HPTY               .         0                             : 
MWDS               .         Dubai                         : 
GGSY               .         LL                            : 
RCST               .$/da     0.000000                      : 
FLD                .         Shah                          : 
SVYD               .         Survey_DS                     : 
CCDE               .         UTM Clarke 1880 (CM 51), Meters: 
AGAP               .ft       0.000000                      : 
LOC                .                                       : 
DFSL               .ft       0.000000                      : 
EDF                .ft       428.000031                    : 
UNIT               .         166264                        : 
RIG                .         ND-50                         : 
VSC                .         0                             : 
LEAS               .                                       : 
XYGR               .         UTM Zones, Northern Hemisphere, Meters: 
GCDE               .         Generic Lat/Long's, Degrees, -180 ==> +180: 
DFST               .                                       : 
ILTD               .         Lithology                     : 
DMOD               .         Drill Model                   : 
JOBN               .         AD-FE-0007255267              : 
LATI               .deg      22.900974                     : 
DMF                .         Kelly Bushing                 : 
STIM               .         00.00.00 28-Mar-10            : 
CULG               .                                       : 
SECT               .                                       : 
PDAT               .         Mean Sea Level                : 
CPJM               .                                       : 
STRD               .ft       4648.000000                   : 
WTYP               .         2                             : 
COMP               .         ADCO                          : 
MAGU               .         1453103                       : 
PROV               .         Abu Dhabi                     : 
MMDL               .         bggm2009.dat                  : 
UTMX               .m        788186.312500                 : 
UTMY               .m        2535096.000000                : 
DATE               .         00.00.00 03-Apr-10            : 
TDD                .ft       7648.000000                   : 
MDIP               .deg      34.939442                     : 
GDAT               .                                       : 
LIC                .                                       : 
~Parameter Information Block
#_______________________________________________________________________________
#
#PARAMETER_NAME    .UNIT     VALUE                         : DESCRIPTION
#_______________________________________________________________________________
SET                .         WL_FINAL                      : 
LMF                .         ORTKB                         : Logging Measured From (Name of Logging Elevation Reference)
APD                .F        428.000000                    : Elevation of Depth Reference (LMF) above Permanent Datum
EPD                .F        0.000000                      : Elevation of Permanent Datum above Mean Sea Level
RUN                .         1                             : RUN NUMBER
PDAT               .         MSL                           : Permanent Datum
~Curve Information
#_______________________________________________________________________________
#
#LOGNAME           .UNIT     LOG_ID                        : DESCRIPTION
#_______________________________________________________________________________
DEPT               .F                                      : DEPTH (BOREHOLE) -F10 {F}
C1                 .IN                                     : Caliper 1 -F13 {F}
C2                 .IN                                     : Caliper 2 -F13 {F}
HCGR               .GAPI                                   : HNGS Computed Gamma Ray -F13 {F}
HSGR               .GAPI                                   : HNGS Standard Gamma Ray -F13 {F}
RT_HRLT            .OHMM                                   : HRLT Computed True Resistivity -F13 {F}
RXO_HRLT           .OHMM                                   : HRLT Computed Invaded Zone Resistivity -F13 {F}
TENS               .LBF                                    : Cable Tension -F13 {F}
~Ascii
# ...
6951       6.0505     5.9966     11.5075    83.0557    3.1349     2.6345     3020      
6951.5     6.0581     5.9643     13.0935    83.9963    3.1278     2.6551     2924      
6952       6.0391     5.932      10.8692    84.5373    3.1486     2.5252     2936      
6952.5     6.0505     5.9679     11.2034    81.2563    2.6735     2.2072     2945      
6953       6.0581     5.9823     11.584     81.5667    2.2581     1.8563     3044      
6953.5     6.0657     6.0685     12.2265    81.6376    1.8811     1.7159     3081      
6954       6.1339     6.1475     13.5934    81.3535    2.4381     1.9909     3055      
6954.5     6.1869     6.126      13.2138    81.1688    2.3        1.6319     3110      
6955       6.1566     6.126      14.2331    80.6333    1.8953     1.3656     2962      
6955.5     6.1718     6.1224     15.8655    81.7213    2.3178     1.5816     2973      
6956       6.1642     6.0757     16.2454    81.5       2.1921     1.4771     2868      
6956.5     6.0922     6.0829     16.2038    83.918     2.4293     1.5424     2943      
6957       6.0808     6.0254     16.2518    84.0503    2.641      1.675      3017      
6957.5     5.9596     5.8889     17.7937    82.0504    2.5062     1.4763     3040      
6958       5.9672     5.932      18.4687    78.7891    1.8789     1.2182     3073      
6958.5     5.9558     5.9248     16.5639    72.4286    2.1813     1.5533     3037      
6959       5.9672     5.914      16.3636    69.38      2.2548     1.6181     2914      
6959.5     5.9596     5.9463     16.0308    68.154     2.0463     1.3753     2947      
6960       5.9672     6.0613     19.3061    72.3695    1.6155     1.0754     2901      
6960.5     6.0202     6.0757     20.3977    76.8303    1.9233     1.3256     3014      
6961       6.0354     6.0901     21.1592    79.567     2.3098     1.5195     3038      
6961.5     6.0278     6.0613     21.4427    82.6617    2.6031     1.6234     3090      
6962       6.0354     6.0865     21.9082    81.7469    2.8457     1.7158     3080      
6962.5     5.952      6.0757     19.8383    76.6998    2.4185     1.5132     2954      
6963       5.9255     5.9823     18.3424    72.1836    3.2418     2.111      2983      
6963.5     5.9217     5.9751     16.1944    70.6812    3.5008     2.1721     2931      
6964       5.9179     5.9823     16.9897    76.9658    2.7917     1.7154     2884      
6964.5     5.9141     5.9679     17.3291    83.2861    2.0982     1.329      2989      
6965       5.9217     5.9751     19.227     88.1871    2.4573     1.4685     3047      
6965.5     5.9217     5.932      18.0439    87.9997    1.7905     1.1173     3064      
6966       5.9141     5.9248     17.0168    83.8758    2.5659     1.6646     2907      
6966.5     5.9141     5.932      16.0382    77.9453    3.2323     1.9505     2974      
6967       5.9141     5.9463     15.9444    73.6704    3.4068     1.9198     2876      
6967.5     5.9217     5.9176     17.2451    77.4508    3.8126     1.7428     2935      
6968       5.9027     5.9248     19.7903    85.0071    3.6816     1.6356     2989      
6968.5     5.9293     5.9823     21.355     88.9358    3.2206     1.6597     3028      
6969       5.9368     5.9823     22.4928    87.441     3.1681     1.6821     3046      
6969.5     5.9558     5.9607     24.0003    89.806     2.1819     1.1009     3000      
6970       5.9672     5.9823     27.2382    94.0894    1.3556     0.723      3010      
6970.5     5.9672     5.9679     29.0006    99.1339    1.4015     0.7278     2924      
6971       5.9596     5.9607     30.5166    94.9271    1.5159     0.7801     2945      
6971.5     5.9596     5.9751     29.7284    89.4269    1.6751     0.8001     2997      
6972       5.9596     5.9823     28.1808    83.3886    1.7572     0.7408     3096      
6972.5     5.9672     5.9823     26.6836    80.6213    1.8299     0.7377     3064      
6973       5.9672     6.0469     26.3415    81.4448    1.975      0.7511     3068      
6973.5     5.9217     6.1188     29.3238    85.7545    1.9732     0.757      2987      
6974       5.9217     6.1763     31.7943    92.5878    1.8736     0.7062     2962      
6974.5     5.7853     6.126      32.3427    99.3966    1.6845     0.6591     2884      
6975       5.7247     6.1404     32.6731    100.905    1.7119     0.6742     2969      
6975.5     5.7247     6.4565     32.1287    100.022    1.7247     0.657      3031      
6976       6.1793     6.5571     29.7544    93.8944    1.6519     0.6371     3043      
6976.5     6.1869     6.0793     26.1651    89.119     1.9809     0.7405     3076      
6977       6.1869     5.9751     24.5176    84.4521    2.2732     0.8155     2940      
6977.5     6.2096     6.0613     22.2536    82.2926    2.1612     0.7842     2967      
6978       6.2703     6.0613     22.6075    81.2974    2.413      0.855      2957      
6978.5     6.2703     6.2194     22.4461    81.3972    2.3727     0.8206     2908      
6979       6.5279     7.2864     20.597     83.1641    1.8397     0.6579     3109      
6979.5     6.3157     8.1738     20.3882    83.9895    1.9073     0.6754     3080      
6980       6.509      6.8625     21.8444    81.6666    2.0956     0.7486     3108      
6980.5     6.5848     6.1835     21.324     79.3278    2.1803     0.7705     3013      
6981       6.9068     6.8733     20.3869    77.6285    2.1222     0.7389     2983      
6981.5     6.7856     7.5343     21.9043    79.1393    2.1337     0.753      2986      
6982       6.5961     7.5271     23.5083    80.7664    1.9946     0.675      2935      
6982.5     6.975      8.1918     25.0703    78.8889    1.917      0.6784     3051      
6983       6.3536     6.7906     25.7915    75.4843    2.154      0.7563     3067      
6983.5     6.3461     6.435      26.0459    75.8211    1.9615     0.7212     3127      
6984       6.3423     6.0685     29.5064    79.8863    1.7723     0.6543     2967      
6984.5     6.3536     5.9751     31.7737    82.4992    1.6427     0.6048     3125      
6985       6.293      6.8373     33.6178    79.9845    1.6796     0.6441     2849      
6985.5     6.1111     6.4924     31.4929    75.7358    1.936      0.7245     2930      
6986       6.1263     6.4996     30.2967    73.7407    1.9212     0.7279     2961      
6986.5     6.1642     6.4062     29.7914    71.0365    1.8923     0.7071     2951      
6987       6.1187     6.3344     28.5092    71.017     1.8121     0.6831     3118      
6987.5     6.1263     6.2841     29.4267    73.5405    1.97       0.7585     3093      
6988       6.1414     6.2697     29.1216    76.2928    2.1963     0.8477     2971      
6988.5     6.149      6.1835     29.4704    79.4494    2.0628     0.8113     3211      
6989       6.1642     6.1547     28.7675    76.4799    1.957      0.7837     2859      
6989.5     6.1566     6.1044     27.1372    73.3371    1.8513     0.7603     2590      
6990       5.9444     8.3175     24.2685    67.602     1.808      0.7342     2464      
6990.5     6.096      9.4672     21.8794    64.8666    1.6647     0.6779     2331      
6991       6.1111     9.4887     20.6092    63.3657    1.8682     0.723      2119      
6991.5     6.1263     9.4815     21.9171    65.5328    1.9307     0.7696     3066      
6992       6.1263     9.4887     22.9196    69.5576    2.0529     0.8135     2814      
6992.5     6.1263     9.4815     25.0929    72.2616    1.7838     0.7139     2493      
6993       6.5885     5.641      24.734     72.6594    1.6779     0.6988     2213      
6993.5     6.6012     5.5128     23.826     67.1347    1.8329     0.7434     1944      
6994       6.598      6.3667     23.5941    63.0328    1.6584     0.6902     1717      
6994.5     6.5986     6.4206     21.4524    59.0425    1.7533     0.7163     2908      
6995       6.6567     6.4062     21.611     60.5659    1.882      0.7397     3032      
6995.5     6.6492     6.2841     23.3409    62.1693    1.8926     0.7407     3072      
6996       6.5885     6.1907     23.5972    61.9325    2.0338     0.7839     3020      
