~Version Information
 VERS.                  2.0:   CWLS log ASCII Standard -VERSION 2.0
 WRAP.                   NO:   One line per depth step
~Well Information Block
#MNEM.UNIT     VALUE/NAME     DESCRIPTION
#---------     -----------    ---------------------------
 STRT.F             10927.0000: START DEPTH
 STOP.F             12844.5000: STOP DEPTH
 STEP.F                 0.5000: STEP DEPTH
 NULL.               -999.2500: NULL VALUE
 API .                        :  API NUMBER
 CNTY.                        :  COUNTY
 COMP.                        :  COMPANY
 CTRY.                        :  COUNTRY
 DATE.                        :  DATE
 FLD .                        :  FIELD
 PROV.                        :  PROVINCE
 SRVC.             Halliburton:  SERVICE COMPANY
 STAT.                        :  STATE
 UWI .                        :  UNIQUE WELL IDENTIFIER
 WELL.                        :  WELL
 LOC .                        :  LOCATION
 TDL .ft           1374.671875:  TOTAL DEPTH (LOGGER)
~Parameter Information Block
#MNEM.UNIT       Value        Description
#---------     -----------    ---------------------------
 AV  .fpm           452.755920:  Ann Velocity 
 AVMX.fpm           511.811035:  Max Ann Veloc 
 AZIF.deg           237.779999:  Azm, Final 
 BHAT.        Rotary Steerable:  BHA Type 
 BROT.°/100'          0.030480:  Build Rotating 
 BS  .in              8.500000:  Bit Size 
 BSZ .in              8.500000:  Bit Size 
 BTPL.psig          511.000000:  Bit Press Loss 
 CABU.                      No:  Customer Abuse 
 CGEO.        Jonathan Randles:  Customer Geo 
 COMM.                     ä<]:  Run Comments 1 
 TCS .hr             63.500000:  Time Ciculation Ended 
 CV  .fpm           393.700806:  Crit Velocity 
 CVMX.fpm           393.700806:  Max Crit Veloc 
 DD1 .          Andrey Borodin:  Direct Drillr 1 
 DD2 .           Pierre Giroud:  Direct Drillr 2 
 DDSV.                 iCruise:  DD Service 
 DEFF.%              98.000000:  % Det Eff 
 DEVI.deg            89.040001:  InclinationUp 
 DEVI.deg            89.019997:  InclinationLow 
 DLRX.°/100'          8.818880:  Dogleg Rot Max 
 DLSO.°/100'          2.245360:  Dogleg Oriented 
 DLSX.°/100'          8.818880:  Dogleg Str Max 
 DRET.      01.05.00 01-Sep-21:  Drill End Time 
 DRST.      14.32.10 29-Aug-21:  Drill Start Tim 
 DTIM.hr             44.500000:  Time Drilling 
 EDEP.ft          13077.427734:  End Depth 
 ENG1.           Sergey Burkov:  Engineer 1 
 ENG2.         Ebenezer Parker:  Engineer 2 
 ENG3.            Gerald Natai:  Engineer 3 
 ENG4.         Victor Alvarado:  Engineer 4 
 ETIM.      01.05.00 02-Sep-21:  End Time 
 FLOI.gpm           629.930054:  Flow In 
 FLON.gpm           600.000000:  Flow In Min 
 FLOS.mptm            3.200000:  Fluid Loss 
 FLOX.gpm           650.000000:  Flow In Max 
 HAZI.deg           236.610001:  AzimuthLower 
 HAZI.deg           238.050003:  AzimuthUpper 
 HPRE.                      No:  High Pressure 
 HYDO.ft              0.000000:  Hydro Offset 
 IFIN.deg            91.870003:  Inc, Final 
 IMAX.deg            92.339996:  Inc Max 
 IMIN.deg            84.989998:  Inc Min 
 IMND.ft          12906.824219:  Inc Min Depth 
 IMXD.ft          11745.407227:  Inc Max Depth 
 JARR.                      No:  Jarring 
 LETM.      01.05.00 01-Sep-21:  Log End Time 
 LOST.hr                     0:  Lost Rig Time 
 LSTM.      14.32.10 28-Aug-21:  Log Start Time 
 MDCL.ppm         60000.000000:  Mud Chlorides 
 MDES.             Fresh Water:  Mud Desc 
 DFD .ppg             9.638940:  Mud Density 
 MDMN.ppg             9.597213:  Dens Mud Min 
 MDMX.ppg             9.680667:  Dens Mud Max 
 PH  .pH              9.900000:  Mud pH 
 MOIL.                    0.00:  Run Mud Oil % 
 MSND.                    0.20:  Run Mud Sand % 
 MSOL.                     4.3:  Run Mud Solids% 
 DFV .spqt           47.000000:  Mud Viscosity 
 MWOD.in              6.750000:  MWD Tool OD 
 MWSI.                      No:  Serv Intrp, MWD 
 ORV1.deg             0.000000:  Orientation 1 
 ORV2.deg             0.000000:  Orientation 2 
 OTIM.hr            111.000000:  Time Operating 
 PMAX.psia         9168.941406:  Press Op, Max 
 PV  .cP             12.000000:  Mud PV 
 RMS .ohmm            0.085000:  Mud Resistivity 
 RMCS.ohmm            0.095000:  Mud Cake Resistivity 
 MCST.degF           80.959999:  Mud Cake Sample Temperature 
 RMFS.ohmm            0.080000:  Mud Filtrate Resistivity 
 RMFT.degF           80.959999:  Mud Filtrate Sample Temperature 
 RMMT.ohmm            0.192300:  Rm @ Max Temp 
 MST .degF           80.959999:  Mud Sample Temperature 
 RUN .                     600:  Run Number 
 ROP .fph             0.000000:  ROP Orient Avg 
 ROP .fph            43.143044:  ROP Rot Avg 
 ROPA.fph            43.143044:  ROP Avg 
 ROPN.fph            33.628609:  ROP Min 
 ROPX.fph            44.291336:  ROP Max 
 RPMA.rpm           173.389999:  RPM Surface Avg 
 RPMN.rpm           155.000000:  RPM Surface Min 
 RPMX.rpm           180.000000:  RPM Surface Max 
 RRUN.                     600:  Rig Run Number 
 RTIM.hr             10.500000:  Time Reaming 
 SAZI.deg           236.539993:  Azm, Start 
 SDEP.ft          11158.136719:  Start Depth 
 SDL1.          Christina Sava:  SDL Engineer 1 
 SDL2.         Mohamed Gharieb:  SDL Engineer 2 
 SIDD.                      No:  Serv Intrp, DD 
 SINC.deg            88.860001:  Inc, Start 
 SPPA.psig         2398.194824:  SPP Avg 
 SPPN.psig         2199.985840:  SPP Min 
 SPPX.psig         2519.983887:  SPP Max 
 STIM.      05.37.03 29-Aug-21:  Start Time 
 SVER.                9.200000:  Sperry Version 
 TDAT.ft          11158.136719:  Tot Depth Attmp 
 TDDF.                      No:  Trip for DD 
 TDLG.ft           1374.671875:  Tot Depth Loggd 
 TFF .                      No:  Trip for Fail 
 TQAA.f-p         20745.179688:  Torque Abs Avg 
 TQAN.f-p         17000.000000:  Torque Abs Min 
 TQAX.f-p         25000.000000:  Torque Abs Max 
 TRRT.°/100'          0.081280:  Turn Rotating 
 MRT .                     PWD:  Maximum Recorded Temperature 
 TTMX.degF          102.199997:  Max Tool Temp 
 VS01.                90642082:  Virtual Str1 SN 
 VS02.                90641410:  Virtual Str2 SN 
 VS03.                90645759:  Virtual Str3 SN 
 VS04.                90645758:  Virtual Str4 SN 
 VS05.                90645760:  Virtual Str5 SN 
 VS06.                90641262:  Virtual Str6 SN 
 VS07.                90647660:  Virtual Str7 SN 
 VS08.                13098488:  Virtual Str8 SN 
 VS09.                90642211:  Virtual Str9 SN 
 WBMN.klb             7.000000:  WOB Min 
 WITN.              Johan Roos:  Customer Rep 
 WITN.           Danial Jacobs:  Customer Rep 2 
 WOBA.klb            16.770000:  WOB Avg 
 WOBX.klb            25.000000:  WOB Max 
 YP  .lhf2           20.000000:  Yield Point 
~Curve Information Block
#MNEM.UNIT                 API CODE     Curve Description
#---------               -----------    ---------------------------
 DEPT.F                 00 000 000 000:  Depth
 AFRSAC.ohmm            00 000 000 000:  AFR Shallow Avg Res BC
 AFRMAC.ohmm            00 000 000 000:  AFR Medium Avg Res BC
 AFRDAC.ohmm            00 000 000 000:  AFR Deep Avg Res BC
#Other Information
#
#WARRANTY: Halliburton will use its best efforts to furnish customers with 
#accurate information and interpretations that are part of, and incident to, the services 
#provided.  However, Halliburton cannot and does not warrant the accuracy 
#or correctness of such information and interpretations.  Under no circumstances should any 
#such information or interpretation be relied upon as the sole basis for any drilling, 
#completion, production, or financial decision or any procedure involving any risk to the 
#safety of any drilling venture, drilling rig or its crew or any other third party.  The 
#Customer has full responsibility for all drilling, completion and production operation.  
#Halliburton makes no representations or warranties, either expressed or 
#implied, including, but not limited to, the implied warranties of merchantability or fitness 
#for a particular purpose, with respect to the services rendered.  In no event will 
#Halliburton be liable for failure to obtain any particular results or for 
#any damages, including, but not limited to, indirect, special or consequential damages, 
#resulting from the use of any information or interpretation provided by Halliburton.
#
~A    DEPT     AFRSAC    AFRMAC    AFRDAC   
# ...
   12019.0000   10.1011   14.5619   14.9815
   12019.5000   10.0029   14.0409   13.7960
   12020.0000    9.8003   13.4308   12.7845
   12020.5000   10.5130   12.0814   12.4339
   12021.0000   13.3519   11.6021   13.6638
   12021.5000   18.9074   15.9268   18.1933
   12022.0000   25.1866   29.5600   27.2400
   12022.5000   30.0332   37.1114   38.0975
   12023.0000   25.4488   26.0780   35.4124
   12023.5000   15.9611   17.8606   20.6622
   12024.0000   11.7905   14.0718   13.8923
   12024.5000   11.9671   14.2319   13.8406
   12025.0000   13.6709   18.2529   16.8244
   12025.5000   15.6963   22.3682   20.2861
   12026.0000   17.4459   23.6760   22.9420
   12026.5000   22.4766   30.8615   33.9249
   12027.0000   22.4556   47.9142   54.5994
   12027.5000   20.6293   57.7399   63.6048
   12028.0000   18.8799   47.6073   56.4577
   12028.5000   14.1121   30.7010   38.8058
   12029.0000   11.0998   25.2882   30.1941
   12029.5000   10.2365   26.9134   28.9568
   12030.0000   10.9953   28.3569   31.7168
   12030.5000   13.7482   31.1963   40.2546
   12031.0000   14.6237   32.4289   42.9982
   12031.5000   13.8289   31.2959   39.1817
   12032.0000   15.5829   37.2311   45.0494
   12032.5000   19.4280   50.2330   64.0151
   12033.0000   20.3534   59.0315   73.9077
   12033.5000   19.4943   54.5838   68.2055
   12034.0000   18.2487   48.2605   59.8128
   12034.5000   17.3825   47.9085   55.3077
   12035.0000   19.4475   53.9267   59.9623
   12035.5000   21.2843   51.7549   59.5131
   12036.0000   21.6106   48.7234   53.6082
   12036.5000   24.0369   55.8789   55.0351
   12037.0000   28.7551   64.6494   64.4832
   12037.5000   31.1318   61.5429   73.0159
   12038.0000   31.3858   55.4218   77.1960
   12038.5000   34.4669   51.8726   82.8667
   12039.0000   36.2412   56.8626   83.1911
   12039.5000   30.7516   57.5164   71.6965
   12040.0000   23.3427   46.5473   58.0437
   12040.5000   18.0347   35.8199   47.4902
   12041.0000   14.0996   27.9532   38.9554
   12041.5000   12.5004   25.0280   36.7366
   12042.0000   13.1483   29.2449   41.3240
   12042.5000   13.8658   36.4177   42.6743
   12043.0000   12.7647   30.0425   35.0345
   12043.5000   10.5715   22.1047   28.1770
   12044.0000    9.1753   18.1104   25.9558
   12044.5000    8.1406   16.8708   24.3949
   12045.0000    7.4063   16.9699   23.0722
   12045.5000    7.3497   17.4914   23.8980
   12046.0000    8.0631   18.0436   27.9348
   12046.5000    8.7257   20.2531   31.3792
   12047.0000    8.6590   22.4461   30.3488
   12047.5000    8.1390   21.0920   27.1048
   12048.0000    7.9517   19.3994   25.3135
   12048.5000    8.5919   20.8082   26.4221
   12049.0000   10.0878   25.5552   30.0876
   12049.5000   11.4254   27.6400   32.2567
   12050.0000   11.8142   25.6947   31.6580
   12050.5000   11.7549   24.7350   31.5394
   12051.0000   11.2883   24.6800   32.2703
   12051.5000   10.4164   24.7682   32.2921
   12052.0000    9.5620   25.5500   31.5168
   12052.5000    8.3778   24.5828   29.4514
   12053.0000    7.1837   19.9413   25.7001
   12053.5000    6.2213   16.4225   21.8520
   12054.0000    5.6228   15.4067   20.5541
   12054.5000    5.5659   16.0331   21.7410
   12055.0000    5.4452   16.5522   21.5949
   12055.5000    5.0938   14.3712   19.3686
   12056.0000    4.9480   13.2866   17.4407
   12056.5000    4.6849   11.9087   15.5321
   12057.0000    4.3172   10.3102   14.8379
   12057.5000    5.0259   10.7472   18.5533
   12058.0000    6.6338   14.1007   26.1066
   12058.5000    6.6402   17.9923   27.4431
   12059.0000    6.4716   19.1127   25.6929
   12059.5000    7.6578   19.4173   25.6465
   12060.0000    9.4578   17.8322   25.0140
   12060.5000   10.3135   16.0935   23.1402
   12061.0000   10.4830   17.1185   21.8295
   12061.5000   10.0242   18.0452   19.7732
   12062.0000    9.5582   16.2044   17.7090
   12062.5000   10.0684   14.6442   17.6519
   12063.0000   12.6561   17.8629   22.1894
   12063.5000   18.2673   28.8341   33.0225
   12064.0000   21.0712   36.5280   39.4468
   12064.5000   18.9817   28.7634   35.5209
   12065.0000   15.1485   20.6638   27.2415
   12065.5000   13.1166   17.6604   22.3491
   12066.0000   12.6460   17.8592   20.8057
   12066.5000   14.0177   20.5400   23.3094
   12067.0000   17.7745   25.2464   31.2535
   12067.5000   19.0159   26.9516   34.1229
   12068.0000   15.6161   24.1942   28.2302
   12068.5000   12.8591   20.4665   24.3140
   12069.0000   11.8986   19.7334   23.5505
   12069.5000   11.3504   20.0944   22.7061
   12070.0000   10.8734   19.5254   22.5914
   12070.5000   10.3803   19.1840   22.1425
   12071.0000    9.8197   19.3608   20.8469
   12071.5000    8.8603   18.9810   18.9012
   12072.0000    7.8583   17.0414   16.4079
   12072.5000    7.0578   14.8722   14.3280
   12073.0000    6.6002   13.9255   13.7360
   12073.5000    7.1396   15.4519   15.6382
   12074.0000    8.4347   17.9795   18.8153
   12074.5000    9.9361   19.2027   21.2973
   12075.0000   10.5999   19.1408   21.6691
   12075.5000   10.3168   17.0409   20.3184
   12076.0000    9.7619   15.4962   18.6589
   12076.5000    9.2311   14.8646   17.1381
   12077.0000    8.8491   14.7901   16.1948
   12077.5000    8.5544   14.1796   15.5206
   12078.0000    7.8572   12.7476   14.4177
   12078.5000    7.6528   12.7453   14.3867
   12079.0000    7.1288   11.6201   14.3152
   12079.5000    5.7017    9.0988   11.6671
   12080.0000    5.1215    8.5323   10.1286
   12080.5000    5.1754    9.6968   10.8816
   12081.0000    4.5063    9.5089   10.8170
   12081.5000    3.6991    8.1948    9.3893
   12082.0000    3.1184    7.6034    7.9520
   12082.5000    2.6950    6.9891    7.0282
   12083.0000    2.4665    5.9492    6.4648
   12083.5000    2.3867    5.8887    6.1660
   12084.0000    2.5736    6.9041    6.7322
   12084.5000    3.0397    7.5823    8.1483
   12085.0000    3.6687    7.1706    9.0719
   12085.5000    4.3103    7.3153    9.0841
   12086.0000    4.6583    7.6110    8.8191
   12086.5000    4.6177    7.2212    8.2548
   12087.0000    4.4647    6.9252    7.4724
   12087.5000    4.5798    7.1560    7.0952
   12088.0000    4.8802    7.7900    7.1215
   12088.5000    5.1564    8.9052    7.5673
   12089.0000    5.7621   10.0031    9.0418
   12089.5000    6.5359   10.6041   10.9473
   12090.0000    7.0940   11.6586   12.4357
   12090.5000    7.6989   13.7366   13.9986
   12091.0000    8.1058   14.9512   15.0976
   12091.5000    7.9336   14.2018   14.5424
   12092.0000    7.0028   12.7727   12.2754
   12092.5000    6.0963   11.2327   10.7243
   12093.0000    5.7151   10.1573   10.3821
   12093.5000    5.6527    9.0937   10.3042
   12094.0000    5.2295    8.0577    9.1164
   12094.5000    4.9148    8.2992    8.5522
   12095.0000    5.3677   10.0254   10.0811
   12095.5000    6.0035   11.4573   11.7642
   12096.0000    5.7238   10.3293   10.4254
   12096.5000    5.0703    8.4276    8.5006
   12097.0000    4.9982    8.3808    8.6241
   12097.5000    5.6539    9.9093   10.4690
   12098.0000    5.9675   10.5441   11.1237
   12098.5000    5.6536   10.0418   10.4709
   12099.0000    5.6075    9.7562   10.1978
   12099.5000    5.7129    9.1821    9.6819
   12100.0000    5.5861    8.9659    9.0618
   12100.5000    5.6100    9.2728    8.8553
   12101.0000    5.8651    9.9734    8.7650
   12101.5000    6.4560   11.9315    9.2434
   12102.0000    7.6322   14.9361   10.9021
   12102.5000    9.2984   15.9102   13.3518
   12103.0000   10.6402   13.9981   16.6724
   12103.5000   11.5193   15.3068   19.7745
   12104.0000   13.4339   21.5128   22.3273
   12104.5000   14.8209   25.7450   20.3399
   12105.0000   14.5597   20.2764   17.0299
   12105.5000   15.4791   18.3233   21.2342
   12106.0000   16.4951   23.2363   33.5508
   12106.5000   16.1430   30.2083   35.5654
   12107.0000   15.5137   32.3916   31.7858
   12107.5000   16.0604   29.8212   30.2856
   12108.0000   16.2312   25.4883   32.8047
   12108.5000   15.7435   26.1335   35.7650
   12109.0000   16.8941   29.1613   37.7896
   12109.5000   19.6018   33.7532   40.9603
