~Version Information
 VERS.                  2.0:   CWLS log ASCII Standard -VERSION 2.0
 WRAP.                   NO:   One line per depth step
~Well Information Block
#MNEM.UNIT     VALUE/NAME     DESCRIPTION
#---------     -----------    ---------------------------
 STRT.F             10927.0000: START DEPTH
 STOP.F             12844.5000: STOP DEPTH
 STEP.F                 0.5000: STEP DEPTH
 NULL.               -999.2500: NULL VALUE
 API .                        :  API NUMBER
 CNTY.                        :  COUNTY
 COMP.                        :  COMPANY
 CTRY.                        :  COUNTRY
 DATE.                        :  DATE
 FLD .                        :  FIELD
 PROV.                        :  PROVINCE
 SRVC.             Halliburton:  SERVICE COMPANY
 STAT.                        :  STATE
 UWI .                        :  UNIQUE WELL IDENTIFIER
 WELL.                        :  WELL
 LOC .                        :  LOCATION
 TDL .ft           1374.671875:  TOTAL DEPTH (LOGGER)
~Parameter Information Block
#MNEM.UNIT       Value        Description
#---------     -----------    ---------------------------
 AV  .fpm           452.755920:  Ann Velocity 
 AVMX.fpm           511.811035:  Max Ann Veloc 
 AZIF.deg           237.779999:  Azm, Final 
 BHAT.        Rotary Steerable:  BHA Type 
 BROT.°/100'          0.030480:  Build Rotating 
 BS  .in              8.500000:  Bit Size 
 BSZ .in              8.500000:  Bit Size 
 BTPL.psig          511.000000:  Bit Press Loss 
 CABU.                      No:  Customer Abuse 
 CGEO.        Jonathan Randles:  Customer Geo 
 COMM.                     ä<]:  Run Comments 1 
 TCS .hr             63.500000:  Time Ciculation Ended 
 CV  .fpm           393.700806:  Crit Velocity 
 CVMX.fpm           393.700806:  Max Crit Veloc 
 DD1 .          Andrey Borodin:  Direct Drillr 1 
 DD2 .           Pierre Giroud:  Direct Drillr 2 
 DDSV.                 iCruise:  DD Service 
 DEFF.%              98.000000:  % Det Eff 
 DEVI.deg            89.040001:  InclinationUp 
 DEVI.deg            89.019997:  InclinationLow 
 DLRX.°/100'          8.818880:  Dogleg Rot Max 
 DLSO.°/100'          2.245360:  Dogleg Oriented 
 DLSX.°/100'          8.818880:  Dogleg Str Max 
 DRET.      01.05.00 01-Sep-21:  Drill End Time 
 DRST.      14.32.10 29-Aug-21:  Drill Start Tim 
 DTIM.hr             44.500000:  Time Drilling 
 EDEP.ft          13077.427734:  End Depth 
 ENG1.           Sergey Burkov:  Engineer 1 
 ENG2.         Ebenezer Parker:  Engineer 2 
 ENG3.            Gerald Natai:  Engineer 3 
 ENG4.         Victor Alvarado:  Engineer 4 
 ETIM.      01.05.00 02-Sep-21:  End Time 
 FLOI.gpm           629.930054:  Flow In 
 FLON.gpm           600.000000:  Flow In Min 
 FLOS.mptm            3.200000:  Fluid Loss 
 FLOX.gpm           650.000000:  Flow In Max 
 HAZI.deg           236.610001:  AzimuthLower 
 HAZI.deg           238.050003:  AzimuthUpper 
 HPRE.                      No:  High Pressure 
 HYDO.ft              0.000000:  Hydro Offset 
 IFIN.deg            91.870003:  Inc, Final 
 IMAX.deg            92.339996:  Inc Max 
 IMIN.deg            84.989998:  Inc Min 
 IMND.ft          12906.824219:  Inc Min Depth 
 IMXD.ft          11745.407227:  Inc Max Depth 
 JARR.                      No:  Jarring 
 LETM.      01.05.00 01-Sep-21:  Log End Time 
 LOST.hr                     0:  Lost Rig Time 
 LSTM.      14.32.10 28-Aug-21:  Log Start Time 
 MDCL.ppm         60000.000000:  Mud Chlorides 
 MDES.             Fresh Water:  Mud Desc 
 DFD .ppg             9.638940:  Mud Density 
 MDMN.ppg             9.597213:  Dens Mud Min 
 MDMX.ppg             9.680667:  Dens Mud Max 
 PH  .pH              9.900000:  Mud pH 
 MOIL.                    0.00:  Run Mud Oil % 
 MSND.                    0.20:  Run Mud Sand % 
 MSOL.                     4.3:  Run Mud Solids% 
 DFV .spqt           47.000000:  Mud Viscosity 
 MWOD.in              6.750000:  MWD Tool OD 
 MWSI.                      No:  Serv Intrp, MWD 
 ORV1.deg             0.000000:  Orientation 1 
 ORV2.deg             0.000000:  Orientation 2 
 OTIM.hr            111.000000:  Time Operating 
 PMAX.psia         9168.941406:  Press Op, Max 
 PV  .cP             12.000000:  Mud PV 
 RMS .ohmm            0.085000:  Mud Resistivity 
 RMCS.ohmm            0.095000:  Mud Cake Resistivity 
 MCST.degF           80.959999:  Mud Cake Sample Temperature 
 RMFS.ohmm            0.080000:  Mud Filtrate Resistivity 
 RMFT.degF           80.959999:  Mud Filtrate Sample Temperature 
 RMMT.ohmm            0.192300:  Rm @ Max Temp 
 MST .degF           80.959999:  Mud Sample Temperature 
 RUN .                     600:  Run Number 
 ROP .fph             0.000000:  ROP Orient Avg 
 ROP .fph            43.143044:  ROP Rot Avg 
 ROPA.fph            43.143044:  ROP Avg 
 ROPN.fph            33.628609:  ROP Min 
 ROPX.fph            44.291336:  ROP Max 
 RPMA.rpm           173.389999:  RPM Surface Avg 
 RPMN.rpm           155.000000:  RPM Surface Min 
 RPMX.rpm           180.000000:  RPM Surface Max 
 RRUN.                     600:  Rig Run Number 
 RTIM.hr             10.500000:  Time Reaming 
 SAZI.deg           236.539993:  Azm, Start 
 SDEP.ft          11158.136719:  Start Depth 
 SDL1.          Christina Sava:  SDL Engineer 1 
 SDL2.         Mohamed Gharieb:  SDL Engineer 2 
 SIDD.                      No:  Serv Intrp, DD 
 SINC.deg            88.860001:  Inc, Start 
 SPPA.psig         2398.194824:  SPP Avg 
 SPPN.psig         2199.985840:  SPP Min 
 SPPX.psig         2519.983887:  SPP Max 
 STIM.      05.37.03 29-Aug-21:  Start Time 
 SVER.                9.200000:  Sperry Version 
 TDAT.ft          11158.136719:  Tot Depth Attmp 
 TDDF.                      No:  Trip for DD 
 TDLG.ft           1374.671875:  Tot Depth Loggd 
 TFF .                      No:  Trip for Fail 
 TQAA.f-p         20745.179688:  Torque Abs Avg 
 TQAN.f-p         17000.000000:  Torque Abs Min 
 TQAX.f-p         25000.000000:  Torque Abs Max 
 TRRT.°/100'          0.081280:  Turn Rotating 
 MRT .                     PWD:  Maximum Recorded Temperature 
 TTMX.degF          102.199997:  Max Tool Temp 
 VS01.                90642082:  Virtual Str1 SN 
 VS02.                90641410:  Virtual Str2 SN 
 VS03.                90645759:  Virtual Str3 SN 
 VS04.                90645758:  Virtual Str4 SN 
 VS05.                90645760:  Virtual Str5 SN 
 VS06.                90641262:  Virtual Str6 SN 
 VS07.                90647660:  Virtual Str7 SN 
 VS08.                13098488:  Virtual Str8 SN 
 VS09.                90642211:  Virtual Str9 SN 
 WBMN.klb             7.000000:  WOB Min 
 WITN.              Johan Roos:  Customer Rep 
 WITN.           Danial Jacobs:  Customer Rep 2 
 WOBA.klb            16.770000:  WOB Avg 
 WOBX.klb            25.000000:  WOB Max 
 YP  .lhf2           20.000000:  Yield Point 
~Curve Information Block
#MNEM.UNIT                 API CODE     Curve Description
#---------               -----------    ---------------------------
 DEPT.F                 00 000 000 000:  Depth
 AFRSAC.ohmm            00 000 000 000:  AFR Shallow Avg Res BC
 AFRMAC.ohmm            00 000 000 000:  AFR Medium Avg Res BC
 AFRDAC.ohmm            00 000 000 000:  AFR Deep Avg Res BC
#Other Information
#
#WARRANTY: Halliburton will use its best efforts to furnish customers with 
#accurate information and interpretations that are part of, and incident to, the services 
#provided.  However, Halliburton cannot and does not warrant the accuracy 
#or correctness of such information and interpretations.  Under no circumstances should any 
#such information or interpretation be relied upon as the sole basis for any drilling, 
#completion, production, or financial decision or any procedure involving any risk to the 
#safety of any drilling venture, drilling rig or its crew or any other third party.  The 
#Customer has full responsibility for all drilling, completion and production operation.  
#Halliburton makes no representations or warranties, either expressed or 
#implied, including, but not limited to, the implied warranties of merchantability or fitness 
#for a particular purpose, with respect to the services rendered.  In no event will 
#Halliburton be liable for failure to obtain any particular results or for 
#any damages, including, but not limited to, indirect, special or consequential damages, 
#resulting from the use of any information or interpretation provided by Halliburton.
#
~A    DEPT     AFRSAC    AFRMAC    AFRDAC   
# ...
   12656.0000    9.6620   95.7131   83.9828
   12656.5000    9.7954   95.4125   84.1392
   12657.0000    9.8812   95.2818   84.2687
   12657.5000    9.8136   95.1219   83.9461
   12658.0000    9.8755   92.5871   81.5397
   12658.5000    9.9130   92.5086   81.3061
   12659.0000    9.9784   94.6146   82.9745
   12659.5000   10.1823   94.6411   82.7871
   12660.0000   10.3293   95.3053   83.1911
   12660.5000   10.4395   96.2255   84.4898
   12661.0000   10.5696   94.7374   83.7774
   12661.5000   10.6859   94.4465   83.5256
   12662.0000   10.7753   95.6807   84.1179
   12662.5000   10.8493   96.0283   83.8522
   12663.0000   10.8414   94.9228   82.8285
   12663.5000   10.8707   93.9014   81.9517
   12664.0000   11.0195   89.7821   78.3035
   12664.5000   11.0236   81.0268   69.7518
   12665.0000   11.0653   81.3086   68.8846
   12665.5000   11.3534   89.5421   76.5490
   12666.0000   11.3410   91.5833   79.9489
   12666.5000   11.2534   90.6377   79.3204
   12667.0000   11.4546   89.7758   78.5205
   12667.5000   11.4755   88.5194   75.6967
   12668.0000   11.2552   83.0947   68.7731
   12668.5000   11.0621   72.9966   59.4842
   12669.0000   10.8487   63.5386   52.5387
   12669.5000   10.6128   58.2240   48.9398
   12670.0000   10.5885   59.4580   49.2659
   12670.5000   10.7669   65.5412   53.9973
   12671.0000   11.1049   72.9522   61.3973
   12671.5000   11.5507   79.3362   68.4717
   12672.0000   11.5949   86.6992   76.2738
   12672.5000   11.2607   92.9721   82.2058
   12673.0000   10.9648   94.8613   83.6078
   12673.5000   10.6767   94.4200   83.1257
   12674.0000   10.3941   94.2402   82.5822
   12674.5000   10.2982   94.0605   81.9873
   12675.0000   10.4788   93.9250   81.8701
   12675.5000   10.6146   92.9457   81.1792
   12676.0000   10.5074   91.2680   79.9990
   12676.5000   10.4479   91.7739   80.6416
   12677.0000   10.2400   93.7509   82.5498
   12677.5000    9.8716   93.5017   82.4191
   12678.0000    9.6859   92.6680   81.3257
   12678.5000    9.6658   92.5978   81.1125
   12679.0000    9.6421   91.0659   80.4536
   12679.5000    9.7024   90.6026   79.9277
   12680.0000    9.8936   91.9973   80.1990
   12680.5000   10.0028   93.1455   81.1842
   12681.0000   10.0239   94.2261   82.2589
   12681.5000   10.1155   93.8857   81.8531
   12682.0000   10.2538   93.0002   81.0516
   12682.5000   10.4852   92.6154   80.5206
   12683.0000   10.6881   92.8139   80.6183
   12683.5000   10.6782   92.5870   80.9314
   12684.0000   10.6232   92.2379   80.7256
   12684.5000   10.6144   91.7052   79.9540
   12685.0000   10.6218   91.3374   79.9358
   12685.5000   10.6959   92.0463   80.4957
   12686.0000   10.7853   91.8281   79.9041
   12686.5000   10.6984   90.5602   78.8056
   12687.0000   10.4765   89.7594   78.4319
   12687.5000   10.3559   90.5704   79.1953
   12688.0000   10.3251   92.2735   80.2750
   12688.5000   10.1940   92.0228   79.9819
   12689.0000    9.8838   90.3283   78.6119
   12689.5000    9.6676   87.9543   76.5337
   12690.0000    9.6191   87.5833   75.7595
   12690.5000    9.6240   89.5100   77.6711
   12691.0000    9.7231   89.2368   78.2659
   12691.5000    9.8333   88.0174   77.0093
   12692.0000    9.8181   86.7765   75.6018
   12692.5000    9.8843   85.2439   74.7445
   12693.0000   10.0211   84.2103   74.4025
   12693.5000   10.1758   82.8814   73.3420
   12694.0000   10.2907   80.7773   71.5025
   12694.5000   10.2717   79.3309   69.8453
   12695.0000    9.9879   78.3604   68.8212
   12695.5000    9.5817   75.7912   66.8559
   12696.0000    9.1966   73.6506   65.1958
   12696.5000    8.8678   73.8634   65.5321
   12697.0000    8.6819   74.4021   66.0053
   12697.5000    8.5837   74.4037   65.9172
   12698.0000    8.5351   74.0080   65.4153
   12698.5000    8.5493   71.6116   63.0706
   12699.0000    8.4878   68.9646   60.8846
   12699.5000    8.3780   68.8305   60.7743
   12700.0000    8.4563   68.1370   59.6677
   12700.5000    8.5387   67.6502   58.0776
   12701.0000    8.3980   70.6049   59.8146
   12701.5000    8.4700   72.0938   61.9475
   12702.0000    8.8047   71.8974   62.7959
   12702.5000    9.1279   72.7102   63.5417
   12703.0000    9.5002   72.4541   63.0546
   12703.5000    9.8192   70.7361   61.9010
   12704.0000    9.8874   69.1784   60.7189
   12704.5000    9.7080   67.5295   59.1367
   12705.0000    9.5101   65.4915   56.9991
   12705.5000    9.4223   64.5329   56.0239
   12706.0000    9.5349   65.6226   56.9529
   12706.5000    9.7487   65.1099   56.3441
   12707.0000    9.9013   61.7356   53.3392
   12707.5000   10.0141   59.0952   51.2427
   12708.0000   10.0825   58.3325   50.7158
   12708.5000   10.1244   57.6507   50.0678
   12709.0000   10.2237   56.2932   48.9778
   12709.5000   10.4473   54.9638   47.8451
   12710.0000   10.5548   51.7431   44.4896
   12710.5000   10.2346   45.4904   37.8236
   12711.0000    9.7975   42.3023   35.0752
   12711.5000    9.2730   42.0807   35.8544
   12712.0000    8.8504   42.6875   36.8169
   12712.5000    8.7213   43.5430   37.7799
   12713.0000    8.5210   43.6737   38.4170
   12713.5000    8.3256   42.7675   37.9343
   12714.0000    8.3270   42.0230   37.5063
   12714.5000    8.3136   41.9769   37.5801
   12715.0000    8.5148   42.4945   38.0820
   12715.5000    9.1641   42.3983   37.5862
   12716.0000    9.9848   38.2309   33.0800
   12716.5000   10.5196   34.7955   30.3199
   12717.0000   10.5242   35.4594   31.7202
   12717.5000   10.2314   37.9179   33.6384
   12718.0000    9.6821   39.1419   34.6858
   12718.5000    9.1245   37.0998   33.2261
   12719.0000    8.8758   32.9820   29.2635
   12719.5000    8.8147   29.4159   26.0575
   12720.0000    8.8720   27.4727   24.8976
   12720.5000    9.1443   27.4242   25.1601
   12721.0000    9.2576   27.1572   24.9617
   12721.5000    9.0497   25.0876   23.2796
   12722.0000    8.9132   23.4177   21.7464
   12722.5000    9.1702   24.2089   22.5936
   12723.0000    9.2612   24.4507   23.2821
   12723.5000    8.8808   22.9138   21.8905
   12724.0000    8.2043   21.2641   20.3298
   12724.5000    7.3632   19.5597   19.1178
   12725.0000    6.5615   17.6173   17.7642
   12725.5000    5.9225   16.0601   16.4869
   12726.0000    5.4691   14.9609   15.6416
   12726.5000    5.1121   13.8942   14.8909
   12727.0000    4.8211   12.9451   13.9756
   12727.5000    4.6080   12.4122   13.2525
   12728.0000    4.4081   11.9965   12.7515
   12728.5000    4.2807   11.6394   12.4395
   12729.0000    4.2664   11.5520   12.4285
   12729.5000    4.3714   11.7638   12.7045
   12730.0000    4.5330   11.8325   12.8427
   12730.5000    4.6664   11.5961   12.6930
   12731.0000    4.8159   11.3575   12.5597
   12731.5000    4.9088   11.0584   12.2861
   12732.0000    5.0411   11.0314   12.1717
   12732.5000    5.2657   11.3145   12.3800
   12733.0000    5.4830   11.5698   12.5695
   12733.5000    5.5679   11.5259   12.4602
   12734.0000    5.5099   11.1267   12.0523
   12734.5000    5.4813   10.9149   11.8055
   12735.0000    5.5598   11.0722   11.9229
   12735.5000    5.6906   11.2088   12.0821
   12736.0000    5.7528   11.1716   11.8844
   12736.5000    5.7040   10.8460   11.5299
   12737.0000    5.6289   10.4836   11.3971
   12737.5000    5.6216   10.6828   11.5889
   12738.0000    5.7646   11.1207   11.9484
   12738.5000    5.9141   11.2155   12.0953
   12739.0000    5.9642   11.0646   12.0135
   12739.5000    5.8562   10.6707   11.6823
   12740.0000    5.6764   10.2465   11.2309
   12740.5000    5.5256   10.0208   10.8631
   12741.0000    5.5333   10.0633   10.8668
   12741.5000    5.5634   10.1559   10.9773
   12742.0000    5.6032   10.1586   11.0483
   12742.5000    5.6213   10.2227   10.9674
   12743.0000    5.5487   10.2933   10.6726
   12743.5000    5.4907   10.0659   10.4113
   12744.0000    5.4691    9.8234   10.2438
   12744.5000    5.4752    9.8714   10.2092
   12745.0000    5.5202    9.9700   10.1702
   12745.5000    5.5608    9.8382    9.9824
   12746.0000    5.6503    9.7272    9.9237
   12746.5000    5.8697   10.0176   10.2193
