~Version Information
 VERS.                  2.0:   CWLS log ASCII Standard -VERSION 2.0
 WRAP.                   NO:   One line per depth step
~Well Information Block
#MNEM.UNIT     VALUE/NAME     DESCRIPTION
#---------     -----------    ---------------------------
 STRT.F             10927.0000: START DEPTH
 STOP.F             12844.5000: STOP DEPTH
 STEP.F                 0.5000: STEP DEPTH
 NULL.               -999.2500: NULL VALUE
 API .                        :  API NUMBER
 CNTY.                        :  COUNTY
 COMP.                        :  COMPANY
 CTRY.                        :  COUNTRY
 DATE.                        :  DATE
 FLD .                        :  FIELD
 PROV.                        :  PROVINCE
 SRVC.             Halliburton:  SERVICE COMPANY
 STAT.                        :  STATE
 UWI .                        :  UNIQUE WELL IDENTIFIER
 WELL.                        :  WELL
 LOC .                        :  LOCATION
 TDL .ft           1374.671875:  TOTAL DEPTH (LOGGER)
~Parameter Information Block
#MNEM.UNIT       Value        Description
#---------     -----------    ---------------------------
 AV  .fpm           452.755920:  Ann Velocity 
 AVMX.fpm           511.811035:  Max Ann Veloc 
 AZIF.deg           237.779999:  Azm, Final 
 BHAT.        Rotary Steerable:  BHA Type 
 BROT.°/100'          0.030480:  Build Rotating 
 BS  .in              8.500000:  Bit Size 
 BSZ .in              8.500000:  Bit Size 
 BTPL.psig          511.000000:  Bit Press Loss 
 CABU.                      No:  Customer Abuse 
 CGEO.        Jonathan Randles:  Customer Geo 
 COMM.                     ä<]:  Run Comments 1 
 TCS .hr             63.500000:  Time Ciculation Ended 
 CV  .fpm           393.700806:  Crit Velocity 
 CVMX.fpm           393.700806:  Max Crit Veloc 
 DD1 .          Andrey Borodin:  Direct Drillr 1 
 DD2 .           Pierre Giroud:  Direct Drillr 2 
 DDSV.                 iCruise:  DD Service 
 DEFF.%              98.000000:  % Det Eff 
 DEVI.deg            89.040001:  InclinationUp 
 DEVI.deg            89.019997:  InclinationLow 
 DLRX.°/100'          8.818880:  Dogleg Rot Max 
 DLSO.°/100'          2.245360:  Dogleg Oriented 
 DLSX.°/100'          8.818880:  Dogleg Str Max 
 DRET.      01.05.00 01-Sep-21:  Drill End Time 
 DRST.      14.32.10 29-Aug-21:  Drill Start Tim 
 DTIM.hr             44.500000:  Time Drilling 
 EDEP.ft          13077.427734:  End Depth 
 ENG1.           Sergey Burkov:  Engineer 1 
 ENG2.         Ebenezer Parker:  Engineer 2 
 ENG3.            Gerald Natai:  Engineer 3 
 ENG4.         Victor Alvarado:  Engineer 4 
 ETIM.      01.05.00 02-Sep-21:  End Time 
 FLOI.gpm           629.930054:  Flow In 
 FLON.gpm           600.000000:  Flow In Min 
 FLOS.mptm            3.200000:  Fluid Loss 
 FLOX.gpm           650.000000:  Flow In Max 
 HAZI.deg           236.610001:  AzimuthLower 
 HAZI.deg           238.050003:  AzimuthUpper 
 HPRE.                      No:  High Pressure 
 HYDO.ft              0.000000:  Hydro Offset 
 IFIN.deg            91.870003:  Inc, Final 
 IMAX.deg            92.339996:  Inc Max 
 IMIN.deg            84.989998:  Inc Min 
 IMND.ft          12906.824219:  Inc Min Depth 
 IMXD.ft          11745.407227:  Inc Max Depth 
 JARR.                      No:  Jarring 
 LETM.      01.05.00 01-Sep-21:  Log End Time 
 LOST.hr                     0:  Lost Rig Time 
 LSTM.      14.32.10 28-Aug-21:  Log Start Time 
 MDCL.ppm         60000.000000:  Mud Chlorides 
 MDES.             Fresh Water:  Mud Desc 
 DFD .ppg             9.638940:  Mud Density 
 MDMN.ppg             9.597213:  Dens Mud Min 
 MDMX.ppg             9.680667:  Dens Mud Max 
 PH  .pH              9.900000:  Mud pH 
 MOIL.                    0.00:  Run Mud Oil % 
 MSND.                    0.20:  Run Mud Sand % 
 MSOL.                     4.3:  Run Mud Solids% 
 DFV .spqt           47.000000:  Mud Viscosity 
 MWOD.in              6.750000:  MWD Tool OD 
 MWSI.                      No:  Serv Intrp, MWD 
 ORV1.deg             0.000000:  Orientation 1 
 ORV2.deg             0.000000:  Orientation 2 
 OTIM.hr            111.000000:  Time Operating 
 PMAX.psia         9168.941406:  Press Op, Max 
 PV  .cP             12.000000:  Mud PV 
 RMS .ohmm            0.085000:  Mud Resistivity 
 RMCS.ohmm            0.095000:  Mud Cake Resistivity 
 MCST.degF           80.959999:  Mud Cake Sample Temperature 
 RMFS.ohmm            0.080000:  Mud Filtrate Resistivity 
 RMFT.degF           80.959999:  Mud Filtrate Sample Temperature 
 RMMT.ohmm            0.192300:  Rm @ Max Temp 
 MST .degF           80.959999:  Mud Sample Temperature 
 RUN .                     600:  Run Number 
 ROP .fph             0.000000:  ROP Orient Avg 
 ROP .fph            43.143044:  ROP Rot Avg 
 ROPA.fph            43.143044:  ROP Avg 
 ROPN.fph            33.628609:  ROP Min 
 ROPX.fph            44.291336:  ROP Max 
 RPMA.rpm           173.389999:  RPM Surface Avg 
 RPMN.rpm           155.000000:  RPM Surface Min 
 RPMX.rpm           180.000000:  RPM Surface Max 
 RRUN.                     600:  Rig Run Number 
 RTIM.hr             10.500000:  Time Reaming 
 SAZI.deg           236.539993:  Azm, Start 
 SDEP.ft          11158.136719:  Start Depth 
 SDL1.          Christina Sava:  SDL Engineer 1 
 SDL2.         Mohamed Gharieb:  SDL Engineer 2 
 SIDD.                      No:  Serv Intrp, DD 
 SINC.deg            88.860001:  Inc, Start 
 SPPA.psig         2398.194824:  SPP Avg 
 SPPN.psig         2199.985840:  SPP Min 
 SPPX.psig         2519.983887:  SPP Max 
 STIM.      05.37.03 29-Aug-21:  Start Time 
 SVER.                9.200000:  Sperry Version 
 TDAT.ft          11158.136719:  Tot Depth Attmp 
 TDDF.                      No:  Trip for DD 
 TDLG.ft           1374.671875:  Tot Depth Loggd 
 TFF .                      No:  Trip for Fail 
 TQAA.f-p         20745.179688:  Torque Abs Avg 
 TQAN.f-p         17000.000000:  Torque Abs Min 
 TQAX.f-p         25000.000000:  Torque Abs Max 
 TRRT.°/100'          0.081280:  Turn Rotating 
 MRT .                     PWD:  Maximum Recorded Temperature 
 TTMX.degF          102.199997:  Max Tool Temp 
 VS01.                90642082:  Virtual Str1 SN 
 VS02.                90641410:  Virtual Str2 SN 
 VS03.                90645759:  Virtual Str3 SN 
 VS04.                90645758:  Virtual Str4 SN 
 VS05.                90645760:  Virtual Str5 SN 
 VS06.                90641262:  Virtual Str6 SN 
 VS07.                90647660:  Virtual Str7 SN 
 VS08.                13098488:  Virtual Str8 SN 
 VS09.                90642211:  Virtual Str9 SN 
 WBMN.klb             7.000000:  WOB Min 
 WITN.              Johan Roos:  Customer Rep 
 WITN.           Danial Jacobs:  Customer Rep 2 
 WOBA.klb            16.770000:  WOB Avg 
 WOBX.klb            25.000000:  WOB Max 
 YP  .lhf2           20.000000:  Yield Point 
~Curve Information Block
#MNEM.UNIT                 API CODE     Curve Description
#---------               -----------    ---------------------------
 DEPT.F                 00 000 000 000:  Depth
 AFRSAC.ohmm            00 000 000 000:  AFR Shallow Avg Res BC
 AFRMAC.ohmm            00 000 000 000:  AFR Medium Avg Res BC
 AFRDAC.ohmm            00 000 000 000:  AFR Deep Avg Res BC
#Other Information
#
#WARRANTY: Halliburton will use its best efforts to furnish customers with 
#accurate information and interpretations that are part of, and incident to, the services 
#provided.  However, Halliburton cannot and does not warrant the accuracy 
#or correctness of such information and interpretations.  Under no circumstances should any 
#such information or interpretation be relied upon as the sole basis for any drilling, 
#completion, production, or financial decision or any procedure involving any risk to the 
#safety of any drilling venture, drilling rig or its crew or any other third party.  The 
#Customer has full responsibility for all drilling, completion and production operation.  
#Halliburton makes no representations or warranties, either expressed or 
#implied, including, but not limited to, the implied warranties of merchantability or fitness 
#for a particular purpose, with respect to the services rendered.  In no event will 
#Halliburton be liable for failure to obtain any particular results or for 
#any damages, including, but not limited to, indirect, special or consequential damages, 
#resulting from the use of any information or interpretation provided by Halliburton.
#
~A    DEPT     AFRSAC    AFRMAC    AFRDAC   
   10927.0000    2.7471    7.6500   15.8918
   10927.5000    2.7361    7.6265   15.6323
   10928.0000    2.7217    7.5075   15.4615
   10928.5000    2.6925    7.4939   15.4495
   10929.0000    2.6226    7.6028   16.0237
   10929.5000    2.5284    7.8783   17.0599
   10930.0000    2.4660    8.3904   17.8155
   10930.5000    2.4144    8.6649   18.0388
   10931.0000    2.3548    8.6716   17.8004
   10931.5000    2.2668    8.6859   16.8957
   10932.0000    2.2019    8.4422   16.0821
   10932.5000    2.1659    8.0088   15.2913
   10933.0000    2.1540    7.7033   14.6966
   10933.5000    2.2078    7.7497   15.0392
   10934.0000    2.3520    8.1819   16.5986
   10934.5000    2.5169    8.6776   18.6804
   10935.0000    2.6614    8.9745   20.3716
   10935.5000    2.7400    9.2018   21.6592
   10936.0000    2.6375    9.5837   21.6237
   10936.5000    2.3920    9.2691   19.6941
   10937.0000    2.2041    8.3034   17.9316
   10937.5000    2.1586    7.7252   17.2796
   10938.0000    2.1676    7.9024   17.0537
   10938.5000    2.1450    8.1300   17.3398
   10939.0000    2.0647    8.1081   18.1672
   10939.5000    1.9908    8.2347   19.2076
   10940.0000    1.9658    8.4269   20.0721
   10940.5000    1.9617    8.4300   20.1735
   10941.0000    1.9558    8.2798   19.7206
   10941.5000    1.9517    8.1721   19.3557
   10942.0000    1.9355    8.2653   19.3055
   10942.5000    1.9407    8.5146   19.6525
   10943.0000    1.9873    8.6582   20.3605
   10943.5000    2.0146    8.5202   20.8578
   10944.0000    1.9715    8.1317   20.6427
   10944.5000    1.9403    7.9236   20.6494
   10945.0000    1.9599    8.2501   21.3444
   10945.5000    1.9500    8.7888   21.6019
   10946.0000    1.8889    8.9292   20.7046
   10946.5000    1.8210    8.5868   19.3019
   10947.0000    1.7924    8.1141   18.4496
   10947.5000    1.8202    7.9489   18.6313
   10948.0000    1.9052    8.2412   19.6940
   10948.5000    2.0436    8.7062   21.1338
   10949.0000    2.1960    8.9843   22.3745
   10949.5000    2.3424    9.1334   23.3449
   10950.0000    2.4369    9.2101   23.6450
   10950.5000    2.3853    8.8480   22.2918
   10951.0000    2.2339    8.1603   20.0349
   10951.5000    2.1275    7.6879   18.5061
   10952.0000    2.0480    7.4318   17.5547
   10952.5000    1.9836    7.3369   16.9792
   10953.0000    1.9467    7.3072   16.6296
   10953.5000    1.9569    7.2989   16.4543
   10954.0000    2.0204    7.3681   16.5625
   10954.5000    2.1187    7.4870   16.7906
   10955.0000    2.2038    7.4679   16.7000
   10955.5000    2.2949    7.3755   16.6643
   10956.0000    2.3938    7.3472   16.8895
   10956.5000    2.4511    7.3084   16.9523
   10957.0000    2.5386    7.4877   17.2360
   10957.5000    2.6850    8.0659   17.9654
   10958.0000    2.8074    8.5765   18.5373
   10958.5000    2.8100    8.5702   18.2964
   10959.0000    2.6573    8.1554   17.3075
   10959.5000    2.4367    7.6963   16.1823
   10960.0000    2.2698    7.3758   15.5523
   10960.5000    2.2190    7.5241   15.9337
   10961.0000    2.2452    8.0533   16.8764
   10961.5000    2.2886    8.4518   17.4123
   10962.0000    2.3179    8.4823   17.3630
   10962.5000    2.3259    8.3848   17.1852
   10963.0000    2.3049    8.3134   17.0795
   10963.5000    2.2836    8.2815   17.0120
   10964.0000    2.2989    8.2670   17.0859
   10964.5000    2.3411    8.3053   17.5126
   10965.0000    2.3977    8.4902   18.6350
   10965.5000    2.4654    8.8070   20.4441
   10966.0000    2.5004    9.1390   22.2815
   10966.5000    2.4676    9.2840   23.2505
   10967.0000    2.4067    9.1200   23.0243
   10967.5000    2.3875    9.0405   22.4847
   10968.0000    2.3744    9.1115   21.6124
   10968.5000    2.3299    9.0763   20.3117
   10969.0000    2.3027    9.1149   19.6783
   10969.5000    2.2898    9.1261   19.6029
   10970.0000    2.2189    8.7713   19.1751
   10970.5000    2.1596    8.6465   19.3486
   10971.0000    2.2020    9.2488   21.2950
   10971.5000    2.2709    9.9907   24.1441
   10972.0000    2.2857   10.2961   26.1551
   10972.5000    2.2489   10.1633   26.6457
   10973.0000    2.2005    9.8481   26.2864
   10973.5000    2.1934    9.7996   26.0962
   10974.0000    2.2206   10.0199   26.0026
   10974.5000    2.2588   10.1263   25.3725
   10975.0000    2.2903    9.8779   23.9397
   10975.5000    2.2802    9.1951   22.1045
   10976.0000    2.2810    8.6219   21.1669
   10976.5000    2.3428    8.6733   21.5830
   10977.0000    2.4120    9.1743   22.5860
   10977.5000    2.4322    9.6094   23.3925
   10978.0000    2.4156    9.6979   23.6012
   10978.5000    2.3750    9.4282   22.9457
   10979.0000    2.3364    9.1606   22.0327
   10979.5000    2.3426    9.1660   21.5198
   10980.0000    2.3658    9.2299   21.0581
   10980.5000    2.3990    9.2281   20.5729
   10981.0000    2.4667    9.0631   20.0801
   10981.5000    2.5819    8.8524   19.7918
   10982.0000    2.7479    8.8638   20.0473
   10982.5000    3.0624    9.4184   21.3791
   10983.0000    3.5251   10.5421   23.9280
   10983.5000    3.8613   11.2802   26.3423
   10984.0000    3.9993   11.0706   27.3554
   10984.5000    4.1322   10.9053   27.6283
   10985.0000    4.2175   11.0480   27.1645
   10985.5000    4.4561   11.8789   27.8608
   10986.0000    4.8950   13.9860   29.9762
   10986.5000    4.8393   14.7042   28.0378
   10987.0000    4.1059   11.8571   21.8639
   10987.5000    3.6890   10.3089   19.1201
   10988.0000    3.8118   11.0577   21.3335
   10988.5000    4.0097   12.1669   25.9676
   10989.0000    3.9848   12.8824   29.6759
   10989.5000    3.9885   13.8843   33.3536
   10990.0000    3.9159   14.3348   35.8929
   10990.5000    3.5756   13.5428   33.8793
   10991.0000    3.0087   11.4328   27.5904
   10991.5000    2.5862    9.6420   22.0882
   10992.0000    2.4036    8.8931   19.6824
   10992.5000    2.3110    8.7930   19.4858
   10993.0000    2.3066    9.1810   20.7912
   10993.5000    2.4026    9.9511   22.8325
   10994.0000    2.4904   10.5345   24.2497
   10994.5000    2.5383   10.4925   24.5141
   10995.0000    2.5465    9.7229   23.5060
   10995.5000    2.5180    8.6236   21.2121
   10996.0000    2.4869    7.9741   18.8993
   10996.5000    2.5721    8.1352   18.5318
   10997.0000    2.7356    8.9110   20.2570
   10997.5000    2.7916    9.5981   21.8889
   10998.0000    2.7015    9.5564   21.7145
   10998.5000    2.5714    9.0327   20.8310
   10999.0000    2.4572    8.5898   20.1573
   10999.5000    2.3704    8.3213   19.5098
   11000.0000    2.2996    8.0378   18.5470
   11000.5000    2.2447    7.7992   17.5006
   11001.0000    2.2386    7.8371   17.2975
   11001.5000    2.3004    8.1918   18.4204
   11002.0000    2.3796    8.5753   19.9200
   11002.5000    2.3781    8.5238   20.2720
   11003.0000    2.3366    8.2672   19.9927
   11003.5000    2.3485    8.2483   20.1610
   11004.0000    2.3632    8.3210   20.2591
   11004.5000    2.3500    8.3383   19.9392
   11005.0000    2.3061    8.2729   19.2245
   11005.5000    2.2370    8.1034   18.4141
   11006.0000    2.1749    7.9912   17.9515
   11006.5000    2.1456    8.0358   17.9292
   11007.0000    2.1584    8.1228   18.2187
   11007.5000    2.2146    8.1618   18.5833
   11008.0000    2.3051    8.1676   18.8889
   11008.5000    2.4085    8.1875   19.2134
   11009.0000    2.5429    8.3954   19.8306
   11009.5000    2.6582    8.6078   20.2237
   11010.0000    2.6726    8.4861   19.6139
   11010.5000    2.6114    8.1679   18.4396
   11011.0000    2.5500    7.9469   17.6982
   11011.5000    2.5138    7.9040   17.7856
   11012.0000    2.5091    8.0312   18.4154
   11012.5000    2.5508    8.2545   19.3141
   11013.0000    2.6395    8.6030   20.2373
   11013.5000    2.7855    9.1896   21.2392
   11014.0000    2.9947    9.9572   22.4217
   11014.5000    3.1834   10.3602   22.7687
   11015.0000    3.2746   10.0988   21.5431
   11015.5000    3.2776    9.5113   19.6643
   11016.0000    3.3491    9.3759   18.9889
   11016.5000    3.6215   10.1157   20.3190
   11017.0000    3.9697   11.1929   22.4093
   11017.5000    4.1495   11.8148   23.4407
