~Version Information
 VERS.                  2.0:   CWLS log ASCII Standard -VERSION 2.0
 WRAP.                   NO:   One line per depth step
~Well Information Block
#MNEM.UNIT     VALUE/NAME     DESCRIPTION
#---------     -----------    ---------------------------
 STRT.F             10927.0000: START DEPTH
 STOP.F             12844.5000: STOP DEPTH
 STEP.F                 0.5000: STEP DEPTH
 NULL.               -999.2500: NULL VALUE
 API .                        :  API NUMBER
 CNTY.                        :  COUNTY
 COMP.                        :  COMPANY
 CTRY.                        :  COUNTRY
 DATE.                        :  DATE
 FLD .                        :  FIELD
 PROV.                        :  PROVINCE
 SRVC.             Halliburton:  SERVICE COMPANY
 STAT.                        :  STATE
 UWI .                        :  UNIQUE WELL IDENTIFIER
 WELL.                        :  WELL
 LOC .                        :  LOCATION
 TDL .ft           1374.671875:  TOTAL DEPTH (LOGGER)
~Parameter Information Block
#MNEM.UNIT       Value        Description
#---------     -----------    ---------------------------
 AV  .fpm           452.755920:  Ann Velocity 
 AVMX.fpm           511.811035:  Max Ann Veloc 
 AZIF.deg           237.779999:  Azm, Final 
 BHAT.        Rotary Steerable:  BHA Type 
 BROT.°/100'          0.030480:  Build Rotating 
 BS  .in              8.500000:  Bit Size 
 BSZ .in              8.500000:  Bit Size 
 BTPL.psig          511.000000:  Bit Press Loss 
 CABU.                      No:  Customer Abuse 
 CGEO.        Jonathan Randles:  Customer Geo 
 COMM.                     ä<]:  Run Comments 1 
 TCS .hr             63.500000:  Time Ciculation Ended 
 CV  .fpm           393.700806:  Crit Velocity 
 CVMX.fpm           393.700806:  Max Crit Veloc 
 DD1 .          Andrey Borodin:  Direct Drillr 1 
 DD2 .           Pierre Giroud:  Direct Drillr 2 
 DDSV.                 iCruise:  DD Service 
 DEFF.%              98.000000:  % Det Eff 
 DEVI.deg            89.040001:  InclinationUp 
 DEVI.deg            89.019997:  InclinationLow 
 DLRX.°/100'          8.818880:  Dogleg Rot Max 
 DLSO.°/100'          2.245360:  Dogleg Oriented 
 DLSX.°/100'          8.818880:  Dogleg Str Max 
 DRET.      01.05.00 01-Sep-21:  Drill End Time 
 DRST.      14.32.10 29-Aug-21:  Drill Start Tim 
 DTIM.hr             44.500000:  Time Drilling 
 EDEP.ft          13077.427734:  End Depth 
 ENG1.           Sergey Burkov:  Engineer 1 
 ENG2.         Ebenezer Parker:  Engineer 2 
 ENG3.            Gerald Natai:  Engineer 3 
 ENG4.         Victor Alvarado:  Engineer 4 
 ETIM.      01.05.00 02-Sep-21:  End Time 
 FLOI.gpm           629.930054:  Flow In 
 FLON.gpm           600.000000:  Flow In Min 
 FLOS.mptm            3.200000:  Fluid Loss 
 FLOX.gpm           650.000000:  Flow In Max 
 HAZI.deg           236.610001:  AzimuthLower 
 HAZI.deg           238.050003:  AzimuthUpper 
 HPRE.                      No:  High Pressure 
 HYDO.ft              0.000000:  Hydro Offset 
 IFIN.deg            91.870003:  Inc, Final 
 IMAX.deg            92.339996:  Inc Max 
 IMIN.deg            84.989998:  Inc Min 
 IMND.ft          12906.824219:  Inc Min Depth 
 IMXD.ft          11745.407227:  Inc Max Depth 
 JARR.                      No:  Jarring 
 LETM.      01.05.00 01-Sep-21:  Log End Time 
 LOST.hr                     0:  Lost Rig Time 
 LSTM.      14.32.10 28-Aug-21:  Log Start Time 
 MDCL.ppm         60000.000000:  Mud Chlorides 
 MDES.             Fresh Water:  Mud Desc 
 DFD .ppg             9.638940:  Mud Density 
 MDMN.ppg             9.597213:  Dens Mud Min 
 MDMX.ppg             9.680667:  Dens Mud Max 
 PH  .pH              9.900000:  Mud pH 
 MOIL.                    0.00:  Run Mud Oil % 
 MSND.                    0.20:  Run Mud Sand % 
 MSOL.                     4.3:  Run Mud Solids% 
 DFV .spqt           47.000000:  Mud Viscosity 
 MWOD.in              6.750000:  MWD Tool OD 
 MWSI.                      No:  Serv Intrp, MWD 
 ORV1.deg             0.000000:  Orientation 1 
 ORV2.deg             0.000000:  Orientation 2 
 OTIM.hr            111.000000:  Time Operating 
 PMAX.psia         9168.941406:  Press Op, Max 
 PV  .cP             12.000000:  Mud PV 
 RMS .ohmm            0.085000:  Mud Resistivity 
 RMCS.ohmm            0.095000:  Mud Cake Resistivity 
 MCST.degF           80.959999:  Mud Cake Sample Temperature 
 RMFS.ohmm            0.080000:  Mud Filtrate Resistivity 
 RMFT.degF           80.959999:  Mud Filtrate Sample Temperature 
 RMMT.ohmm            0.192300:  Rm @ Max Temp 
 MST .degF           80.959999:  Mud Sample Temperature 
 RUN .                     600:  Run Number 
 ROP .fph             0.000000:  ROP Orient Avg 
 ROP .fph            43.143044:  ROP Rot Avg 
 ROPA.fph            43.143044:  ROP Avg 
 ROPN.fph            33.628609:  ROP Min 
 ROPX.fph            44.291336:  ROP Max 
 RPMA.rpm           173.389999:  RPM Surface Avg 
 RPMN.rpm           155.000000:  RPM Surface Min 
 RPMX.rpm           180.000000:  RPM Surface Max 
 RRUN.                     600:  Rig Run Number 
 RTIM.hr             10.500000:  Time Reaming 
 SAZI.deg           236.539993:  Azm, Start 
 SDEP.ft          11158.136719:  Start Depth 
 SDL1.          Christina Sava:  SDL Engineer 1 
 SDL2.         Mohamed Gharieb:  SDL Engineer 2 
 SIDD.                      No:  Serv Intrp, DD 
 SINC.deg            88.860001:  Inc, Start 
 SPPA.psig         2398.194824:  SPP Avg 
 SPPN.psig         2199.985840:  SPP Min 
 SPPX.psig         2519.983887:  SPP Max 
 STIM.      05.37.03 29-Aug-21:  Start Time 
 SVER.                9.200000:  Sperry Version 
 TDAT.ft          11158.136719:  Tot Depth Attmp 
 TDDF.                      No:  Trip for DD 
 TDLG.ft           1374.671875:  Tot Depth Loggd 
 TFF .                      No:  Trip for Fail 
 TQAA.f-p         20745.179688:  Torque Abs Avg 
 TQAN.f-p         17000.000000:  Torque Abs Min 
 TQAX.f-p         25000.000000:  Torque Abs Max 
 TRRT.°/100'          0.081280:  Turn Rotating 
 MRT .                     PWD:  Maximum Recorded Temperature 
 TTMX.degF          102.199997:  Max Tool Temp 
 VS01.                90642082:  Virtual Str1 SN 
 VS02.                90641410:  Virtual Str2 SN 
 VS03.                90645759:  Virtual Str3 SN 
 VS04.                90645758:  Virtual Str4 SN 
 VS05.                90645760:  Virtual Str5 SN 
 VS06.                90641262:  Virtual Str6 SN 
 VS07.                90647660:  Virtual Str7 SN 
 VS08.                13098488:  Virtual Str8 SN 
 VS09.                90642211:  Virtual Str9 SN 
 WBMN.klb             7.000000:  WOB Min 
 WITN.              Johan Roos:  Customer Rep 
 WITN.           Danial Jacobs:  Customer Rep 2 
 WOBA.klb            16.770000:  WOB Avg 
 WOBX.klb            25.000000:  WOB Max 
 YP  .lhf2           20.000000:  Yield Point 
~Curve Information Block
#MNEM.UNIT                 API CODE     Curve Description
#---------               -----------    ---------------------------
 DEPT.F                 00 000 000 000:  Depth
 AFRSAC.ohmm            00 000 000 000:  AFR Shallow Avg Res BC
 AFRMAC.ohmm            00 000 000 000:  AFR Medium Avg Res BC
 AFRDAC.ohmm            00 000 000 000:  AFR Deep Avg Res BC
#Other Information
#
#WARRANTY: Halliburton will use its best efforts to furnish customers with 
#accurate information and interpretations that are part of, and incident to, the services 
#provided.  However, Halliburton cannot and does not warrant the accuracy 
#or correctness of such information and interpretations.  Under no circumstances should any 
#such information or interpretation be relied upon as the sole basis for any drilling, 
#completion, production, or financial decision or any procedure involving any risk to the 
#safety of any drilling venture, drilling rig or its crew or any other third party.  The 
#Customer has full responsibility for all drilling, completion and production operation.  
#Halliburton makes no representations or warranties, either expressed or 
#implied, including, but not limited to, the implied warranties of merchantability or fitness 
#for a particular purpose, with respect to the services rendered.  In no event will 
#Halliburton be liable for failure to obtain any particular results or for 
#any damages, including, but not limited to, indirect, special or consequential damages, 
#resulting from the use of any information or interpretation provided by Halliburton.
#
~A    DEPT     AFRSAC    AFRMAC    AFRDAC   
# ...
   12747.0000    6.1074   10.3057   10.4896
   12747.5000    6.1930   10.1306   10.3663
   12748.0000    6.1930    9.9507   10.0987
   12748.5000    6.2495    9.9874    9.9961
   12749.0000    6.3406   10.0220    9.9697
   12749.5000    6.4375   10.0250    9.9345
   12750.0000    6.5512   10.0576    9.9218
   12750.5000    6.6542   10.0752    9.9185
   12751.0000    6.7863   10.1245    9.9592
   12751.5000    6.8816    9.9050    9.9529
   12752.0000    6.8195    9.4759    9.8229
   12752.5000    6.6324    9.5148    9.6770
   12753.0000    6.2173    9.8041    9.3266
   12753.5000    5.6421    9.6234    8.8019
   12754.0000    5.3714    9.2522    8.6369
   12754.5000    5.2029    8.9106    8.3961
   12755.0000    4.8202    8.2390    7.6687
   12755.5000    4.5079    7.6574    7.1681
   12756.0000    4.1603    6.8937    6.6002
   12756.5000    3.6393    5.7332    5.6385
   12757.0000    3.2104    5.0558    4.9225
   12757.5000    2.9934    4.8724    4.6332
   12758.0000    2.9338    4.8405    4.6103
   12758.5000    2.9957    4.8555    4.7929
   12759.0000    2.9920    4.7653    4.8467
   12759.5000    2.8521    4.5262    4.6014
   12760.0000    2.7587    4.3662    4.4201
   12760.5000    2.7613    4.3952    4.4453
   12761.0000    2.8024    4.4775    4.5222
   12761.5000    2.8037    4.4287    4.4756
   12762.0000    2.7745    4.3489    4.3545
   12762.5000    2.7728    4.3728    4.2935
   12763.0000    2.8217    4.4303    4.3621
   12763.5000    2.8866    4.4798    4.4526
   12764.0000    2.8893    4.5705    4.3682
   12764.5000    2.8449    4.4694    4.1822
   12765.0000    2.8729    4.3223    4.1252
   12765.5000    2.9395    4.3424    4.1144
   12766.0000    2.9904    4.4398    4.0898
   12766.5000    3.0362    4.4207    4.0868
   12767.0000    3.0504    4.2267    4.0380
   12767.5000    3.0357    4.0171    3.9315
   12768.0000    3.0000    3.9147    3.8165
   12768.5000    2.8970    3.8494    3.6705
   12769.0000    2.7873    3.7928    3.5427
   12769.5000    2.7194    3.7427    3.4617
   12770.0000    2.6777    3.7053    3.4241
   12770.5000    2.6511    3.6746    3.4171
   12771.0000    2.6524    3.7032    3.4414
   12771.5000    2.6756    3.7538    3.4911
   12772.0000    2.7101    3.8094    3.5523
   12772.5000    2.7469    3.8788    3.6215
   12773.0000    2.7674    3.9212    3.6574
   12773.5000    2.7445    3.8724    3.5862
   12774.0000    2.6997    3.7506    3.4502
   12774.5000    2.6644    3.6427    3.3358
   12775.0000    2.6366    3.5653    3.2571
   12775.5000    2.6529    3.5727    3.2710
   12776.0000    2.7294    3.7039    3.3816
   12776.5000    2.7303    3.7056    3.3778
   12777.0000    2.7117    3.6499    3.3375
   12777.5000    2.7368    3.6768    3.3686
   12778.0000    2.7463    3.6964    3.3841
   12778.5000    2.7530    3.6989    3.3890
   12779.0000    2.7713    3.7192    3.4063
   12779.5000    2.7635    3.6927    3.3826
   12780.0000    2.7337    3.6469    3.3324
   12780.5000    2.7261    3.6420    3.3196
   12781.0000    2.7176    3.6358    3.3018
   12781.5000    2.6872    3.5939    3.2480
   12782.0000    2.6682    3.5380    3.2074
   12782.5000    2.7015    3.5701    3.2417
   12783.0000    2.7662    3.6651    3.3227
   12783.5000    2.8218    3.7564    3.3925
   12784.0000    2.8615    3.8146    3.4375
   12784.5000    2.8894    3.8589    3.4696
   12785.0000    2.9156    3.8843    3.5022
   12785.5000    2.9277    3.8876    3.5124
   12786.0000    2.9137    3.8764    3.4929
   12786.5000    2.9246    3.9025    3.5216
   12787.0000    2.9603    3.9641    3.5962
   12787.5000    2.9674    4.0018    3.6291
   12788.0000    2.9491    3.9950    3.6162
   12788.5000    2.9332    3.9928    3.6056
   12789.0000    2.8946    3.9555    3.5667
   12789.5000    2.8385    3.8816    3.4997
   12790.0000    2.8161    3.8337    3.4627
   12790.5000    2.7618    3.7401    3.3824
   12791.0000    2.6979    3.6527    3.3006
   12791.5000    2.7268    3.7092    3.3509
   12792.0000    2.8502    3.9361    3.5608
   12792.5000    2.9139    4.1128    3.7077
   12793.0000    2.8664    4.0692    3.6677
   12793.5000    2.8338    3.9850    3.6365
   12794.0000    2.8256    3.9625    3.6397
   12794.5000    2.8145    3.9889    3.6544
   12795.0000    2.8167    4.0406    3.6852
   12795.5000    2.7800    3.9985    3.6344
   12796.0000    2.7412    3.9258    3.5752
   12796.5000    2.7496    3.9284    3.6004
   12797.0000    2.7438    3.9368    3.6064
   12797.5000    2.7292    3.9421    3.5960
   12798.0000    2.7136    3.9571    3.5915
   12798.5000    2.6851    3.8902    3.5615
   12799.0000    2.6567    3.7671    3.5270
   12799.5000    2.6138    3.6813    3.4817
   12800.0000    2.5696    3.6754    3.4363
   12800.5000    2.5552    3.6779    3.4316
   12801.0000    2.5858    3.6806    3.5003
   12801.5000    2.6147    3.7387    3.5728
   12802.0000    2.6103    3.8117    3.5848
   12802.5000    2.5959    3.8472    3.5698
   12803.0000    2.6095    3.8273    3.6001
   12803.5000    2.6505    3.8299    3.6731
   12804.0000    2.6833    3.8756    3.7174
   12804.5000    2.6918    3.9645    3.7007
   12805.0000    2.6850    4.0281    3.6560
   12805.5000    2.6875    4.0178    3.6327
   12806.0000    2.6802    3.9352    3.5830
   12806.5000    2.6957    3.8221    3.5013
   12807.0000    2.8617    4.0559    3.6169
   12807.5000    3.1597    4.5662    3.9881
   12808.0000    3.3347    4.7631    4.2284
   12808.5000    3.3821    4.7042    4.2603
   12809.0000    3.4651    4.7444    4.3555
   12809.5000    3.4956    4.7192    4.3933
   12810.0000    3.4388    4.6435    4.3124
   12810.5000    3.3696    4.5951    4.2455
   12811.0000    3.3933    4.6938    4.3255
   12811.5000    3.3397    4.7132    4.2927
   12812.0000    3.1792    4.5250    4.1007
   12812.5000    3.0290    4.2354    3.9177
   12813.0000    2.9299    4.1149    3.8160
   12813.5000    2.8762    4.2490    3.8173
   12814.0000    2.8744    4.4129    3.9266
   12814.5000    2.8652    4.3861    4.0047
   12815.0000    2.8320    4.3422    3.9945
   12815.5000    2.7857    4.3082    3.9287
   12816.0000    2.7410    4.2356    3.8206
   12816.5000    2.6951    4.1584    3.6849
   12817.0000    2.6717    4.1176    3.5725
   12817.5000    2.7242    4.0688    3.5622
   12818.0000    2.8606    4.2049    3.7106
   12818.5000    3.0515    4.7209    3.9944
   12819.0000    3.3079    5.2710    4.4204
   12819.5000    3.6066    5.5002    4.9224
   12820.0000    3.8752    5.6612    5.3457
   12820.5000    3.9620    5.7746    5.4539
   12821.0000    3.9246    5.7618    5.3647
   12821.5000    3.9193    5.7907    5.3371
   12822.0000    3.9778    5.9138    5.4365
   12822.5000    3.9971    5.9272    5.5056
   12823.0000    3.9032    5.8209    5.4347
   12823.5000    3.7766    5.6342    5.2718
   12824.0000    3.6845    5.4070    5.1076
   12824.5000    3.5968    5.2929    4.9728
   12825.0000    3.5184    5.2997    4.9410
   12825.5000    3.4986    5.3481    5.0625
   12826.0000    3.5042    5.4552    5.2103
   12826.5000    3.4816    5.5754    5.2901
   12827.0000    3.4468    5.7344    5.3432
   12827.5000    3.4292    5.9075    5.4719
   12828.0000    3.3939    5.9360    5.6227
   12828.5000    3.3139    5.8696    5.6337
   12829.0000    3.2000    5.7961    5.4369
   12829.5000    3.0864    5.6389    5.1734
   12830.0000    2.9973    5.3954    4.9689
   12830.5000    2.9332    5.2044    4.8464
   12831.0000    2.8891    5.0851    4.7837
   12831.5000    2.8589    4.9995    4.7447
   12832.0000    2.8008    4.8752    4.6404
   12832.5000    2.7426    4.7852    4.5626
   12833.0000    2.7308    4.7640    4.5718
   12833.5000    2.7170    4.7025    4.5273
   12834.0000    2.6987    4.6590    4.4550
   12834.5000    2.7245    4.6794    4.4708
   12835.0000    2.7866    4.7030    4.5348
   12835.5000    2.8237    4.7057    4.5375
   12836.0000    2.8268    4.6664    4.4911
   12836.5000    2.8300    4.6255    4.4751
   12837.0000    2.8601    4.6677    4.5295
   12837.5000    2.9080    4.7484    4.6128
