~Version Information
 VERS.                  2.0:   CWLS log ASCII Standard -VERSION 2.0
 WRAP.                   NO:   One line per depth step
~Well Information Block
#MNEM.UNIT     VALUE/NAME     DESCRIPTION
#---------     -----------    ---------------------------
 STRT.F             10927.0000: START DEPTH
 STOP.F             12844.5000: STOP DEPTH
 STEP.F                 0.5000: STEP DEPTH
 NULL.               -999.2500: NULL VALUE
 API .                        :  API NUMBER
 CNTY.                        :  COUNTY
 COMP.                        :  COMPANY
 CTRY.                        :  COUNTRY
 DATE.                        :  DATE
 FLD .                        :  FIELD
 PROV.                        :  PROVINCE
 SRVC.             Halliburton:  SERVICE COMPANY
 STAT.                        :  STATE
 UWI .                        :  UNIQUE WELL IDENTIFIER
 WELL.                        :  WELL
 LOC .                        :  LOCATION
 TDL .ft           1374.671875:  TOTAL DEPTH (LOGGER)
~Parameter Information Block
#MNEM.UNIT       Value        Description
#---------     -----------    ---------------------------
 AV  .fpm           452.755920:  Ann Velocity 
 AVMX.fpm           511.811035:  Max Ann Veloc 
 AZIF.deg           237.779999:  Azm, Final 
 BHAT.        Rotary Steerable:  BHA Type 
 BROT.°/100'          0.030480:  Build Rotating 
 BS  .in              8.500000:  Bit Size 
 BSZ .in              8.500000:  Bit Size 
 BTPL.psig          511.000000:  Bit Press Loss 
 CABU.                      No:  Customer Abuse 
 CGEO.        Jonathan Randles:  Customer Geo 
 COMM.                     ä<]:  Run Comments 1 
 TCS .hr             63.500000:  Time Ciculation Ended 
 CV  .fpm           393.700806:  Crit Velocity 
 CVMX.fpm           393.700806:  Max Crit Veloc 
 DD1 .          Andrey Borodin:  Direct Drillr 1 
 DD2 .           Pierre Giroud:  Direct Drillr 2 
 DDSV.                 iCruise:  DD Service 
 DEFF.%              98.000000:  % Det Eff 
 DEVI.deg            89.040001:  InclinationUp 
 DEVI.deg            89.019997:  InclinationLow 
 DLRX.°/100'          8.818880:  Dogleg Rot Max 
 DLSO.°/100'          2.245360:  Dogleg Oriented 
 DLSX.°/100'          8.818880:  Dogleg Str Max 
 DRET.      01.05.00 01-Sep-21:  Drill End Time 
 DRST.      14.32.10 29-Aug-21:  Drill Start Tim 
 DTIM.hr             44.500000:  Time Drilling 
 EDEP.ft          13077.427734:  End Depth 
 ENG1.           Sergey Burkov:  Engineer 1 
 ENG2.         Ebenezer Parker:  Engineer 2 
 ENG3.            Gerald Natai:  Engineer 3 
 ENG4.         Victor Alvarado:  Engineer 4 
 ETIM.      01.05.00 02-Sep-21:  End Time 
 FLOI.gpm           629.930054:  Flow In 
 FLON.gpm           600.000000:  Flow In Min 
 FLOS.mptm            3.200000:  Fluid Loss 
 FLOX.gpm           650.000000:  Flow In Max 
 HAZI.deg           236.610001:  AzimuthLower 
 HAZI.deg           238.050003:  AzimuthUpper 
 HPRE.                      No:  High Pressure 
 HYDO.ft              0.000000:  Hydro Offset 
 IFIN.deg            91.870003:  Inc, Final 
 IMAX.deg            92.339996:  Inc Max 
 IMIN.deg            84.989998:  Inc Min 
 IMND.ft          12906.824219:  Inc Min Depth 
 IMXD.ft          11745.407227:  Inc Max Depth 
 JARR.                      No:  Jarring 
 LETM.      01.05.00 01-Sep-21:  Log End Time 
 LOST.hr                     0:  Lost Rig Time 
 LSTM.      14.32.10 28-Aug-21:  Log Start Time 
 MDCL.ppm         60000.000000:  Mud Chlorides 
 MDES.             Fresh Water:  Mud Desc 
 DFD .ppg             9.638940:  Mud Density 
 MDMN.ppg             9.597213:  Dens Mud Min 
 MDMX.ppg             9.680667:  Dens Mud Max 
 PH  .pH              9.900000:  Mud pH 
 MOIL.                    0.00:  Run Mud Oil % 
 MSND.                    0.20:  Run Mud Sand % 
 MSOL.                     4.3:  Run Mud Solids% 
 DFV .spqt           47.000000:  Mud Viscosity 
 MWOD.in              6.750000:  MWD Tool OD 
 MWSI.                      No:  Serv Intrp, MWD 
 ORV1.deg             0.000000:  Orientation 1 
 ORV2.deg             0.000000:  Orientation 2 
 OTIM.hr            111.000000:  Time Operating 
 PMAX.psia         9168.941406:  Press Op, Max 
 PV  .cP             12.000000:  Mud PV 
 RMS .ohmm            0.085000:  Mud Resistivity 
 RMCS.ohmm            0.095000:  Mud Cake Resistivity 
 MCST.degF           80.959999:  Mud Cake Sample Temperature 
 RMFS.ohmm            0.080000:  Mud Filtrate Resistivity 
 RMFT.degF           80.959999:  Mud Filtrate Sample Temperature 
 RMMT.ohmm            0.192300:  Rm @ Max Temp 
 MST .degF           80.959999:  Mud Sample Temperature 
 RUN .                     600:  Run Number 
 ROP .fph             0.000000:  ROP Orient Avg 
 ROP .fph            43.143044:  ROP Rot Avg 
 ROPA.fph            43.143044:  ROP Avg 
 ROPN.fph            33.628609:  ROP Min 
 ROPX.fph            44.291336:  ROP Max 
 RPMA.rpm           173.389999:  RPM Surface Avg 
 RPMN.rpm           155.000000:  RPM Surface Min 
 RPMX.rpm           180.000000:  RPM Surface Max 
 RRUN.                     600:  Rig Run Number 
 RTIM.hr             10.500000:  Time Reaming 
 SAZI.deg           236.539993:  Azm, Start 
 SDEP.ft          11158.136719:  Start Depth 
 SDL1.          Christina Sava:  SDL Engineer 1 
 SDL2.         Mohamed Gharieb:  SDL Engineer 2 
 SIDD.                      No:  Serv Intrp, DD 
 SINC.deg            88.860001:  Inc, Start 
 SPPA.psig         2398.194824:  SPP Avg 
 SPPN.psig         2199.985840:  SPP Min 
 SPPX.psig         2519.983887:  SPP Max 
 STIM.      05.37.03 29-Aug-21:  Start Time 
 SVER.                9.200000:  Sperry Version 
 TDAT.ft          11158.136719:  Tot Depth Attmp 
 TDDF.                      No:  Trip for DD 
 TDLG.ft           1374.671875:  Tot Depth Loggd 
 TFF .                      No:  Trip for Fail 
 TQAA.f-p         20745.179688:  Torque Abs Avg 
 TQAN.f-p         17000.000000:  Torque Abs Min 
 TQAX.f-p         25000.000000:  Torque Abs Max 
 TRRT.°/100'          0.081280:  Turn Rotating 
 MRT .                     PWD:  Maximum Recorded Temperature 
 TTMX.degF          102.199997:  Max Tool Temp 
 VS01.                90642082:  Virtual Str1 SN 
 VS02.                90641410:  Virtual Str2 SN 
 VS03.                90645759:  Virtual Str3 SN 
 VS04.                90645758:  Virtual Str4 SN 
 VS05.                90645760:  Virtual Str5 SN 
 VS06.                90641262:  Virtual Str6 SN 
 VS07.                90647660:  Virtual Str7 SN 
 VS08.                13098488:  Virtual Str8 SN 
 VS09.                90642211:  Virtual Str9 SN 
 WBMN.klb             7.000000:  WOB Min 
 WITN.              Johan Roos:  Customer Rep 
 WITN.           Danial Jacobs:  Customer Rep 2 
 WOBA.klb            16.770000:  WOB Avg 
 WOBX.klb            25.000000:  WOB Max 
 YP  .lhf2           20.000000:  Yield Point 
~Curve Information Block
#MNEM.UNIT                 API CODE     Curve Description
#---------               -----------    ---------------------------
 DEPT.F                 00 000 000 000:  Depth
 AFRSAC.ohmm            00 000 000 000:  AFR Shallow Avg Res BC
 AFRMAC.ohmm            00 000 000 000:  AFR Medium Avg Res BC
 AFRDAC.ohmm            00 000 000 000:  AFR Deep Avg Res BC
#Other Information
#
#WARRANTY: Halliburton will use its best efforts to furnish customers with 
#accurate information and interpretations that are part of, and incident to, the services 
#provided.  However, Halliburton cannot and does not warrant the accuracy 
#or correctness of such information and interpretations.  Under no circumstances should any 
#such information or interpretation be relied upon as the sole basis for any drilling, 
#completion, production, or financial decision or any procedure involving any risk to the 
#safety of any drilling venture, drilling rig or its crew or any other third party.  The 
#Customer has full responsibility for all drilling, completion and production operation.  
#Halliburton makes no representations or warranties, either expressed or 
#implied, including, but not limited to, the implied warranties of merchantability or fitness 
#for a particular purpose, with respect to the services rendered.  In no event will 
#Halliburton be liable for failure to obtain any particular results or for 
#any damages, including, but not limited to, indirect, special or consequential damages, 
#resulting from the use of any information or interpretation provided by Halliburton.
#
~A    DEPT     AFRSAC    AFRMAC    AFRDAC   
# ...
   11655.0000    8.3803   35.2290   41.3839
   11655.5000   12.3617   55.9980   66.7729
   11656.0000   15.5191   63.7617   83.5131
   11656.5000   15.4768   57.2766   73.6737
   11657.0000   15.3605   51.0072   61.1898
   11657.5000   17.3085   50.9942   58.8028
   11658.0000   22.5319   65.3306   73.2882
   11658.5000   28.4665   82.8129   94.6144
   11659.0000   35.0153  100.9583  119.9156
   11659.5000   39.4958  120.8366  147.4857
   11660.0000   39.1944  106.1897  142.7621
   11660.5000   41.6262   85.2764  126.2563
   11661.0000   46.7147   88.5876  130.4487
   11661.5000   43.6957  101.0767  134.6631
   11662.0000   45.9890  123.7135  145.4110
   11662.5000   66.5422  189.1881  201.8331
   11663.0000   67.2024  190.3164  207.1447
   11663.5000   38.4897  103.6544  122.7943
   11664.0000   22.2354   78.5519   99.6467
   11664.5000   14.9077   85.1062  117.9309
   11665.0000   10.4582   81.7940  124.1318
   11665.5000    8.4023   70.1680  118.6954
   11666.0000    6.7404   51.1475  100.2063
   11666.5000    5.0598   33.6894   66.7979
   11667.0000    4.0010   25.5349   44.4570
   11667.5000    3.4273   22.3734   34.5967
   11668.0000    3.0917   20.6616   29.8767
   11668.5000    2.9151   19.3689   26.9767
   11669.0000    2.9665   18.8179   26.0198
   11669.5000    3.2241   18.6911   26.0203
   11670.0000    3.6876   18.8076   26.5578
   11670.5000    4.4240   19.8288   28.8620
   11671.0000    5.4453   21.8659   33.5471
   11671.5000    6.2917   24.0416   38.5118
   11672.0000    6.4469   26.7552   44.9694
   11672.5000    6.3487   30.3355   54.5795
   11673.0000    6.5349   35.6019   65.3591
   11673.5000    7.2381   46.1199   80.3067
   11674.0000    8.3273   61.8439   93.0038
   11674.5000    9.1267   63.7639   80.7971
   11675.0000    8.9252   55.7617   67.4833
   11675.5000    8.4894   50.6355   63.0701
   11676.0000    8.5761   48.6392   62.9187
   11676.5000   11.4065   59.6592   72.5927
   11677.0000   16.6013   80.6868   89.4931
   11677.5000   19.5460   83.6263  108.4546
   11678.0000   17.9935   63.6455  104.0712
   11678.5000   15.3729   48.4695   81.9966
   11679.0000   12.5295   42.0811   64.5838
   11679.5000   10.8937   41.1434   56.6086
   11680.0000   10.1207   45.0636   56.5113
   11680.5000    9.9072   48.5862   61.9152
   11681.0000    9.6576   48.9445   63.0641
   11681.5000    9.3755   42.7938   55.9352
   11682.0000    9.7403   37.0249   50.7383
   11682.5000   11.2020   39.8784   52.3602
   11683.0000   13.3093   50.1375   57.1948
   11683.5000   16.3493   63.7756   66.9938
   11684.0000   20.8659   76.3537   83.4868
   11684.5000   24.3365   74.5270   92.0743
   11685.0000   32.7054   95.3324  123.0649
   11685.5000   81.3952  254.6012  278.6711
   11686.0000  280.7317  575.8853  555.5467
   11686.5000  200.4388  524.8535  495.3333
   11687.0000   54.5915  293.1908  255.5566
   11687.5000   27.6823  171.0013  156.0202
   11688.0000   18.4038  146.0642  146.8609
   11688.5000   12.6158  149.3985  152.6637
   11689.0000    9.8949  154.2124  156.7834
   11689.5000    8.6882  149.7793  152.8704
   11690.0000    8.1626  134.4474  143.2345
   11690.5000    8.0900  120.5991  135.4433
   11691.0000    8.1752  113.6176  129.1267
   11691.5000    8.0102  110.4467  124.0795
   11692.0000    7.7784  107.0546  118.7078
   11692.5000    8.0010  103.7352  114.1455
   11693.0000    8.2218  104.0325  116.1638
   11693.5000    7.9903  107.1509  122.5939
   11694.0000    8.1859  107.1623  122.4712
   11694.5000    8.6771  106.1572  119.8368
   11695.0000    8.5906  109.6288  122.4135
   11695.5000    8.3342  112.4117  123.5040
   11696.0000    8.3257  112.5251  121.3109
   11696.5000    8.5333  110.7926  119.6546
   11697.0000    8.7678  110.1486  120.9539
   11697.5000    8.9158  110.7306  122.3118
   11698.0000    9.0052  112.1798  123.0273
   11698.5000    8.8911  112.1007  122.0295
   11699.0000    8.6493  108.8768  117.5701
   11699.5000    8.4217  106.3401  112.7674
   11700.0000    8.3388  106.7975  113.0848
   11700.5000    8.6817  109.0388  116.0911
   11701.0000    9.1668  108.6116  115.3580
   11701.5000    9.2121  105.1911  112.0477
   11702.0000    9.0023  104.9386  110.3179
   11702.5000    8.7608  107.9690  110.6325
   11703.0000    7.9571  110.5547  112.1947
   11703.5000    7.1336  110.4662  111.1045
   11704.0000    6.8402  108.2186  106.3981
   11704.5000    6.8481  102.5786  105.3600
   11705.0000    7.0835   94.3065  109.8939
   11705.5000    7.3690   87.5593  112.8755
   11706.0000    7.3996   82.9905  111.7663
   11706.5000    7.1876   81.0632  109.4008
   11707.0000    6.9618   82.0813  108.8795
   11707.5000    6.7576   82.6972  112.0607
   11708.0000    6.5598   83.4554  116.8875
   11708.5000    6.3923   84.7690  121.6464
   11709.0000    6.2607   83.0653  113.4418
   11709.5000    5.8359   57.8544   64.4975
   11710.0000    5.2990   34.2969   33.8755
   11710.5000    5.2349   27.5845   27.2498
   11711.0000    5.6051   22.7211   22.7080
   11711.5000    6.4800   20.6130   20.0046
   11712.0000    9.4059   25.0937   24.3122
   11712.5000   13.2821   25.1929   26.8036
   11713.0000   16.4643   26.0585   28.9437
   11713.5000   21.5184   35.5268   39.1581
   11714.0000   22.9359   37.7784   44.2732
   11714.5000   18.6350   30.6335   38.0975
   11715.0000   14.1084   22.0407   28.6521
   11715.5000   13.3185   20.5362   25.0347
   11716.0000   13.6797   21.9473   24.1132
   11716.5000   11.2649   18.3119   20.1058
   11717.0000   10.7678   17.0346   20.1017
   11717.5000   12.7481   20.0475   26.6743
   11718.0000   13.8589   22.7350   31.6440
   11718.5000   12.9858   21.3656   29.7632
   11719.0000   11.2386   19.6421   25.9012
   11719.5000   10.4884   20.0651   25.4048
   11720.0000    9.5448   20.9498   24.3708
   11720.5000    7.5829   17.6475   18.9002
   11721.0000    6.0010   12.9526   14.1386
   11721.5000    5.7822   11.3391   14.0162
   11722.0000    6.6736   13.2206   18.4223
   11722.5000    7.9377   17.6010   25.2106
   11723.0000    8.0353   19.6220   26.8373
   11723.5000    8.3439   20.5861   27.7235
   11724.0000    9.2073   21.3458   31.1360
   11724.5000    8.9268   18.3842   29.7336
   11725.0000    8.1410   15.3704   25.1690
   11725.5000    8.5972   16.3494   25.1482
   11726.0000    9.8514   20.2923   27.8590
   11726.5000   10.2357   22.6813   29.0915
   11727.0000   11.6219   28.2776   35.8765
   11727.5000   14.0970   37.6641   45.8504
   11728.0000   13.7273   33.3130   39.4930
   11728.5000   13.0121   26.1333   31.5562
   11729.0000   14.9440   27.8139   33.4627
   11729.5000   21.1397   44.0469   51.7034
   11730.0000   43.2785  104.6636  126.2466
   11730.5000   92.9067  198.3974  257.9821
   11731.0000  100.8269  175.1337  190.0332
   11731.5000  115.2738  121.2693  149.6019
   11732.0000  273.0946  212.9098  324.2015
   11732.5000  913.4216 1096.3047 1487.9855
   11733.0000 1058.3054 1819.9528 2174.7903
   11733.5000  773.5584 1417.6805 2082.4373
   11734.0000  176.8950  513.2283  927.4203
   11734.5000   40.5005  217.3936  336.5130
   11735.0000   19.2630  172.8779  214.7855
   11735.5000   12.0299  170.4107  192.3978
   11736.0000    8.8307  156.7234  169.4799
   11736.5000    7.6289  142.5082  141.6691
   11737.0000    7.0422  125.8163  118.1815
   11737.5000    6.8685  115.3504  110.7322
   11738.0000    7.5838  121.1074  120.1548
   11738.5000    9.2341  126.9475  125.8893
   11739.0000   11.7196  123.0311  122.4045
   11739.5000   16.5423  132.0419  134.4178
   11740.0000   29.6457  179.7008  187.2421
   11740.5000   68.3528  275.0160  293.3799
   11741.0000  176.4336  452.9471  500.0315
   11741.5000  396.3568  701.8553  827.0832
   11742.0000  537.0751 1030.1188 1236.1600
   11742.5000  222.9863  789.5341 1365.8434
   11743.0000   34.7199  253.0430  420.6829
   11743.5000   13.2806  105.8217  139.7580
   11744.0000   10.1476   85.5804   95.8129
   11744.5000    8.1879   91.0167   96.0774
   11745.0000    6.8828   97.5509  101.9577
   11745.5000    6.5963   98.3375  103.6156
