~Version Information
 VERS.                  2.0:   CWLS log ASCII Standard -VERSION 2.0
 WRAP.                   NO:   One line per depth step
~Well Information Block
#MNEM.UNIT     VALUE/NAME     DESCRIPTION
#---------     -----------    ---------------------------
 STRT.F             10927.0000: START DEPTH
 STOP.F             12844.5000: STOP DEPTH
 STEP.F                 0.5000: STEP DEPTH
 NULL.               -999.2500: NULL VALUE
 API .                        :  API NUMBER
 CNTY.                        :  COUNTY
 COMP.                        :  COMPANY
 CTRY.                        :  COUNTRY
 DATE.                        :  DATE
 FLD .                        :  FIELD
 PROV.                        :  PROVINCE
 SRVC.             Halliburton:  SERVICE COMPANY
 STAT.                        :  STATE
 UWI .                        :  UNIQUE WELL IDENTIFIER
 WELL.                        :  WELL
 LOC .                        :  LOCATION
 TDL .ft           1374.671875:  TOTAL DEPTH (LOGGER)
~Parameter Information Block
#MNEM.UNIT       Value        Description
#---------     -----------    ---------------------------
 AV  .fpm           452.755920:  Ann Velocity 
 AVMX.fpm           511.811035:  Max Ann Veloc 
 AZIF.deg           237.779999:  Azm, Final 
 BHAT.        Rotary Steerable:  BHA Type 
 BROT.°/100'          0.030480:  Build Rotating 
 BS  .in              8.500000:  Bit Size 
 BSZ .in              8.500000:  Bit Size 
 BTPL.psig          511.000000:  Bit Press Loss 
 CABU.                      No:  Customer Abuse 
 CGEO.        Jonathan Randles:  Customer Geo 
 COMM.                     ä<]:  Run Comments 1 
 TCS .hr             63.500000:  Time Ciculation Ended 
 CV  .fpm           393.700806:  Crit Velocity 
 CVMX.fpm           393.700806:  Max Crit Veloc 
 DD1 .          Andrey Borodin:  Direct Drillr 1 
 DD2 .           Pierre Giroud:  Direct Drillr 2 
 DDSV.                 iCruise:  DD Service 
 DEFF.%              98.000000:  % Det Eff 
 DEVI.deg            89.040001:  InclinationUp 
 DEVI.deg            89.019997:  InclinationLow 
 DLRX.°/100'          8.818880:  Dogleg Rot Max 
 DLSO.°/100'          2.245360:  Dogleg Oriented 
 DLSX.°/100'          8.818880:  Dogleg Str Max 
 DRET.      01.05.00 01-Sep-21:  Drill End Time 
 DRST.      14.32.10 29-Aug-21:  Drill Start Tim 
 DTIM.hr             44.500000:  Time Drilling 
 EDEP.ft          13077.427734:  End Depth 
 ENG1.           Sergey Burkov:  Engineer 1 
 ENG2.         Ebenezer Parker:  Engineer 2 
 ENG3.            Gerald Natai:  Engineer 3 
 ENG4.         Victor Alvarado:  Engineer 4 
 ETIM.      01.05.00 02-Sep-21:  End Time 
 FLOI.gpm           629.930054:  Flow In 
 FLON.gpm           600.000000:  Flow In Min 
 FLOS.mptm            3.200000:  Fluid Loss 
 FLOX.gpm           650.000000:  Flow In Max 
 HAZI.deg           236.610001:  AzimuthLower 
 HAZI.deg           238.050003:  AzimuthUpper 
 HPRE.                      No:  High Pressure 
 HYDO.ft              0.000000:  Hydro Offset 
 IFIN.deg            91.870003:  Inc, Final 
 IMAX.deg            92.339996:  Inc Max 
 IMIN.deg            84.989998:  Inc Min 
 IMND.ft          12906.824219:  Inc Min Depth 
 IMXD.ft          11745.407227:  Inc Max Depth 
 JARR.                      No:  Jarring 
 LETM.      01.05.00 01-Sep-21:  Log End Time 
 LOST.hr                     0:  Lost Rig Time 
 LSTM.      14.32.10 28-Aug-21:  Log Start Time 
 MDCL.ppm         60000.000000:  Mud Chlorides 
 MDES.             Fresh Water:  Mud Desc 
 DFD .ppg             9.638940:  Mud Density 
 MDMN.ppg             9.597213:  Dens Mud Min 
 MDMX.ppg             9.680667:  Dens Mud Max 
 PH  .pH              9.900000:  Mud pH 
 MOIL.                    0.00:  Run Mud Oil % 
 MSND.                    0.20:  Run Mud Sand % 
 MSOL.                     4.3:  Run Mud Solids% 
 DFV .spqt           47.000000:  Mud Viscosity 
 MWOD.in              6.750000:  MWD Tool OD 
 MWSI.                      No:  Serv Intrp, MWD 
 ORV1.deg             0.000000:  Orientation 1 
 ORV2.deg             0.000000:  Orientation 2 
 OTIM.hr            111.000000:  Time Operating 
 PMAX.psia         9168.941406:  Press Op, Max 
 PV  .cP             12.000000:  Mud PV 
 RMS .ohmm            0.085000:  Mud Resistivity 
 RMCS.ohmm            0.095000:  Mud Cake Resistivity 
 MCST.degF           80.959999:  Mud Cake Sample Temperature 
 RMFS.ohmm            0.080000:  Mud Filtrate Resistivity 
 RMFT.degF           80.959999:  Mud Filtrate Sample Temperature 
 RMMT.ohmm            0.192300:  Rm @ Max Temp 
 MST .degF           80.959999:  Mud Sample Temperature 
 RUN .                     600:  Run Number 
 ROP .fph             0.000000:  ROP Orient Avg 
 ROP .fph            43.143044:  ROP Rot Avg 
 ROPA.fph            43.143044:  ROP Avg 
 ROPN.fph            33.628609:  ROP Min 
 ROPX.fph            44.291336:  ROP Max 
 RPMA.rpm           173.389999:  RPM Surface Avg 
 RPMN.rpm           155.000000:  RPM Surface Min 
 RPMX.rpm           180.000000:  RPM Surface Max 
 RRUN.                     600:  Rig Run Number 
 RTIM.hr             10.500000:  Time Reaming 
 SAZI.deg           236.539993:  Azm, Start 
 SDEP.ft          11158.136719:  Start Depth 
 SDL1.          Christina Sava:  SDL Engineer 1 
 SDL2.         Mohamed Gharieb:  SDL Engineer 2 
 SIDD.                      No:  Serv Intrp, DD 
 SINC.deg            88.860001:  Inc, Start 
 SPPA.psig         2398.194824:  SPP Avg 
 SPPN.psig         2199.985840:  SPP Min 
 SPPX.psig         2519.983887:  SPP Max 
 STIM.      05.37.03 29-Aug-21:  Start Time 
 SVER.                9.200000:  Sperry Version 
 TDAT.ft          11158.136719:  Tot Depth Attmp 
 TDDF.                      No:  Trip for DD 
 TDLG.ft           1374.671875:  Tot Depth Loggd 
 TFF .                      No:  Trip for Fail 
 TQAA.f-p         20745.179688:  Torque Abs Avg 
 TQAN.f-p         17000.000000:  Torque Abs Min 
 TQAX.f-p         25000.000000:  Torque Abs Max 
 TRRT.°/100'          0.081280:  Turn Rotating 
 MRT .                     PWD:  Maximum Recorded Temperature 
 TTMX.degF          102.199997:  Max Tool Temp 
 VS01.                90642082:  Virtual Str1 SN 
 VS02.                90641410:  Virtual Str2 SN 
 VS03.                90645759:  Virtual Str3 SN 
 VS04.                90645758:  Virtual Str4 SN 
 VS05.                90645760:  Virtual Str5 SN 
 VS06.                90641262:  Virtual Str6 SN 
 VS07.                90647660:  Virtual Str7 SN 
 VS08.                13098488:  Virtual Str8 SN 
 VS09.                90642211:  Virtual Str9 SN 
 WBMN.klb             7.000000:  WOB Min 
 WITN.              Johan Roos:  Customer Rep 
 WITN.           Danial Jacobs:  Customer Rep 2 
 WOBA.klb            16.770000:  WOB Avg 
 WOBX.klb            25.000000:  WOB Max 
 YP  .lhf2           20.000000:  Yield Point 
~Curve Information Block
#MNEM.UNIT                 API CODE     Curve Description
#---------               -----------    ---------------------------
 DEPT.F                 00 000 000 000:  Depth
 AFRSAC.ohmm            00 000 000 000:  AFR Shallow Avg Res BC
 AFRMAC.ohmm            00 000 000 000:  AFR Medium Avg Res BC
 AFRDAC.ohmm            00 000 000 000:  AFR Deep Avg Res BC
#Other Information
#
#WARRANTY: Halliburton will use its best efforts to furnish customers with 
#accurate information and interpretations that are part of, and incident to, the services 
#provided.  However, Halliburton cannot and does not warrant the accuracy 
#or correctness of such information and interpretations.  Under no circumstances should any 
#such information or interpretation be relied upon as the sole basis for any drilling, 
#completion, production, or financial decision or any procedure involving any risk to the 
#safety of any drilling venture, drilling rig or its crew or any other third party.  The 
#Customer has full responsibility for all drilling, completion and production operation.  
#Halliburton makes no representations or warranties, either expressed or 
#implied, including, but not limited to, the implied warranties of merchantability or fitness 
#for a particular purpose, with respect to the services rendered.  In no event will 
#Halliburton be liable for failure to obtain any particular results or for 
#any damages, including, but not limited to, indirect, special or consequential damages, 
#resulting from the use of any information or interpretation provided by Halliburton.
#
~A    DEPT     AFRSAC    AFRMAC    AFRDAC   
# ...
   11018.0000    4.3930   12.7181   24.8429
   11018.5000    4.7374   14.1770   27.1261
   11019.0000    4.8939   15.1235   28.3306
   11019.5000    4.9980   15.0658   28.0943
   11020.0000    5.1372   14.5464   27.3234
   11020.5000    5.1143   13.5632   25.7669
   11021.0000    5.6394   13.5470   26.3863
   11021.5000    6.7727   14.5128   29.0060
   11022.0000    6.8335   14.5152   29.5874
   11022.5000    6.6125   14.9556   30.9347
   11023.0000    6.0329   15.3300   31.9353
   11023.5000    5.1224   14.3024   29.9532
   11024.0000    4.4660   13.1845   27.0189
   11024.5000    4.1662   12.6808   24.8962
   11025.0000    3.9175   12.2474   23.0562
   11025.5000    3.6769   11.7511   21.6003
   11026.0000    3.5803   11.5501   21.1792
   11026.5000    3.5914   11.6307   21.8566
   11027.0000    3.6955   11.5075   23.4135
   11027.5000    4.0569   11.5378   26.2305
   11028.0000    4.5895   11.5958   29.4557
   11028.5000    4.9871   12.3697   32.5360
   11029.0000    6.0910   18.3618   43.4667
   11029.5000    7.1099   25.0088   57.3970
   11030.0000    5.5898   18.0861   45.6431
   11030.5000    4.1996   13.7133   32.1457
   11031.0000    3.7240   14.9691   26.9352
   11031.5000    3.6500   17.9616   24.7252
   11032.0000    3.8082   19.0073   23.3956
   11032.5000    4.4209   18.4729   23.0023
   11033.0000    5.8946   20.2878   25.4740
   11033.5000    8.5082   31.3554   34.5832
   11034.0000   15.3908   90.7327   70.2723
   11034.5000   75.9303  599.0027  453.7434
   11035.0000  497.6107 1306.1626 2589.4468
   11035.5000  776.4397 1339.0255 3382.4978
   11036.0000  931.9838 1570.0066 4439.8413
   11036.5000 1043.0830 1984.9220 6360.7856
   11037.0000  672.1972  827.8977 3983.9487
   11037.5000   57.2933   51.9190  280.8310
   11038.0000    5.6887   13.1644   28.4865
   11038.5000    4.1595   13.2843   27.9792
   11039.0000    3.9547   17.3548   37.5771
   11039.5000    3.7787   24.5758   43.2845
   11040.0000    3.8229   31.6444   45.4494
   11040.5000    3.9912   27.1737   45.2647
   11041.0000    4.4007   19.4178   44.2964
   11041.5000    4.9319   14.4925   38.9488
   11042.0000    5.7273   12.8454   32.2212
   11042.5000    9.8514   19.3715   40.8265
   11043.0000   35.8212   65.6298  118.6389
   11043.5000   96.7797  183.3939  343.9662
   11044.0000   99.0325  172.1762  336.6210
   11044.5000   91.1758  145.2741  287.4340
   11045.0000   66.1258  108.7541  234.1230
   11045.5000   30.9911   61.6528  133.2688
   11046.0000   13.5084   32.1628   68.4160
   11046.5000    7.7624   20.9829   44.9587
   11047.0000    5.7915   18.4904   39.6697
   11047.5000    4.8413   19.9006   41.5345
   11048.0000    4.1555   21.4943   42.6783
   11048.5000    3.7007   20.8617   40.4533
   11049.0000    3.5149   18.4265   38.9728
   11049.5000    3.6846   16.6749   41.6439
   11050.0000    4.3189   16.7397   47.0134
   11050.5000    5.1004   16.7977   45.6021
   11051.0000    5.7048   15.6862   37.6331
   11051.5000    5.9849   14.5245   31.3690
   11052.0000    5.9808   14.4856   29.5461
   11052.5000    5.7731   14.5259   29.2187
   11053.0000    5.2588   14.0039   27.5137
   11053.5000    4.5516   13.1540   24.3697
   11054.0000    3.9487   11.6732   21.1603
   11054.5000    3.5855   10.3706   19.4136
   11055.0000    3.4187    9.8199   19.2341
   11055.5000    3.3553    9.3506   19.3954
   11056.0000    3.3149    8.9252   19.0947
   11056.5000    3.2580    8.9372   18.8674
   11057.0000    3.3134    9.4079   20.1335
   11057.5000    3.4602   10.1101   22.6388
   11058.0000    3.5967   10.8651   24.6241
   11058.5000    3.5667   11.1195   23.7930
   11059.0000    3.4075   10.5773   21.2172
   11059.5000    3.2859    9.7828   19.5305
   11060.0000    3.2472    9.2999   19.1641
   11060.5000    3.3883   10.1198   19.0697
   11061.0000    3.9197   12.1858   19.9501
   11061.5000    4.6363   13.6902   23.2841
   11062.0000    4.6024   13.1116   26.1576
   11062.5000    3.6428   10.9659   23.3430
   11063.0000    2.6021    8.2904   18.5853
   11063.5000    2.0354    7.1697   16.5125
   11064.0000    1.7864    7.7024   17.7019
   11064.5000    1.6177    8.2721   18.6626
   11065.0000    1.4155    7.5622   16.8909
   11065.5000    1.2888    6.6203   15.5234
   11066.0000    1.2895    6.1629   16.0091
   11066.5000    1.3546    5.8515   16.5596
   11067.0000    1.4758    5.7059   16.4678
   11067.5000    1.6052    5.5911   15.8190
   11068.0000    1.7150    5.5095   15.2184
   11068.5000    1.7858    5.5258   15.0293
   11069.0000    1.7934    5.5178   14.7842
   11069.5000    1.7358    5.4304   13.8257
   11070.0000    1.6710    5.3570   13.0850
   11070.5000    1.6578    5.4384   13.3927
   11071.0000    1.6665    5.5785   14.1283
   11071.5000    1.6574    5.6926   14.5915
   11072.0000    1.6487    5.8750   14.9188
   11072.5000    1.6981    6.3352   15.7591
   11073.0000    1.7459    6.8105   16.4636
   11073.5000    1.7421    6.8581   16.2153
   11074.0000    1.7269    6.6219   15.7168
   11074.5000    1.7510    6.7822   15.8651
   11075.0000    1.8435    7.5409   16.8790
   11075.5000    1.9360    8.4358   18.2112
   11076.0000    1.9939    9.0982   19.2800
   11076.5000    2.0665    9.2677   19.8497
   11077.0000    2.1637    9.1288   19.9011
   11077.5000    2.2914    9.3101   20.2323
   11078.0000    2.5405   10.2385   22.2012
   11078.5000    3.0045   11.9744   25.7862
   11079.0000    3.1309   11.5832   25.0326
   11079.5000    2.8642    9.5385   21.2667
   11080.0000    2.7847    8.8355   20.2280
   11080.5000    2.8213    9.3424   20.7646
   11081.0000    2.8579   10.0010   21.1206
   11081.5000    2.9385   10.2292   21.2669
   11082.0000    2.9246    9.5225   20.3593
   11082.5000    2.8607    8.6851   19.3334
   11083.0000    2.9570    8.5766   19.8262
   11083.5000    3.1002    8.8826   20.6200
   11084.0000    3.1900    9.1849   20.8954
   11084.5000    3.1931    9.2220   20.7124
   11085.0000    3.2223    9.2196   20.8948
   11085.5000    3.2110    8.8838   20.8254
   11086.0000    3.1743    8.7065   20.5442
   11086.5000    3.2248    9.1005   21.0084
   11087.0000    3.2387    9.3466   21.2708
   11087.5000    3.0865    9.0269   20.4995
   11088.0000    3.0841    9.0951   20.6460
   11088.5000    3.0913    9.1669   20.8278
   11089.0000    3.0095    9.0019   20.5190
   11089.5000    2.9521    8.9292   20.5697
   11090.0000    2.9703    9.0279   21.0690
   11090.5000    2.9454    9.0346   21.2140
   11091.0000    2.9531    9.2340   21.6998
   11091.5000    3.0347    9.8007   22.8295
   11092.0000    3.1651   10.5712   24.3407
   11092.5000    3.3104   11.1346   25.6336
   11093.0000    3.2679   10.7792   24.9548
   11093.5000    3.1720   10.2780   23.8980
   11094.0000    3.0937   10.1123   23.3432
   11094.5000    2.9651    9.9442   22.7737
   11095.0000    2.8933   10.0464   22.9023
   11095.5000    2.9323   10.6910   24.3340
   11096.0000    2.9526   11.3977   26.4102
   11096.5000    2.8011   11.8787   27.8065
   11097.0000    2.5401   12.1277   27.6976
   11097.5000    2.2704   11.7364   25.8452
   11098.0000    2.0249   10.5808   22.9773
   11098.5000    1.8735    9.3054   20.6198
   11099.0000    1.8690    9.0954   20.0273
   11099.5000    2.0309   10.3171   21.6857
   11100.0000    2.3143   11.5568   24.8768
   11100.5000    2.5715   11.6359   27.0168
   11101.0000    2.6933   10.9607   26.5738
   11101.5000    2.8025   10.4114   25.6130
   11102.0000    2.9457   10.4873   25.3237
   11102.5000    3.1112   11.0954   25.6718
   11103.0000    3.1039   11.0324   24.6642
   11103.5000    2.9637   10.6145   23.5130
   11104.0000    2.8766   10.2796   23.5950
   11104.5000    2.7654    9.8289   23.3749
   11105.0000    2.7061    9.8714   23.5949
   11105.5000    2.7285   10.5810   25.2846
   11106.0000    2.7004   11.0949   26.4008
   11106.5000    2.6354   11.1322   25.8479
   11107.0000    2.5553   10.7603   24.5339
   11107.5000    2.5274   10.3201   23.6749
   11108.0000    2.6437   10.4048   24.0728
   11108.5000    2.8115   10.6949   24.9572
