~Version Information
 VERS.                  2.0:   CWLS log ASCII Standard -VERSION 2.0
 WRAP.                   NO:   One line per depth step
~Well Information Block
#MNEM.UNIT     VALUE/NAME     DESCRIPTION
#---------     -----------    ---------------------------
 STRT.F             10927.0000: START DEPTH
 STOP.F             12844.5000: STOP DEPTH
 STEP.F                 0.5000: STEP DEPTH
 NULL.               -999.2500: NULL VALUE
 API .                        :  API NUMBER
 CNTY.                        :  COUNTY
 COMP.                        :  COMPANY
 CTRY.                        :  COUNTRY
 DATE.                        :  DATE
 FLD .                        :  FIELD
 PROV.                        :  PROVINCE
 SRVC.             Halliburton:  SERVICE COMPANY
 STAT.                        :  STATE
 UWI .                        :  UNIQUE WELL IDENTIFIER
 WELL.                        :  WELL
 LOC .                        :  LOCATION
 TDL .ft           1374.671875:  TOTAL DEPTH (LOGGER)
~Parameter Information Block
#MNEM.UNIT       Value        Description
#---------     -----------    ---------------------------
 AV  .fpm           452.755920:  Ann Velocity 
 AVMX.fpm           511.811035:  Max Ann Veloc 
 AZIF.deg           237.779999:  Azm, Final 
 BHAT.        Rotary Steerable:  BHA Type 
 BROT.°/100'          0.030480:  Build Rotating 
 BS  .in              8.500000:  Bit Size 
 BSZ .in              8.500000:  Bit Size 
 BTPL.psig          511.000000:  Bit Press Loss 
 CABU.                      No:  Customer Abuse 
 CGEO.        Jonathan Randles:  Customer Geo 
 COMM.                     ä<]:  Run Comments 1 
 TCS .hr             63.500000:  Time Ciculation Ended 
 CV  .fpm           393.700806:  Crit Velocity 
 CVMX.fpm           393.700806:  Max Crit Veloc 
 DD1 .          Andrey Borodin:  Direct Drillr 1 
 DD2 .           Pierre Giroud:  Direct Drillr 2 
 DDSV.                 iCruise:  DD Service 
 DEFF.%              98.000000:  % Det Eff 
 DEVI.deg            89.040001:  InclinationUp 
 DEVI.deg            89.019997:  InclinationLow 
 DLRX.°/100'          8.818880:  Dogleg Rot Max 
 DLSO.°/100'          2.245360:  Dogleg Oriented 
 DLSX.°/100'          8.818880:  Dogleg Str Max 
 DRET.      01.05.00 01-Sep-21:  Drill End Time 
 DRST.      14.32.10 29-Aug-21:  Drill Start Tim 
 DTIM.hr             44.500000:  Time Drilling 
 EDEP.ft          13077.427734:  End Depth 
 ENG1.           Sergey Burkov:  Engineer 1 
 ENG2.         Ebenezer Parker:  Engineer 2 
 ENG3.            Gerald Natai:  Engineer 3 
 ENG4.         Victor Alvarado:  Engineer 4 
 ETIM.      01.05.00 02-Sep-21:  End Time 
 FLOI.gpm           629.930054:  Flow In 
 FLON.gpm           600.000000:  Flow In Min 
 FLOS.mptm            3.200000:  Fluid Loss 
 FLOX.gpm           650.000000:  Flow In Max 
 HAZI.deg           236.610001:  AzimuthLower 
 HAZI.deg           238.050003:  AzimuthUpper 
 HPRE.                      No:  High Pressure 
 HYDO.ft              0.000000:  Hydro Offset 
 IFIN.deg            91.870003:  Inc, Final 
 IMAX.deg            92.339996:  Inc Max 
 IMIN.deg            84.989998:  Inc Min 
 IMND.ft          12906.824219:  Inc Min Depth 
 IMXD.ft          11745.407227:  Inc Max Depth 
 JARR.                      No:  Jarring 
 LETM.      01.05.00 01-Sep-21:  Log End Time 
 LOST.hr                     0:  Lost Rig Time 
 LSTM.      14.32.10 28-Aug-21:  Log Start Time 
 MDCL.ppm         60000.000000:  Mud Chlorides 
 MDES.             Fresh Water:  Mud Desc 
 DFD .ppg             9.638940:  Mud Density 
 MDMN.ppg             9.597213:  Dens Mud Min 
 MDMX.ppg             9.680667:  Dens Mud Max 
 PH  .pH              9.900000:  Mud pH 
 MOIL.                    0.00:  Run Mud Oil % 
 MSND.                    0.20:  Run Mud Sand % 
 MSOL.                     4.3:  Run Mud Solids% 
 DFV .spqt           47.000000:  Mud Viscosity 
 MWOD.in              6.750000:  MWD Tool OD 
 MWSI.                      No:  Serv Intrp, MWD 
 ORV1.deg             0.000000:  Orientation 1 
 ORV2.deg             0.000000:  Orientation 2 
 OTIM.hr            111.000000:  Time Operating 
 PMAX.psia         9168.941406:  Press Op, Max 
 PV  .cP             12.000000:  Mud PV 
 RMS .ohmm            0.085000:  Mud Resistivity 
 RMCS.ohmm            0.095000:  Mud Cake Resistivity 
 MCST.degF           80.959999:  Mud Cake Sample Temperature 
 RMFS.ohmm            0.080000:  Mud Filtrate Resistivity 
 RMFT.degF           80.959999:  Mud Filtrate Sample Temperature 
 RMMT.ohmm            0.192300:  Rm @ Max Temp 
 MST .degF           80.959999:  Mud Sample Temperature 
 RUN .                     600:  Run Number 
 ROP .fph             0.000000:  ROP Orient Avg 
 ROP .fph            43.143044:  ROP Rot Avg 
 ROPA.fph            43.143044:  ROP Avg 
 ROPN.fph            33.628609:  ROP Min 
 ROPX.fph            44.291336:  ROP Max 
 RPMA.rpm           173.389999:  RPM Surface Avg 
 RPMN.rpm           155.000000:  RPM Surface Min 
 RPMX.rpm           180.000000:  RPM Surface Max 
 RRUN.                     600:  Rig Run Number 
 RTIM.hr             10.500000:  Time Reaming 
 SAZI.deg           236.539993:  Azm, Start 
 SDEP.ft          11158.136719:  Start Depth 
 SDL1.          Christina Sava:  SDL Engineer 1 
 SDL2.         Mohamed Gharieb:  SDL Engineer 2 
 SIDD.                      No:  Serv Intrp, DD 
 SINC.deg            88.860001:  Inc, Start 
 SPPA.psig         2398.194824:  SPP Avg 
 SPPN.psig         2199.985840:  SPP Min 
 SPPX.psig         2519.983887:  SPP Max 
 STIM.      05.37.03 29-Aug-21:  Start Time 
 SVER.                9.200000:  Sperry Version 
 TDAT.ft          11158.136719:  Tot Depth Attmp 
 TDDF.                      No:  Trip for DD 
 TDLG.ft           1374.671875:  Tot Depth Loggd 
 TFF .                      No:  Trip for Fail 
 TQAA.f-p         20745.179688:  Torque Abs Avg 
 TQAN.f-p         17000.000000:  Torque Abs Min 
 TQAX.f-p         25000.000000:  Torque Abs Max 
 TRRT.°/100'          0.081280:  Turn Rotating 
 MRT .                     PWD:  Maximum Recorded Temperature 
 TTMX.degF          102.199997:  Max Tool Temp 
 VS01.                90642082:  Virtual Str1 SN 
 VS02.                90641410:  Virtual Str2 SN 
 VS03.                90645759:  Virtual Str3 SN 
 VS04.                90645758:  Virtual Str4 SN 
 VS05.                90645760:  Virtual Str5 SN 
 VS06.                90641262:  Virtual Str6 SN 
 VS07.                90647660:  Virtual Str7 SN 
 VS08.                13098488:  Virtual Str8 SN 
 VS09.                90642211:  Virtual Str9 SN 
 WBMN.klb             7.000000:  WOB Min 
 WITN.              Johan Roos:  Customer Rep 
 WITN.           Danial Jacobs:  Customer Rep 2 
 WOBA.klb            16.770000:  WOB Avg 
 WOBX.klb            25.000000:  WOB Max 
 YP  .lhf2           20.000000:  Yield Point 
~Curve Information Block
#MNEM.UNIT                 API CODE     Curve Description
#---------               -----------    ---------------------------
 DEPT.F                 00 000 000 000:  Depth
 AFRSAC.ohmm            00 000 000 000:  AFR Shallow Avg Res BC
 AFRMAC.ohmm            00 000 000 000:  AFR Medium Avg Res BC
 AFRDAC.ohmm            00 000 000 000:  AFR Deep Avg Res BC
#Other Information
#
#WARRANTY: Halliburton will use its best efforts to furnish customers with 
#accurate information and interpretations that are part of, and incident to, the services 
#provided.  However, Halliburton cannot and does not warrant the accuracy 
#or correctness of such information and interpretations.  Under no circumstances should any 
#such information or interpretation be relied upon as the sole basis for any drilling, 
#completion, production, or financial decision or any procedure involving any risk to the 
#safety of any drilling venture, drilling rig or its crew or any other third party.  The 
#Customer has full responsibility for all drilling, completion and production operation.  
#Halliburton makes no representations or warranties, either expressed or 
#implied, including, but not limited to, the implied warranties of merchantability or fitness 
#for a particular purpose, with respect to the services rendered.  In no event will 
#Halliburton be liable for failure to obtain any particular results or for 
#any damages, including, but not limited to, indirect, special or consequential damages, 
#resulting from the use of any information or interpretation provided by Halliburton.
#
~A    DEPT     AFRSAC    AFRMAC    AFRDAC   
# ...
   12110.0000   20.0896   37.2107   44.3192
   12110.5000   20.4361   41.2264   47.4651
   12111.0000   22.7959   46.0440   49.6952
   12111.5000   22.8899   41.1079   45.5826
   12112.0000   20.4647   35.3989   40.0706
   12112.5000   22.1703   40.9838   46.8496
   12113.0000   25.3850   49.4202   59.5202
   12113.5000   23.1651   44.4659   55.6423
   12114.0000   23.0217   44.4504   56.2392
   12114.5000   24.7450   48.2438   62.7371
   12115.0000   23.1033   47.5479   62.7618
   12115.5000   20.3163   45.2231   57.7373
   12116.0000   17.9021   42.9695   51.9827
   12116.5000   17.5449   45.2775   53.2677
   12117.0000   17.1155   39.0772   46.7733
   12117.5000   12.9417   21.4555   26.9891
   12118.0000   10.8285   16.9390   22.9327
   12118.5000   12.4741   24.8494   35.9281
   12119.0000   15.6335   38.8057   53.7049
   12119.5000   15.7225   39.9749   51.1953
   12120.0000   12.8254   29.4290   39.0542
   12120.5000   10.2703   21.7226   31.3475
   12121.0000    8.7435   18.9608   28.3225
   12121.5000    7.2028   16.8774   24.0006
   12122.0000    6.1565   16.2496   20.7290
   12122.5000    5.9372   17.6247   21.1922
   12123.0000    6.0143   18.3430   23.2722
   12123.5000    6.0366   18.2884   24.2521
   12124.0000    6.1410   17.9753   24.3338
   12124.5000    6.5849   17.9654   24.8755
   12125.0000    6.9555   17.5072   24.6354
   12125.5000    6.9161   16.3234   22.6684
   12126.0000    7.1410   16.9523   22.0384
   12126.5000    8.7307   22.6916   26.2237
   12127.0000    9.9090   25.3679   27.7560
   12127.5000    9.8075   20.6365   24.0597
   12128.0000   10.4905   18.8102   22.7670
   12128.5000   11.8063   20.6577   24.2737
   12129.0000   13.5355   24.1101   27.1820
   12129.5000   16.1681   28.7901   31.8166
   12130.0000   18.2181   32.5334   35.3390
   12130.5000   18.2137   33.0574   34.3011
   12131.0000   16.6548   27.0085   29.5146
   12131.5000   14.4706   23.3074   24.6007
   12132.0000   13.7591   23.5446   23.0916
   12132.5000   13.1672   22.1389   21.0443
   12133.0000   12.3412   19.0885   18.2630
   12133.5000   12.1813   17.3360   16.9588
   12134.0000   13.7946   18.7957   18.5744
   12134.5000   17.9888   22.9725   24.2517
   12135.0000   24.5556   31.0178   34.5596
   12135.5000   31.1612   39.8951   43.9145
   12136.0000   28.5955   33.4048   36.8443
   12136.5000   25.0100   27.7354   30.6251
   12137.0000   31.6561   37.0207   40.4611
   12137.5000   45.9789   59.1149   65.0101
   12138.0000   40.5551   62.5391   62.9240
   12138.5000   24.0420   43.4427   40.2852
   12139.0000   17.0775   31.9622   29.0680
   12139.5000   14.1982   24.7799   23.0658
   12140.0000   12.1535   21.0696   20.0636
   12140.5000   12.3510   25.0207   23.5312
   12141.0000   14.6920   34.9274   31.9583
   12141.5000   16.2169   38.4228   37.0734
   12142.0000   16.0028   36.4797   37.5789
   12142.5000   16.4431   36.5846   38.7574
   12143.0000   18.7328   38.7410   43.6922
   12143.5000   19.7463   38.5051   48.3444
   12144.0000   20.7877   46.0192   58.5246
   12144.5000   18.0212   49.7488   57.7055
   12145.0000   14.8251   39.1619   44.0343
   12145.5000   12.4884   28.9917   34.4109
   12146.0000   11.2558   25.8519   30.6043
   12146.5000   13.1048   31.4478   35.3527
   12147.0000   17.5685   45.8320   48.4692
   12147.5000   17.8743   50.6383   53.7379
   12148.0000   14.6981   40.2692   45.2481
   12148.5000   13.2352   30.7284   37.1688
   12149.0000   10.8937   22.3495   26.7566
   12149.5000   10.2368   21.0224   23.0272
   12150.0000   12.4042   26.1532   26.3401
   12150.5000   12.6769   25.9136   26.1804
   12151.0000   12.2297   24.4399   25.2242
   12151.5000   11.0310   22.0940   24.8413
   12152.0000    8.2177   17.9834   20.7416
   12152.5000    6.9884   16.0285   18.9822
   12153.0000    6.4144   15.2128   17.8402
   12153.5000    5.2393   12.3043   14.9216
   12154.0000    4.7816   11.4589   13.7230
   12154.5000    4.5337   11.1610   12.7062
   12155.0000    3.7829    9.0570    9.9454
   12155.5000    3.2040    7.5188    8.2716
   12156.0000    2.9879    7.1139    8.0920
   12156.5000    3.3205    7.9987    9.5291
   12157.0000    3.8920    9.1876   11.5762
   12157.5000    4.1882    9.4650   12.5751
   12158.0000    4.4186    9.6372   13.2979
   12158.5000    4.7356   10.3324   14.3888
   12159.0000    4.7436   10.5598   14.0851
   12159.5000    4.4650    9.7753   12.1054
   12160.0000    4.5524    9.4921   11.2711
   12160.5000    4.9885   10.3846   11.8495
   12161.0000    5.6118   12.1923   13.2947
   12161.5000    6.4893   13.9589   15.1854
   12162.0000    7.5359   15.2424   17.3299
   12162.5000    8.9779   17.6368   20.5568
   12163.0000   10.3241   20.4591   23.4828
   12163.5000   10.6478   20.7892   23.2608
   12164.0000   11.8509   22.2176   24.7603
   12164.5000   14.0335   25.8284   28.9066
   12165.0000   14.6257   26.5876   29.1333
   12165.5000   10.8114   16.7426   17.1605
   12166.0000    8.2038   10.9612   10.4672
   12166.5000    7.2392    9.3952    8.7374
   12167.0000    6.7932    9.1198    8.5341
   12167.5000    6.1599    8.6255    7.9923
   12168.0000    5.7151    8.3628    7.7454
   12168.5000    5.8574    8.9832    8.6123
   12169.0000    5.9898    9.5760    9.6080
   12169.5000    5.4537    8.7429    9.1457
   12170.0000    5.0671    8.0899    8.6443
   12170.5000    4.7805    7.6062    8.2142
   12171.0000    4.4689    7.2107    7.7382
   12171.5000    4.3328    6.9944    7.6382
   12172.0000    4.1968    6.8331    7.6259
   12172.5000    3.8810    6.4422    7.2632
   12173.0000    3.7010    6.2698    7.2018
   12173.5000    3.7194    6.5401    7.6922
   12174.0000    3.8266    7.0587    8.4050
   12174.5000    3.6757    6.9462    8.3695
   12175.0000    3.3745    6.4480    7.7125
   12175.5000    3.0326    5.7718    6.7832
   12176.0000    2.7973    5.2908    6.1651
   12176.5000    2.7839    5.4869    6.2598
   12177.0000    2.8798    6.1141    6.7494
   12177.5000    2.9763    6.6352    7.1589
   12178.0000    3.1180    7.0927    7.6465
   12178.5000    3.3517    7.5766    8.5059
   12179.0000    3.7349    8.2308    9.7678
   12179.5000    4.2307    9.0025   10.9114
   12180.0000    4.8367    9.9051   11.8373
   12180.5000    5.5108   11.0042   12.7053
   12181.0000    6.5195   13.0300   14.4224
   12181.5000    7.7682   15.0024   16.4441
   12182.0000    8.2962   14.5340   16.3398
   12182.5000    7.9174   12.4672   13.9616
   12183.0000    7.4809   10.1752   11.6510
   12183.5000    7.4590    9.9466   10.8785
   12184.0000    7.1931   10.9694   10.4348
   12184.5000    6.7852   10.8324    9.7963
   12185.0000    6.6425   10.3285    9.2092
   12185.5000    6.2022    9.1561    8.0790
   12186.0000    5.5367    7.7693    6.8472
   12186.5000    5.3867    7.4440    6.6669
   12187.0000    6.2217    8.5780    7.9884
   12187.5000    7.2523    9.7155    9.4234
   12188.0000    8.1670   10.6454   10.6803
   12188.5000   10.5447   14.0586   14.4355
   12189.0000   12.4474   16.5368   17.6285
   12189.5000   10.4903   13.4532   14.1103
   12190.0000    7.9913   10.1266   10.0356
   12190.5000    6.8595    8.8357    8.2641
   12191.0000    6.7821    8.8600    8.0402
   12191.5000    6.4709    8.4820    7.7993
   12192.0000    6.1910    8.1631    7.6151
   12192.5000    6.6137    8.8429    8.1584
   12193.0000    6.6294    9.1464    8.2812
   12193.5000    6.5293    8.9947    8.4212
   12194.0000    7.0878    9.5979    9.5065
   12194.5000    7.4397   10.3038   10.1108
   12195.0000    7.3662   10.3567    9.8861
   12195.5000    7.5008   10.0692   10.0406
   12196.0000    7.3116    9.9371    9.7277
   12196.5000    7.1515   10.3425    9.3232
   12197.0000    6.4292    9.0278    7.9119
   12197.5000    5.6729    7.2342    6.5673
   12198.0000    5.5360    6.7473    6.1646
   12198.5000    5.3557    6.6371    6.0667
   12199.0000    5.6081    7.1764    6.7607
   12199.5000    6.2942    8.3730    8.1036
   12200.0000    6.3260    8.6259    8.4354
   12200.5000    5.7136    7.7706    7.7055
