~Version Information
 VERS.                  2.0:   CWLS log ASCII Standard -VERSION 2.0
 WRAP.                   NO:   One line per depth step
~Well Information Block
#MNEM.UNIT     VALUE/NAME     DESCRIPTION
#---------     -----------    ---------------------------
 STRT.F             10927.0000: START DEPTH
 STOP.F             12844.5000: STOP DEPTH
 STEP.F                 0.5000: STEP DEPTH
 NULL.               -999.2500: NULL VALUE
 API .                        :  API NUMBER
 CNTY.                        :  COUNTY
 COMP.                        :  COMPANY
 CTRY.                        :  COUNTRY
 DATE.                        :  DATE
 FLD .                        :  FIELD
 PROV.                        :  PROVINCE
 SRVC.             Halliburton:  SERVICE COMPANY
 STAT.                        :  STATE
 UWI .                        :  UNIQUE WELL IDENTIFIER
 WELL.                        :  WELL
 LOC .                        :  LOCATION
 TDL .ft           1374.671875:  TOTAL DEPTH (LOGGER)
~Parameter Information Block
#MNEM.UNIT       Value        Description
#---------     -----------    ---------------------------
 AV  .fpm           452.755920:  Ann Velocity 
 AVMX.fpm           511.811035:  Max Ann Veloc 
 AZIF.deg           237.779999:  Azm, Final 
 BHAT.        Rotary Steerable:  BHA Type 
 BROT.°/100'          0.030480:  Build Rotating 
 BS  .in              8.500000:  Bit Size 
 BSZ .in              8.500000:  Bit Size 
 BTPL.psig          511.000000:  Bit Press Loss 
 CABU.                      No:  Customer Abuse 
 CGEO.        Jonathan Randles:  Customer Geo 
 COMM.                     ä<]:  Run Comments 1 
 TCS .hr             63.500000:  Time Ciculation Ended 
 CV  .fpm           393.700806:  Crit Velocity 
 CVMX.fpm           393.700806:  Max Crit Veloc 
 DD1 .          Andrey Borodin:  Direct Drillr 1 
 DD2 .           Pierre Giroud:  Direct Drillr 2 
 DDSV.                 iCruise:  DD Service 
 DEFF.%              98.000000:  % Det Eff 
 DEVI.deg            89.040001:  InclinationUp 
 DEVI.deg            89.019997:  InclinationLow 
 DLRX.°/100'          8.818880:  Dogleg Rot Max 
 DLSO.°/100'          2.245360:  Dogleg Oriented 
 DLSX.°/100'          8.818880:  Dogleg Str Max 
 DRET.      01.05.00 01-Sep-21:  Drill End Time 
 DRST.      14.32.10 29-Aug-21:  Drill Start Tim 
 DTIM.hr             44.500000:  Time Drilling 
 EDEP.ft          13077.427734:  End Depth 
 ENG1.           Sergey Burkov:  Engineer 1 
 ENG2.         Ebenezer Parker:  Engineer 2 
 ENG3.            Gerald Natai:  Engineer 3 
 ENG4.         Victor Alvarado:  Engineer 4 
 ETIM.      01.05.00 02-Sep-21:  End Time 
 FLOI.gpm           629.930054:  Flow In 
 FLON.gpm           600.000000:  Flow In Min 
 FLOS.mptm            3.200000:  Fluid Loss 
 FLOX.gpm           650.000000:  Flow In Max 
 HAZI.deg           236.610001:  AzimuthLower 
 HAZI.deg           238.050003:  AzimuthUpper 
 HPRE.                      No:  High Pressure 
 HYDO.ft              0.000000:  Hydro Offset 
 IFIN.deg            91.870003:  Inc, Final 
 IMAX.deg            92.339996:  Inc Max 
 IMIN.deg            84.989998:  Inc Min 
 IMND.ft          12906.824219:  Inc Min Depth 
 IMXD.ft          11745.407227:  Inc Max Depth 
 JARR.                      No:  Jarring 
 LETM.      01.05.00 01-Sep-21:  Log End Time 
 LOST.hr                     0:  Lost Rig Time 
 LSTM.      14.32.10 28-Aug-21:  Log Start Time 
 MDCL.ppm         60000.000000:  Mud Chlorides 
 MDES.             Fresh Water:  Mud Desc 
 DFD .ppg             9.638940:  Mud Density 
 MDMN.ppg             9.597213:  Dens Mud Min 
 MDMX.ppg             9.680667:  Dens Mud Max 
 PH  .pH              9.900000:  Mud pH 
 MOIL.                    0.00:  Run Mud Oil % 
 MSND.                    0.20:  Run Mud Sand % 
 MSOL.                     4.3:  Run Mud Solids% 
 DFV .spqt           47.000000:  Mud Viscosity 
 MWOD.in              6.750000:  MWD Tool OD 
 MWSI.                      No:  Serv Intrp, MWD 
 ORV1.deg             0.000000:  Orientation 1 
 ORV2.deg             0.000000:  Orientation 2 
 OTIM.hr            111.000000:  Time Operating 
 PMAX.psia         9168.941406:  Press Op, Max 
 PV  .cP             12.000000:  Mud PV 
 RMS .ohmm            0.085000:  Mud Resistivity 
 RMCS.ohmm            0.095000:  Mud Cake Resistivity 
 MCST.degF           80.959999:  Mud Cake Sample Temperature 
 RMFS.ohmm            0.080000:  Mud Filtrate Resistivity 
 RMFT.degF           80.959999:  Mud Filtrate Sample Temperature 
 RMMT.ohmm            0.192300:  Rm @ Max Temp 
 MST .degF           80.959999:  Mud Sample Temperature 
 RUN .                     600:  Run Number 
 ROP .fph             0.000000:  ROP Orient Avg 
 ROP .fph            43.143044:  ROP Rot Avg 
 ROPA.fph            43.143044:  ROP Avg 
 ROPN.fph            33.628609:  ROP Min 
 ROPX.fph            44.291336:  ROP Max 
 RPMA.rpm           173.389999:  RPM Surface Avg 
 RPMN.rpm           155.000000:  RPM Surface Min 
 RPMX.rpm           180.000000:  RPM Surface Max 
 RRUN.                     600:  Rig Run Number 
 RTIM.hr             10.500000:  Time Reaming 
 SAZI.deg           236.539993:  Azm, Start 
 SDEP.ft          11158.136719:  Start Depth 
 SDL1.          Christina Sava:  SDL Engineer 1 
 SDL2.         Mohamed Gharieb:  SDL Engineer 2 
 SIDD.                      No:  Serv Intrp, DD 
 SINC.deg            88.860001:  Inc, Start 
 SPPA.psig         2398.194824:  SPP Avg 
 SPPN.psig         2199.985840:  SPP Min 
 SPPX.psig         2519.983887:  SPP Max 
 STIM.      05.37.03 29-Aug-21:  Start Time 
 SVER.                9.200000:  Sperry Version 
 TDAT.ft          11158.136719:  Tot Depth Attmp 
 TDDF.                      No:  Trip for DD 
 TDLG.ft           1374.671875:  Tot Depth Loggd 
 TFF .                      No:  Trip for Fail 
 TQAA.f-p         20745.179688:  Torque Abs Avg 
 TQAN.f-p         17000.000000:  Torque Abs Min 
 TQAX.f-p         25000.000000:  Torque Abs Max 
 TRRT.°/100'          0.081280:  Turn Rotating 
 MRT .                     PWD:  Maximum Recorded Temperature 
 TTMX.degF          102.199997:  Max Tool Temp 
 VS01.                90642082:  Virtual Str1 SN 
 VS02.                90641410:  Virtual Str2 SN 
 VS03.                90645759:  Virtual Str3 SN 
 VS04.                90645758:  Virtual Str4 SN 
 VS05.                90645760:  Virtual Str5 SN 
 VS06.                90641262:  Virtual Str6 SN 
 VS07.                90647660:  Virtual Str7 SN 
 VS08.                13098488:  Virtual Str8 SN 
 VS09.                90642211:  Virtual Str9 SN 
 WBMN.klb             7.000000:  WOB Min 
 WITN.              Johan Roos:  Customer Rep 
 WITN.           Danial Jacobs:  Customer Rep 2 
 WOBA.klb            16.770000:  WOB Avg 
 WOBX.klb            25.000000:  WOB Max 
 YP  .lhf2           20.000000:  Yield Point 
~Curve Information Block
#MNEM.UNIT                 API CODE     Curve Description
#---------               -----------    ---------------------------
 DEPT.F                 00 000 000 000:  Depth
 AFRSAC.ohmm            00 000 000 000:  AFR Shallow Avg Res BC
 AFRMAC.ohmm            00 000 000 000:  AFR Medium Avg Res BC
 AFRDAC.ohmm            00 000 000 000:  AFR Deep Avg Res BC
#Other Information
#
#WARRANTY: Halliburton will use its best efforts to furnish customers with 
#accurate information and interpretations that are part of, and incident to, the services 
#provided.  However, Halliburton cannot and does not warrant the accuracy 
#or correctness of such information and interpretations.  Under no circumstances should any 
#such information or interpretation be relied upon as the sole basis for any drilling, 
#completion, production, or financial decision or any procedure involving any risk to the 
#safety of any drilling venture, drilling rig or its crew or any other third party.  The 
#Customer has full responsibility for all drilling, completion and production operation.  
#Halliburton makes no representations or warranties, either expressed or 
#implied, including, but not limited to, the implied warranties of merchantability or fitness 
#for a particular purpose, with respect to the services rendered.  In no event will 
#Halliburton be liable for failure to obtain any particular results or for 
#any damages, including, but not limited to, indirect, special or consequential damages, 
#resulting from the use of any information or interpretation provided by Halliburton.
#
~A    DEPT     AFRSAC    AFRMAC    AFRDAC   
# ...
   11746.0000    6.5672   92.6811  102.7220
   11746.5000    6.4979   85.8852  102.7775
   11747.0000    6.5190   82.6732  103.4614
   11747.5000    6.7403   83.2050  104.7880
   11748.0000    6.9769   86.2199  108.0953
   11748.5000    7.0504   90.0810  114.0719
   11749.0000    7.0575   91.5805  117.0533
   11749.5000    7.1142   90.0081  113.6431
   11750.0000    6.9356   86.8494  107.9474
   11750.5000    6.6656   84.2040  103.7750
   11751.0000    6.7246   83.1838  101.2418
   11751.5000    6.9565   83.2418  101.3023
   11752.0000    6.8538   83.0649  103.3086
   11752.5000    6.5917   82.9686  105.0291
   11753.0000    6.6264   82.5659  105.9571
   11753.5000    6.7404   82.2889  106.2692
   11754.0000    6.6845   81.2962  105.2711
   11754.5000    6.6912   80.4774  104.9214
   11755.0000    6.7740   81.0769  106.6319
   11755.5000    6.8018   82.0663  109.4471
   11756.0000    6.7543   81.9230  110.0304
   11756.5000    6.6533   80.3310  108.7379
   11757.0000    6.5851   78.7708  108.6527
   11757.5000    6.6032   79.0307  109.3723
   11758.0000    6.6445   78.5308  108.3493
   11758.5000    6.5650   77.3366  105.8669
   11759.0000    6.3812   77.6044  105.1088
   11759.5000    6.2442   79.7444  107.6096
   11760.0000    6.3063   83.2119  111.9031
   11760.5000    6.5436   86.4531  116.4427
   11761.0000    6.6560   85.9406  116.5432
   11761.5000    6.6488   82.2162  109.7181
   11762.0000    6.6595   80.4021  104.2786
   11762.5000    6.5811   83.3001  105.0379
   11763.0000    6.5520   87.3908  105.4149
   11763.5000    6.5484   90.2400  105.8490
   11764.0000    6.5960   91.1913  107.0290
   11764.5000    6.6553   88.0563  101.3890
   11765.0000    6.8231   86.9044   98.4301
   11765.5000    7.0652   87.1945  100.2166
   11766.0000    7.1274   86.6723  101.1371
   11766.5000    7.0691   89.4783  103.8174
   11767.0000    7.2063   94.6806  113.8840
   11767.5000    7.3348  103.9103  126.4062
   11768.0000    7.1389  110.7554  127.7491
   11768.5000    6.8811  106.5548  117.9145
   11769.0000    6.8153  101.2913  112.2934
   11769.5000    6.7657   99.6229  111.9500
   11770.0000    6.7335  100.6914  113.8170
   11770.5000    6.7820  103.6156  115.5220
   11771.0000    6.8565  107.5757  118.9676
   11771.5000    6.8592  110.8631  122.0460
   11772.0000    6.8313  105.4644  116.8664
   11772.5000    6.7291   94.2999  102.8019
   11773.0000    6.7245   93.4402   99.2799
   11773.5000    6.8484  101.6567  108.1813
   11774.0000    6.9339  106.2530  115.2811
   11774.5000    6.9576  106.3892  115.0245
   11775.0000    6.9683  103.8893  111.8500
   11775.5000    6.9734  101.8931  110.1471
   11776.0000    7.0333  101.0388  109.6255
   11776.5000    7.1263  100.1892  108.4344
   11777.0000    7.2177   99.0853  106.9207
   11777.5000    7.2300   98.6795  106.2269
   11778.0000    7.2151   99.2505  105.9402
   11778.5000    7.2624   99.6350  105.7172
   11779.0000    7.3497   98.9285  105.3621
   11779.5000    7.4473   98.6038  105.2428
   11780.0000    7.6910   98.7737  105.8961
   11780.5000    8.0330   97.7285  105.4640
   11781.0000    8.2584   97.3505  105.1292
   11781.5000    8.5014  101.5280  110.5045
   11782.0000    8.5941  104.7861  115.4982
   11782.5000    8.3260  101.4682  113.5933
   11783.0000    7.9827   98.6655  112.3167
   11783.5000    7.5666   97.3497  112.3036
   11784.0000    7.1987   95.8306  111.2518
   11784.5000    7.1235   94.7397  112.0230
   11785.0000    6.9625   90.7261  111.3087
   11785.5000    6.6679   87.5506  110.8892
   11786.0000    6.4474   86.8181  110.6434
   11786.5000    6.2062   83.9485  106.2936
   11787.0000    5.9885   80.8648  101.6358
   11787.5000    5.8078   79.9606  101.5677
   11788.0000    5.6572   79.6259  102.8253
   11788.5000    5.5682   79.4268  101.0310
   11789.0000    5.5869   78.9610  100.1758
   11789.5000    5.6262   80.2725  102.2744
   11790.0000    5.6769   84.2409  105.5864
   11790.5000    5.8033   85.9729  108.3711
   11791.0000    6.0669   86.3336  109.2643
   11791.5000    6.2651   86.7984  107.3711
   11792.0000    6.4158   88.0325  106.5819
   11792.5000    6.5720   89.3376  105.2022
   11793.0000    6.6988   89.9042  103.1232
   11793.5000    6.7795   90.7189  103.7211
   11794.0000    7.0003   92.8789  107.5137
   11794.5000    7.2270   96.8553  111.7667
   11795.0000    7.3319  102.0423  115.0851
   11795.5000    7.4588  106.3461  116.5971
   11796.0000    7.7183  109.7238  118.1891
   11796.5000    7.9790  108.4960  116.8887
   11797.0000    8.1560   94.5055  104.6331
   11797.5000    8.1994   85.7494   92.4130
   11798.0000    8.2107   94.9586   97.7676
   11798.5000    8.1300  112.4106  115.1600
   11799.0000    7.8596  121.2312  124.8844
   11799.5000    7.5941  120.7970  126.9757
   11800.0000    7.4169  117.0436  125.0549
   11800.5000    7.3195  114.0341  122.4145
   11801.0000    7.2911  113.0896  120.8835
   11801.5000    7.2339  114.0233  119.1600
   11802.0000    7.1908  115.7362  118.7329
   11802.5000    7.1888  116.3581  119.1122
   11803.0000    7.1335  115.2495  119.0582
   11803.5000    6.9901  114.2400  119.9628
   11804.0000    6.8803  115.0613  122.3199
   11804.5000    6.8075  116.6169  124.5770
   11805.0000    6.6192  118.1476  126.3569
   11805.5000    6.3308  118.9309  126.9861
   11806.0000    6.0645  117.0310  124.2051
   11806.5000    5.9245  113.3548  121.4495
   11807.0000    5.8744  110.5457  120.7434
   11807.5000    5.8854  111.6914  121.5915
   11808.0000    5.9532  113.4928  122.7439
   11808.5000    5.9634  113.1711  121.9987
   11809.0000    5.9515  112.9649  121.0943
   11809.5000    6.1288  115.1929  123.9713
   11810.0000    6.3860  118.1877  127.4026
   11810.5000    6.5403  120.6162  128.6404
   11811.0000    6.7115  122.6148  129.1827
   11811.5000    6.9502  124.7138  130.5001
   11812.0000    7.1863  124.3939  132.4063
   11812.5000    7.2300  121.7432  130.1607
   11813.0000    7.0536  120.1593  127.2025
   11813.5000    6.9483  119.7365  126.2657
   11814.0000    6.9517  117.6124  123.6458
   11814.5000    6.8952  117.7512  123.4306
   11815.0000    6.8632  119.0243  125.0482
   11815.5000    6.9515  118.7294  124.6042
   11816.0000    7.0603  118.0030  124.0751
   11816.5000    7.1550  120.0061  126.4626
   11817.0000    7.3637  122.3197  128.6399
   11817.5000    7.6417  124.3992  130.4469
   11818.0000    7.8157  127.6297  133.5864
   11818.5000    7.7942  129.4870  134.3573
   11819.0000    7.6500  128.3957  131.5606
   11819.5000    7.7679  128.3821  132.6736
   11820.0000    8.1830  130.5986  141.3549
   11820.5000    8.2686  131.0796  144.0876
   11821.0000    7.9734  130.4002  137.3546
   11821.5000    7.7768  130.7207  133.3428
   11822.0000    7.8761  133.1154  135.3857
   11822.5000    8.0706  136.5601  139.2832
   11823.0000    8.1579  136.2255  140.3560
   11823.5000    8.1285  132.8020  138.5520
   11824.0000    8.1180  130.0321  136.8959
   11824.5000    8.0694  130.6981  136.6076
   11825.0000    7.9862  133.6867  137.8764
   11825.5000    8.0882  134.4434  139.0853
   11826.0000    8.2124  132.9703  138.8568
   11826.5000    8.1847  131.9200  138.1681
   11827.0000    8.1518  130.2055  136.5182
   11827.5000    8.1382  128.6506  136.6064
   11828.0000    8.0720  126.6633  136.5184
   11828.5000    7.9476  122.7156  133.0319
   11829.0000    7.7039  122.3209  131.2195
   11829.5000    7.5256  125.2977  132.0677
   11830.0000    7.5769  126.5740  132.2645
   11830.5000    7.5275  125.4528  130.5285
   11831.0000    7.3150  123.1517  127.9767
   11831.5000    7.1743  121.2747  126.0298
   11832.0000    7.1459  117.7105  125.0535
   11832.5000    7.1108  111.1367  122.9379
   11833.0000    7.0222  105.7965  119.6930
   11833.5000    6.8198  104.9757  117.2852
   11834.0000    6.5019  105.5839  116.0176
   11834.5000    6.3317  106.6129  114.9976
   11835.0000    6.4220  107.3505  115.5561
   11835.5000    6.4870  106.8249  116.5247
   11836.0000    6.3917  106.5257  116.4846
   11836.5000    6.2546  106.3156  115.9338
