~Version Information
 VERS.                  2.0:   CWLS log ASCII Standard -VERSION 2.0
 WRAP.                   NO:   One line per depth step
~Well Information Block
#MNEM.UNIT     VALUE/NAME     DESCRIPTION
#---------     -----------    ---------------------------
 STRT.F             10927.0000: START DEPTH
 STOP.F             12844.5000: STOP DEPTH
 STEP.F                 0.5000: STEP DEPTH
 NULL.               -999.2500: NULL VALUE
 API .                        :  API NUMBER
 CNTY.                        :  COUNTY
 COMP.                        :  COMPANY
 CTRY.                        :  COUNTRY
 DATE.                        :  DATE
 FLD .                        :  FIELD
 PROV.                        :  PROVINCE
 SRVC.             Halliburton:  SERVICE COMPANY
 STAT.                        :  STATE
 UWI .                        :  UNIQUE WELL IDENTIFIER
 WELL.                        :  WELL
 LOC .                        :  LOCATION
 TDL .ft           1374.671875:  TOTAL DEPTH (LOGGER)
~Parameter Information Block
#MNEM.UNIT       Value        Description
#---------     -----------    ---------------------------
 AV  .fpm           452.755920:  Ann Velocity 
 AVMX.fpm           511.811035:  Max Ann Veloc 
 AZIF.deg           237.779999:  Azm, Final 
 BHAT.        Rotary Steerable:  BHA Type 
 BROT.°/100'          0.030480:  Build Rotating 
 BS  .in              8.500000:  Bit Size 
 BSZ .in              8.500000:  Bit Size 
 BTPL.psig          511.000000:  Bit Press Loss 
 CABU.                      No:  Customer Abuse 
 CGEO.        Jonathan Randles:  Customer Geo 
 COMM.                     ä<]:  Run Comments 1 
 TCS .hr             63.500000:  Time Ciculation Ended 
 CV  .fpm           393.700806:  Crit Velocity 
 CVMX.fpm           393.700806:  Max Crit Veloc 
 DD1 .          Andrey Borodin:  Direct Drillr 1 
 DD2 .           Pierre Giroud:  Direct Drillr 2 
 DDSV.                 iCruise:  DD Service 
 DEFF.%              98.000000:  % Det Eff 
 DEVI.deg            89.040001:  InclinationUp 
 DEVI.deg            89.019997:  InclinationLow 
 DLRX.°/100'          8.818880:  Dogleg Rot Max 
 DLSO.°/100'          2.245360:  Dogleg Oriented 
 DLSX.°/100'          8.818880:  Dogleg Str Max 
 DRET.      01.05.00 01-Sep-21:  Drill End Time 
 DRST.      14.32.10 29-Aug-21:  Drill Start Tim 
 DTIM.hr             44.500000:  Time Drilling 
 EDEP.ft          13077.427734:  End Depth 
 ENG1.           Sergey Burkov:  Engineer 1 
 ENG2.         Ebenezer Parker:  Engineer 2 
 ENG3.            Gerald Natai:  Engineer 3 
 ENG4.         Victor Alvarado:  Engineer 4 
 ETIM.      01.05.00 02-Sep-21:  End Time 
 FLOI.gpm           629.930054:  Flow In 
 FLON.gpm           600.000000:  Flow In Min 
 FLOS.mptm            3.200000:  Fluid Loss 
 FLOX.gpm           650.000000:  Flow In Max 
 HAZI.deg           236.610001:  AzimuthLower 
 HAZI.deg           238.050003:  AzimuthUpper 
 HPRE.                      No:  High Pressure 
 HYDO.ft              0.000000:  Hydro Offset 
 IFIN.deg            91.870003:  Inc, Final 
 IMAX.deg            92.339996:  Inc Max 
 IMIN.deg            84.989998:  Inc Min 
 IMND.ft          12906.824219:  Inc Min Depth 
 IMXD.ft          11745.407227:  Inc Max Depth 
 JARR.                      No:  Jarring 
 LETM.      01.05.00 01-Sep-21:  Log End Time 
 LOST.hr                     0:  Lost Rig Time 
 LSTM.      14.32.10 28-Aug-21:  Log Start Time 
 MDCL.ppm         60000.000000:  Mud Chlorides 
 MDES.             Fresh Water:  Mud Desc 
 DFD .ppg             9.638940:  Mud Density 
 MDMN.ppg             9.597213:  Dens Mud Min 
 MDMX.ppg             9.680667:  Dens Mud Max 
 PH  .pH              9.900000:  Mud pH 
 MOIL.                    0.00:  Run Mud Oil % 
 MSND.                    0.20:  Run Mud Sand % 
 MSOL.                     4.3:  Run Mud Solids% 
 DFV .spqt           47.000000:  Mud Viscosity 
 MWOD.in              6.750000:  MWD Tool OD 
 MWSI.                      No:  Serv Intrp, MWD 
 ORV1.deg             0.000000:  Orientation 1 
 ORV2.deg             0.000000:  Orientation 2 
 OTIM.hr            111.000000:  Time Operating 
 PMAX.psia         9168.941406:  Press Op, Max 
 PV  .cP             12.000000:  Mud PV 
 RMS .ohmm            0.085000:  Mud Resistivity 
 RMCS.ohmm            0.095000:  Mud Cake Resistivity 
 MCST.degF           80.959999:  Mud Cake Sample Temperature 
 RMFS.ohmm            0.080000:  Mud Filtrate Resistivity 
 RMFT.degF           80.959999:  Mud Filtrate Sample Temperature 
 RMMT.ohmm            0.192300:  Rm @ Max Temp 
 MST .degF           80.959999:  Mud Sample Temperature 
 RUN .                     600:  Run Number 
 ROP .fph             0.000000:  ROP Orient Avg 
 ROP .fph            43.143044:  ROP Rot Avg 
 ROPA.fph            43.143044:  ROP Avg 
 ROPN.fph            33.628609:  ROP Min 
 ROPX.fph            44.291336:  ROP Max 
 RPMA.rpm           173.389999:  RPM Surface Avg 
 RPMN.rpm           155.000000:  RPM Surface Min 
 RPMX.rpm           180.000000:  RPM Surface Max 
 RRUN.                     600:  Rig Run Number 
 RTIM.hr             10.500000:  Time Reaming 
 SAZI.deg           236.539993:  Azm, Start 
 SDEP.ft          11158.136719:  Start Depth 
 SDL1.          Christina Sava:  SDL Engineer 1 
 SDL2.         Mohamed Gharieb:  SDL Engineer 2 
 SIDD.                      No:  Serv Intrp, DD 
 SINC.deg            88.860001:  Inc, Start 
 SPPA.psig         2398.194824:  SPP Avg 
 SPPN.psig         2199.985840:  SPP Min 
 SPPX.psig         2519.983887:  SPP Max 
 STIM.      05.37.03 29-Aug-21:  Start Time 
 SVER.                9.200000:  Sperry Version 
 TDAT.ft          11158.136719:  Tot Depth Attmp 
 TDDF.                      No:  Trip for DD 
 TDLG.ft           1374.671875:  Tot Depth Loggd 
 TFF .                      No:  Trip for Fail 
 TQAA.f-p         20745.179688:  Torque Abs Avg 
 TQAN.f-p         17000.000000:  Torque Abs Min 
 TQAX.f-p         25000.000000:  Torque Abs Max 
 TRRT.°/100'          0.081280:  Turn Rotating 
 MRT .                     PWD:  Maximum Recorded Temperature 
 TTMX.degF          102.199997:  Max Tool Temp 
 VS01.                90642082:  Virtual Str1 SN 
 VS02.                90641410:  Virtual Str2 SN 
 VS03.                90645759:  Virtual Str3 SN 
 VS04.                90645758:  Virtual Str4 SN 
 VS05.                90645760:  Virtual Str5 SN 
 VS06.                90641262:  Virtual Str6 SN 
 VS07.                90647660:  Virtual Str7 SN 
 VS08.                13098488:  Virtual Str8 SN 
 VS09.                90642211:  Virtual Str9 SN 
 WBMN.klb             7.000000:  WOB Min 
 WITN.              Johan Roos:  Customer Rep 
 WITN.           Danial Jacobs:  Customer Rep 2 
 WOBA.klb            16.770000:  WOB Avg 
 WOBX.klb            25.000000:  WOB Max 
 YP  .lhf2           20.000000:  Yield Point 
~Curve Information Block
#MNEM.UNIT                 API CODE     Curve Description
#---------               -----------    ---------------------------
 DEPT.F                 00 000 000 000:  Depth
 AFRSAC.ohmm            00 000 000 000:  AFR Shallow Avg Res BC
 AFRMAC.ohmm            00 000 000 000:  AFR Medium Avg Res BC
 AFRDAC.ohmm            00 000 000 000:  AFR Deep Avg Res BC
#Other Information
#
#WARRANTY: Halliburton will use its best efforts to furnish customers with 
#accurate information and interpretations that are part of, and incident to, the services 
#provided.  However, Halliburton cannot and does not warrant the accuracy 
#or correctness of such information and interpretations.  Under no circumstances should any 
#such information or interpretation be relied upon as the sole basis for any drilling, 
#completion, production, or financial decision or any procedure involving any risk to the 
#safety of any drilling venture, drilling rig or its crew or any other third party.  The 
#Customer has full responsibility for all drilling, completion and production operation.  
#Halliburton makes no representations or warranties, either expressed or 
#implied, including, but not limited to, the implied warranties of merchantability or fitness 
#for a particular purpose, with respect to the services rendered.  In no event will 
#Halliburton be liable for failure to obtain any particular results or for 
#any damages, including, but not limited to, indirect, special or consequential damages, 
#resulting from the use of any information or interpretation provided by Halliburton.
#
~A    DEPT     AFRSAC    AFRMAC    AFRDAC   
# ...
   12292.0000   99.4780  158.6216  148.8952
   12292.5000   82.9754   92.1108  101.1860
   12293.0000   26.8931   28.1102   27.5331
   12293.5000   18.1170   19.5644   18.0331
   12294.0000   28.2367   36.7570   35.0522
   12294.5000   73.6952  131.8022  138.1937
   12295.0000   79.7862  155.9232  155.4616
   12295.5000   37.1000   66.2379   69.9545
   12296.0000   15.6032   24.7408   27.2857
   12296.5000    8.7857   13.5011   14.5971
   12297.0000    7.0654   11.8831   12.6106
   12297.5000    6.4859   12.8610   13.7604
   12298.0000    6.3135   13.8722   14.8251
   12298.5000    5.9607   14.7868   15.0130
   12299.0000    5.7193   15.6804   16.2218
   12299.5000    6.1143   17.2906   19.3025
   12300.0000    5.7362   16.3775   18.8403
   12300.5000    4.6874   13.3487   15.5141
   12301.0000    4.5196   13.7843   16.3112
   12301.5000    5.0214   18.1708   22.3092
   12302.0000    5.8698   26.7157   34.3153
   12302.5000    7.3441   38.8920   52.0434
   12303.0000    9.2904   46.6632   64.8726
   12303.5000   10.4698   54.5233   75.0533
   12304.0000   10.7610   52.8379   68.3607
   12304.5000    9.8003   32.3056   40.4592
   12305.0000    8.9384   20.8418   25.2464
   12305.5000   11.3064   21.7343   24.8935
   12306.0000   13.8419   23.5227   25.4503
   12306.5000   14.1575   23.1686   21.2320
   12307.0000   10.5218   16.7536   12.4810
   12307.5000    8.7336   10.9691   10.1410
   12308.0000   11.2205   11.9917   14.9161
   12308.5000   13.1824   15.0765   18.9153
   12309.0000   11.1211   14.5766   15.6861
   12309.5000   11.9582   16.9728   16.4519
   12310.0000   14.6424   19.9376   20.1927
   12310.5000   13.0514   18.9734   18.3784
   12311.0000    9.7840   14.0026   13.3634
   12311.5000    8.5293   11.3909   11.2476
   12312.0000    9.0897   12.8110   12.2426
   12312.5000   10.4440   16.4895   14.9778
   12313.0000   11.0743   17.7602   16.5758
   12313.5000    9.7789   15.2664   14.6505
   12314.0000    8.8590   13.4748   13.2104
   12314.5000    9.3169   13.9886   14.4141
   12315.0000   10.8400   16.8942   18.6016
   12315.5000   13.5667   22.4699   25.5455
   12316.0000   16.6088   29.2452   32.7741
   12316.5000   17.2656   30.9284   34.3525
   12317.0000   16.4591   28.4596   32.5198
   12317.5000   16.1153   27.8261   32.9921
   12318.0000   13.3880   23.1033   27.0964
   12318.5000   10.7003   18.1024   20.5111
   12319.0000   10.0081   18.5929   19.9497
   12319.5000    9.3339   19.8342   20.5753
   12320.0000    8.7951   18.8680   20.0143
   12320.5000    8.5156   17.7603   19.0777
   12321.0000    7.7911   16.8143   17.2342
   12321.5000    7.6102   16.6418   17.0678
   12322.0000    7.4820   16.1767   16.9908
   12322.5000    7.0536   14.6693   15.7069
   12323.0000    6.9763   13.8688   15.1372
   12323.5000    7.6243   14.7431   16.4797
   12324.0000    8.6739   16.4753   18.4970
   12324.5000    8.9754   15.9830   17.9668
   12325.0000    8.5339   13.7811   15.6033
   12325.5000    7.7516   11.4410   12.9619
   12326.0000    7.0364    9.7860   10.5833
   12326.5000    6.9334    9.8563    9.6321
   12327.0000    7.3847   11.3129    9.7733
   12327.5000    7.8890   11.7604   10.0174
   12328.0000    8.2061   10.9358    9.5844
   12328.5000    7.8886    9.1856    8.1270
   12329.0000    8.1843    9.3982    7.7993
   12329.5000   13.5470   16.6503   13.5556
   12330.0000   40.2391   48.9739   45.8629
   12330.5000   83.9577  108.2546  103.3433
   12331.0000  106.5197  140.9533  131.4246
   12331.5000  121.8789  146.8680  140.1216
   12332.0000  139.2917  147.8795  144.5635
   12332.5000  155.6518  168.7486  149.9368
   12333.0000  199.2978  231.8179  192.7038
   12333.5000  262.0264  311.9186  262.9797
   12334.0000  272.6689  325.8602  260.8602
   12334.5000  191.8689  265.5799  173.3204
   12335.0000  106.8809  151.4854  105.4965
   12335.5000   75.2463   99.4997   83.1088
   12336.0000   62.3280   83.3592   72.9300
   12336.5000   54.2523   79.5275   66.9549
   12337.0000   57.9605  106.5875   88.1412
   12337.5000   56.3861  166.1901  133.5657
   12338.0000   40.0820  163.0583  123.3598
   12338.5000   28.1105  109.9980   94.1165
   12339.0000   23.6001  105.2450  101.8467
   12339.5000   21.3913  131.3272  126.8307
   12340.0000   19.5504  132.5358  124.5724
   12340.5000   18.1395  116.4487  108.2703
   12341.0000   17.1413  103.9218   95.0392
   12341.5000   17.7741   95.1456   85.7147
   12342.0000   20.7192   91.7006   84.8713
   12342.5000   28.3482  102.3446  100.9835
   12343.0000   45.4117  126.4552  124.7813
   12343.5000   63.8444  129.2947  118.2160
   12344.0000   74.2080  115.8463   94.8322
   12344.5000   84.2427  126.1408   89.0061
   12345.0000   95.0389  129.7337   94.9670
   12345.5000  114.5321  125.6927  111.7666
   12346.0000  139.6797  146.6130  137.4660
   12346.5000  148.5261  158.4230  145.1754
   12347.0000  148.5260  148.5070  142.7556
   12347.5000  139.1747  139.4425  134.0763
   12348.0000   91.3597  104.0223   91.6903
   12348.5000   30.2789   34.5110   29.4670
   12349.0000   14.5430   15.1625   13.4678
   12349.5000   11.4026   11.6114   10.7247
   12350.0000   10.2796   11.0751   10.2657
   12350.5000    9.2553   10.8599    9.9745
   12351.0000    8.2972   10.4631    9.6332
   12351.5000    7.7033   10.1125    9.5552
   12352.0000    7.4792   10.0318    9.8704
   12352.5000    7.2605    9.8810   10.0856
   12353.0000    6.9198    9.5336    9.9574
   12353.5000    6.6182    9.2106    9.7060
   12354.0000    6.3811    8.9072    9.4553
   12354.5000    6.1162    8.5450    9.0962
   12355.0000    5.9175    8.2671    8.8352
   12355.5000    5.8448    8.1921    8.7849
   12356.0000    5.8388    8.2689    8.8568
   12356.5000    5.8075    8.3392    8.9285
   12357.0000    5.7689    8.3363    8.9999
   12357.5000    5.6842    8.2336    8.9040
   12358.0000    5.4513    7.9717    8.5052
   12358.5000    5.2843    7.9490    8.2677
   12359.0000    5.4288    8.2571    8.5911
   12359.5000    5.5485    8.3640    8.9022
   12360.0000    5.4097    8.1682    8.6804
   12360.5000    5.1128    7.7870    8.1514
   12361.0000    4.9558    7.4008    7.9277
   12361.5000    5.0468    7.4450    8.1772
   12362.0000    5.1441    7.8202    8.4650
   12362.5000    5.1204    8.0358    8.5422
   12363.0000    5.1655    8.2519    8.6824
   12363.5000    5.2857    8.4541    8.9652
   12364.0000    5.3934    8.5099    9.2167
   12364.5000    5.4536    8.5090    9.2996
   12365.0000    5.4700    8.4837    9.2493
   12365.5000    5.4820    8.4935    9.2352
   12366.0000    5.4886    8.5245    9.2680
   12366.5000    5.4592    8.5382    9.2822
   12367.0000    5.4048    8.5010    9.2616
   12367.5000    5.3074    8.3999    9.1701
   12368.0000    5.1755    8.2680    9.0344
   12368.5000    5.0851    8.2235    9.0044
   12369.0000    5.0301    8.2208    9.0670
   12369.5000    4.9306    8.1385    9.0431
   12370.0000    4.8187    8.0296    8.9927
   12370.5000    4.7698    7.9941    9.0857
   12371.0000    4.7190    7.9596    9.1349
   12371.5000    4.6170    7.9312    9.0624
   12372.0000    4.5470    7.9516    9.0493
   12372.5000    4.5227    7.9535    9.1031
   12373.0000    4.4529    7.8978    9.0667
   12373.5000    4.3861    7.8501    9.0365
   12374.0000    4.3688    7.8520    9.0389
   12374.5000    4.3391    7.8008    8.9843
   12375.0000    4.3199    7.7815    9.0114
   12375.5000    4.3451    7.8567    9.1705
   12376.0000    4.4020    7.9763    9.3966
   12376.5000    4.4599    8.0788    9.6035
   12377.0000    4.4671    8.0843    9.6432
   12377.5000    4.4122    7.9686    9.5095
   12378.0000    4.3644    7.8894    9.3856
   12378.5000    4.3224    7.8578    9.2696
   12379.0000    4.3078    7.8897    9.2088
   12379.5000    4.3265    7.9583    9.2240
   12380.0000    4.3036    7.9703    9.1829
   12380.5000    4.2957    8.0084    9.2181
   12381.0000    4.2991    8.0606    9.3287
   12381.5000    4.2542    8.0195    9.3601
   12382.0000    4.2655    8.1800    9.5470
   12382.5000    4.2302    8.3808    9.7361
