~Version Information
 VERS.                  2.0:   CWLS log ASCII Standard -VERSION 2.0
 WRAP.                   NO:   One line per depth step
~Well Information Block
#MNEM.UNIT     VALUE/NAME     DESCRIPTION
#---------     -----------    ---------------------------
 STRT.F             10927.0000: START DEPTH
 STOP.F             12844.5000: STOP DEPTH
 STEP.F                 0.5000: STEP DEPTH
 NULL.               -999.2500: NULL VALUE
 API .                        :  API NUMBER
 CNTY.                        :  COUNTY
 COMP.                        :  COMPANY
 CTRY.                        :  COUNTRY
 DATE.                        :  DATE
 FLD .                        :  FIELD
 PROV.                        :  PROVINCE
 SRVC.             Halliburton:  SERVICE COMPANY
 STAT.                        :  STATE
 UWI .                        :  UNIQUE WELL IDENTIFIER
 WELL.                        :  WELL
 LOC .                        :  LOCATION
 TDL .ft           1374.671875:  TOTAL DEPTH (LOGGER)
~Parameter Information Block
#MNEM.UNIT       Value        Description
#---------     -----------    ---------------------------
 AV  .fpm           452.755920:  Ann Velocity 
 AVMX.fpm           511.811035:  Max Ann Veloc 
 AZIF.deg           237.779999:  Azm, Final 
 BHAT.        Rotary Steerable:  BHA Type 
 BROT.°/100'          0.030480:  Build Rotating 
 BS  .in              8.500000:  Bit Size 
 BSZ .in              8.500000:  Bit Size 
 BTPL.psig          511.000000:  Bit Press Loss 
 CABU.                      No:  Customer Abuse 
 CGEO.        Jonathan Randles:  Customer Geo 
 COMM.                     ä<]:  Run Comments 1 
 TCS .hr             63.500000:  Time Ciculation Ended 
 CV  .fpm           393.700806:  Crit Velocity 
 CVMX.fpm           393.700806:  Max Crit Veloc 
 DD1 .          Andrey Borodin:  Direct Drillr 1 
 DD2 .           Pierre Giroud:  Direct Drillr 2 
 DDSV.                 iCruise:  DD Service 
 DEFF.%              98.000000:  % Det Eff 
 DEVI.deg            89.040001:  InclinationUp 
 DEVI.deg            89.019997:  InclinationLow 
 DLRX.°/100'          8.818880:  Dogleg Rot Max 
 DLSO.°/100'          2.245360:  Dogleg Oriented 
 DLSX.°/100'          8.818880:  Dogleg Str Max 
 DRET.      01.05.00 01-Sep-21:  Drill End Time 
 DRST.      14.32.10 29-Aug-21:  Drill Start Tim 
 DTIM.hr             44.500000:  Time Drilling 
 EDEP.ft          13077.427734:  End Depth 
 ENG1.           Sergey Burkov:  Engineer 1 
 ENG2.         Ebenezer Parker:  Engineer 2 
 ENG3.            Gerald Natai:  Engineer 3 
 ENG4.         Victor Alvarado:  Engineer 4 
 ETIM.      01.05.00 02-Sep-21:  End Time 
 FLOI.gpm           629.930054:  Flow In 
 FLON.gpm           600.000000:  Flow In Min 
 FLOS.mptm            3.200000:  Fluid Loss 
 FLOX.gpm           650.000000:  Flow In Max 
 HAZI.deg           236.610001:  AzimuthLower 
 HAZI.deg           238.050003:  AzimuthUpper 
 HPRE.                      No:  High Pressure 
 HYDO.ft              0.000000:  Hydro Offset 
 IFIN.deg            91.870003:  Inc, Final 
 IMAX.deg            92.339996:  Inc Max 
 IMIN.deg            84.989998:  Inc Min 
 IMND.ft          12906.824219:  Inc Min Depth 
 IMXD.ft          11745.407227:  Inc Max Depth 
 JARR.                      No:  Jarring 
 LETM.      01.05.00 01-Sep-21:  Log End Time 
 LOST.hr                     0:  Lost Rig Time 
 LSTM.      14.32.10 28-Aug-21:  Log Start Time 
 MDCL.ppm         60000.000000:  Mud Chlorides 
 MDES.             Fresh Water:  Mud Desc 
 DFD .ppg             9.638940:  Mud Density 
 MDMN.ppg             9.597213:  Dens Mud Min 
 MDMX.ppg             9.680667:  Dens Mud Max 
 PH  .pH              9.900000:  Mud pH 
 MOIL.                    0.00:  Run Mud Oil % 
 MSND.                    0.20:  Run Mud Sand % 
 MSOL.                     4.3:  Run Mud Solids% 
 DFV .spqt           47.000000:  Mud Viscosity 
 MWOD.in              6.750000:  MWD Tool OD 
 MWSI.                      No:  Serv Intrp, MWD 
 ORV1.deg             0.000000:  Orientation 1 
 ORV2.deg             0.000000:  Orientation 2 
 OTIM.hr            111.000000:  Time Operating 
 PMAX.psia         9168.941406:  Press Op, Max 
 PV  .cP             12.000000:  Mud PV 
 RMS .ohmm            0.085000:  Mud Resistivity 
 RMCS.ohmm            0.095000:  Mud Cake Resistivity 
 MCST.degF           80.959999:  Mud Cake Sample Temperature 
 RMFS.ohmm            0.080000:  Mud Filtrate Resistivity 
 RMFT.degF           80.959999:  Mud Filtrate Sample Temperature 
 RMMT.ohmm            0.192300:  Rm @ Max Temp 
 MST .degF           80.959999:  Mud Sample Temperature 
 RUN .                     600:  Run Number 
 ROP .fph             0.000000:  ROP Orient Avg 
 ROP .fph            43.143044:  ROP Rot Avg 
 ROPA.fph            43.143044:  ROP Avg 
 ROPN.fph            33.628609:  ROP Min 
 ROPX.fph            44.291336:  ROP Max 
 RPMA.rpm           173.389999:  RPM Surface Avg 
 RPMN.rpm           155.000000:  RPM Surface Min 
 RPMX.rpm           180.000000:  RPM Surface Max 
 RRUN.                     600:  Rig Run Number 
 RTIM.hr             10.500000:  Time Reaming 
 SAZI.deg           236.539993:  Azm, Start 
 SDEP.ft          11158.136719:  Start Depth 
 SDL1.          Christina Sava:  SDL Engineer 1 
 SDL2.         Mohamed Gharieb:  SDL Engineer 2 
 SIDD.                      No:  Serv Intrp, DD 
 SINC.deg            88.860001:  Inc, Start 
 SPPA.psig         2398.194824:  SPP Avg 
 SPPN.psig         2199.985840:  SPP Min 
 SPPX.psig         2519.983887:  SPP Max 
 STIM.      05.37.03 29-Aug-21:  Start Time 
 SVER.                9.200000:  Sperry Version 
 TDAT.ft          11158.136719:  Tot Depth Attmp 
 TDDF.                      No:  Trip for DD 
 TDLG.ft           1374.671875:  Tot Depth Loggd 
 TFF .                      No:  Trip for Fail 
 TQAA.f-p         20745.179688:  Torque Abs Avg 
 TQAN.f-p         17000.000000:  Torque Abs Min 
 TQAX.f-p         25000.000000:  Torque Abs Max 
 TRRT.°/100'          0.081280:  Turn Rotating 
 MRT .                     PWD:  Maximum Recorded Temperature 
 TTMX.degF          102.199997:  Max Tool Temp 
 VS01.                90642082:  Virtual Str1 SN 
 VS02.                90641410:  Virtual Str2 SN 
 VS03.                90645759:  Virtual Str3 SN 
 VS04.                90645758:  Virtual Str4 SN 
 VS05.                90645760:  Virtual Str5 SN 
 VS06.                90641262:  Virtual Str6 SN 
 VS07.                90647660:  Virtual Str7 SN 
 VS08.                13098488:  Virtual Str8 SN 
 VS09.                90642211:  Virtual Str9 SN 
 WBMN.klb             7.000000:  WOB Min 
 WITN.              Johan Roos:  Customer Rep 
 WITN.           Danial Jacobs:  Customer Rep 2 
 WOBA.klb            16.770000:  WOB Avg 
 WOBX.klb            25.000000:  WOB Max 
 YP  .lhf2           20.000000:  Yield Point 
~Curve Information Block
#MNEM.UNIT                 API CODE     Curve Description
#---------               -----------    ---------------------------
 DEPT.F                 00 000 000 000:  Depth
 AFRSAC.ohmm            00 000 000 000:  AFR Shallow Avg Res BC
 AFRMAC.ohmm            00 000 000 000:  AFR Medium Avg Res BC
 AFRDAC.ohmm            00 000 000 000:  AFR Deep Avg Res BC
#Other Information
#
#WARRANTY: Halliburton will use its best efforts to furnish customers with 
#accurate information and interpretations that are part of, and incident to, the services 
#provided.  However, Halliburton cannot and does not warrant the accuracy 
#or correctness of such information and interpretations.  Under no circumstances should any 
#such information or interpretation be relied upon as the sole basis for any drilling, 
#completion, production, or financial decision or any procedure involving any risk to the 
#safety of any drilling venture, drilling rig or its crew or any other third party.  The 
#Customer has full responsibility for all drilling, completion and production operation.  
#Halliburton makes no representations or warranties, either expressed or 
#implied, including, but not limited to, the implied warranties of merchantability or fitness 
#for a particular purpose, with respect to the services rendered.  In no event will 
#Halliburton be liable for failure to obtain any particular results or for 
#any damages, including, but not limited to, indirect, special or consequential damages, 
#resulting from the use of any information or interpretation provided by Halliburton.
#
~A    DEPT     AFRSAC    AFRMAC    AFRDAC   
# ...
   12474.0000    7.0463   94.1389  103.9782
   12474.5000    7.0024   96.7831  104.1999
   12475.0000    7.3266   93.8337   99.9867
   12475.5000    7.6893   89.5357   95.6021
   12476.0000    8.0339   87.5429   91.7957
   12476.5000    8.5441   91.0286   92.7939
   12477.0000    8.7364   97.5811   96.3226
   12477.5000    8.3214   97.0425   92.7876
   12478.0000    7.9155   92.5589   87.4240
   12478.5000    7.6128   89.7792   86.2874
   12479.0000    7.4459   87.3956   84.5480
   12479.5000    7.6490   87.7236   83.9221
   12480.0000    8.0497   91.0242   86.3103
   12480.5000    8.3824   89.7579   85.6142
   12481.0000    8.7375   86.5211   82.3668
   12481.5000    9.2274   86.1194   81.6740
   12482.0000    9.5118   88.4793   83.5413
   12482.5000    9.3788   90.1157   84.1222
   12483.0000    9.0441   87.3617   79.7116
   12483.5000    8.7027   79.5736   71.7406
   12484.0000    8.3817   75.5152   68.3371
   12484.5000    8.3162   76.5900   69.9959
   12485.0000    8.3450   78.5605   71.1810
   12485.5000    8.1866   80.2904   72.6050
   12486.0000    7.9476   77.6527   71.1985
   12486.5000    7.6860   69.2241   63.9948
   12487.0000    7.6053   64.4984   61.2094
   12487.5000    7.7789   66.1049   65.9939
   12488.0000    7.9899   69.5198   71.0678
   12488.5000    8.1123   70.8403   71.7338
   12489.0000    8.1275   69.0792   71.1336
   12489.5000    7.8917   63.9133   67.5844
   12490.0000    7.4986   57.2301   61.0034
   12490.5000    7.3400   54.3850   57.6189
   12491.0000    7.4396   55.1558   57.6660
   12491.5000    7.6150   55.9973   57.5424
   12492.0000    7.7114   52.9085   53.1060
   12492.5000    7.5047   41.4227   39.8978
   12493.0000    7.1396   30.0784   28.7029
   12493.5000    7.1671   26.4109   25.5004
   12494.0000    7.3853   27.0644   26.3064
   12494.5000    7.5329   27.9967   27.5538
   12495.0000    7.5624   28.6073   28.3574
   12495.5000    7.3678   27.4266   27.2553
   12496.0000    6.7798   22.6900   22.8757
   12496.5000    6.1277   18.3246   18.3881
   12497.0000    5.8286   16.6530   16.4649
   12497.5000    5.7384   15.7854   15.4957
   12498.0000    5.5637   14.3257   14.0446
   12498.5000    5.4104   13.3594   13.2436
   12499.0000    5.2748   12.8424   13.0865
   12499.5000    5.0745   12.2151   12.6763
   12500.0000    4.8642   11.5928   12.2141
   12500.5000    4.6184   10.8410   11.6029
   12501.0000    4.3179    9.7704   10.5671
   12501.5000    4.0071    8.6331    9.2098
   12502.0000    3.7796    7.7645    8.1750
   12502.5000    3.6995    7.4661    7.8859
   12503.0000    3.7316    7.5769    8.0633
   12503.5000    3.7605    7.5721    8.1302
   12504.0000    3.7664    7.4672    8.0025
   12504.5000    3.7284    7.3239    7.7641
   12505.0000    3.6949    7.1543    7.6040
   12505.5000    3.7041    7.0305    7.5629
   12506.0000    3.7657    6.9821    7.5756
   12506.5000    3.8187    6.9293    7.4990
   12507.0000    3.8569    6.9479    7.3948
   12507.5000    3.9338    6.9877    7.3196
   12508.0000    3.9900    6.9468    7.2100
   12508.5000    3.9963    6.7689    7.0765
   12509.0000    4.0375    6.7049    7.0959
   12509.5000    3.9991    6.6254    7.0028
   12510.0000    3.9948    6.6587    6.9870
   12510.5000    4.0803    6.7988    7.1802
   12511.0000    4.1381    6.9111    7.3519
   12511.5000    4.1111    6.8422    7.3387
   12512.0000    3.9947    6.5584    7.1128
   12512.5000    3.8386    6.2272    6.7395
   12513.0000    3.7205    6.0342    6.4511
   12513.5000    3.6272    5.8856    6.2579
   12514.0000    3.6047    5.8697    6.1870
   12514.5000    3.5046    5.7811    5.9752
   12515.0000    3.3589    5.4280    5.6478
   12515.5000    3.2070    5.1604    5.2902
   12516.0000    3.1748    5.1055    5.2465
   12516.5000    3.2772    5.1915    5.5166
   12517.0000    3.4022    5.4755    5.8186
   12517.5000    3.4543    5.5911    5.9540
   12518.0000    3.4994    5.6769    6.0644
   12518.5000    3.5125    5.7014    6.1399
   12519.0000    3.4821    5.6454    6.1340
   12519.5000    3.4503    5.6038    6.0780
   12520.0000    3.4400    5.6126    6.0202
   12520.5000    3.4524    5.6564    6.0045
   12521.0000    3.4952    5.6998    5.9958
   12521.5000    3.5114    5.6917    5.8442
   12522.0000    3.4909    5.4286    5.6063
   12522.5000    3.4964    5.2953    5.5548
   12523.0000    3.5294    5.4784    5.6770
   12523.5000    3.5842    5.6325    5.8138
   12524.0000    3.6532    5.7139    5.9157
   12524.5000    3.7134    5.7898    5.9920
   12525.0000    3.7778    5.8244    6.0725
   12525.5000    3.8307    5.8225    6.1269
   12526.0000    3.8545    5.8191    6.1270
   12526.5000    3.8801    5.8535    6.1386
   12527.0000    3.8723    5.8574    6.1241
   12527.5000    3.8183    5.7795    6.0288
   12528.0000    3.7561    5.6783    5.9118
   12528.5000    3.7466    5.6419    5.8976
   12529.0000    3.7013    5.5424    5.8430
   12529.5000    3.6686    5.4674    5.8294
   12530.0000    3.6993    5.5718    5.9407
   12530.5000    3.6974    5.7143    5.9873
   12531.0000    3.5199    5.5804    5.7229
   12531.5000    3.4783    5.4783    5.6907
   12532.0000    3.4998    5.3018    5.7367
   12532.5000    3.3193    4.9688    5.4571
   12533.0000    3.2964    5.0292    5.4640
   12533.5000    3.4091    5.2966    5.6780
   12534.0000    3.3378    5.1771    5.5653
   12534.5000    3.2540    4.9661    5.4191
   12535.0000    3.2728    4.9506    5.4794
   12535.5000    3.3097    5.0720    5.6239
   12536.0000    3.3014    5.1850    5.6697
   12536.5000    3.2583    5.1655    5.6171
   12537.0000    3.2949    5.1985    5.6460
   12537.5000    3.1967    5.0601    5.3789
   12538.0000    3.0788    4.9112    5.1029
   12538.5000    3.0578    4.7987    5.0515
   12539.0000    3.0465    4.7559    5.0536
   12539.5000    3.0933    4.9411    5.1805
   12540.0000    3.2317    5.2373    5.5087
   12540.5000    3.2558    5.2483    5.6337
   12541.0000    3.2629    5.2490    5.6599
   12541.5000    3.3314    5.3273    5.7788
   12542.0000    3.3584    5.3474    5.8277
   12542.5000    3.3250    5.3126    5.7302
   12543.0000    3.2839    5.2790    5.6120
   12543.5000    3.2988    5.3428    5.6201
   12544.0000    3.3518    5.4868    5.7246
   12544.5000    3.4344    5.6595    5.8736
   12545.0000    3.4469    5.6451    5.8478
   12545.5000    3.4770    5.6448    5.8484
   12546.0000    3.5838    5.7649    6.0304
   12546.5000    3.6926    5.9238    6.2258
   12547.0000    3.7235    5.9668    6.2443
   12547.5000    3.7486    6.0078    6.2336
   12548.0000    3.8074    6.0645    6.2897
   12548.5000    3.8882    6.1994    6.3910
   12549.0000    3.9293    6.2563    6.4081
   12549.5000    3.9412    6.2256    6.3557
   12550.0000    3.9764    6.2618    6.3835
   12550.5000    4.0128    6.3279    6.4859
   12551.0000    4.0021    6.3182    6.5385
   12551.5000    3.9571    6.3145    6.5677
   12552.0000    3.9248    6.4524    6.7044
   12552.5000    3.9112    6.6994    6.9527
   12553.0000    3.8579    6.8081    7.0692
   12553.5000    3.7463    6.6628    6.9208
   12554.0000    3.5719    6.3263    6.5653
   12554.5000    3.4411    6.0117    6.2430
   12555.0000    3.4302    6.0393    6.1779
   12555.5000    3.4240    6.1322    6.2765
   12556.0000    3.4057    6.2206    6.4595
   12556.5000    3.4213    6.4856    6.8094
   12557.0000    3.5197    6.9492    7.3670
   12557.5000    3.5801    7.2780    7.6913
   12558.0000    3.5921    7.3718    7.7100
   12558.5000    3.6484    7.5824    7.7976
   12559.0000    3.7660    7.9150    8.0528
   12559.5000    3.8502    8.0628    8.1430
   12560.0000    3.9692    8.3608    8.2732
   12560.5000    4.1681    8.9147    8.6749
   12561.0000    4.4328    9.5649    9.1873
   12561.5000    4.7240   10.2877    9.6872
   12562.0000    5.1875   11.3955   10.6132
   12562.5000    5.7667   12.6334   11.5869
   12563.0000    6.1659   12.9713   11.6951
   12563.5000    6.5085   12.8802   11.6313
   12564.0000    7.3362   15.0229   13.7491
   12564.5000    8.1801   18.7981   17.2421
