~Version Information
 VERS.                  2.0:   CWLS log ASCII Standard -VERSION 2.0
 WRAP.                   NO:   One line per depth step
~Well Information Block
#MNEM.UNIT     VALUE/NAME     DESCRIPTION
#---------     -----------    ---------------------------
 STRT.F             10927.0000: START DEPTH
 STOP.F             12844.5000: STOP DEPTH
 STEP.F                 0.5000: STEP DEPTH
 NULL.               -999.2500: NULL VALUE
 API .                        :  API NUMBER
 CNTY.                        :  COUNTY
 COMP.                        :  COMPANY
 CTRY.                        :  COUNTRY
 DATE.                        :  DATE
 FLD .                        :  FIELD
 PROV.                        :  PROVINCE
 SRVC.             Halliburton:  SERVICE COMPANY
 STAT.                        :  STATE
 UWI .                        :  UNIQUE WELL IDENTIFIER
 WELL.                        :  WELL
 LOC .                        :  LOCATION
 TDL .ft           1374.671875:  TOTAL DEPTH (LOGGER)
~Parameter Information Block
#MNEM.UNIT       Value        Description
#---------     -----------    ---------------------------
 AV  .fpm           452.755920:  Ann Velocity 
 AVMX.fpm           511.811035:  Max Ann Veloc 
 AZIF.deg           237.779999:  Azm, Final 
 BHAT.        Rotary Steerable:  BHA Type 
 BROT.°/100'          0.030480:  Build Rotating 
 BS  .in              8.500000:  Bit Size 
 BSZ .in              8.500000:  Bit Size 
 BTPL.psig          511.000000:  Bit Press Loss 
 CABU.                      No:  Customer Abuse 
 CGEO.        Jonathan Randles:  Customer Geo 
 COMM.                     ä<]:  Run Comments 1 
 TCS .hr             63.500000:  Time Ciculation Ended 
 CV  .fpm           393.700806:  Crit Velocity 
 CVMX.fpm           393.700806:  Max Crit Veloc 
 DD1 .          Andrey Borodin:  Direct Drillr 1 
 DD2 .           Pierre Giroud:  Direct Drillr 2 
 DDSV.                 iCruise:  DD Service 
 DEFF.%              98.000000:  % Det Eff 
 DEVI.deg            89.040001:  InclinationUp 
 DEVI.deg            89.019997:  InclinationLow 
 DLRX.°/100'          8.818880:  Dogleg Rot Max 
 DLSO.°/100'          2.245360:  Dogleg Oriented 
 DLSX.°/100'          8.818880:  Dogleg Str Max 
 DRET.      01.05.00 01-Sep-21:  Drill End Time 
 DRST.      14.32.10 29-Aug-21:  Drill Start Tim 
 DTIM.hr             44.500000:  Time Drilling 
 EDEP.ft          13077.427734:  End Depth 
 ENG1.           Sergey Burkov:  Engineer 1 
 ENG2.         Ebenezer Parker:  Engineer 2 
 ENG3.            Gerald Natai:  Engineer 3 
 ENG4.         Victor Alvarado:  Engineer 4 
 ETIM.      01.05.00 02-Sep-21:  End Time 
 FLOI.gpm           629.930054:  Flow In 
 FLON.gpm           600.000000:  Flow In Min 
 FLOS.mptm            3.200000:  Fluid Loss 
 FLOX.gpm           650.000000:  Flow In Max 
 HAZI.deg           236.610001:  AzimuthLower 
 HAZI.deg           238.050003:  AzimuthUpper 
 HPRE.                      No:  High Pressure 
 HYDO.ft              0.000000:  Hydro Offset 
 IFIN.deg            91.870003:  Inc, Final 
 IMAX.deg            92.339996:  Inc Max 
 IMIN.deg            84.989998:  Inc Min 
 IMND.ft          12906.824219:  Inc Min Depth 
 IMXD.ft          11745.407227:  Inc Max Depth 
 JARR.                      No:  Jarring 
 LETM.      01.05.00 01-Sep-21:  Log End Time 
 LOST.hr                     0:  Lost Rig Time 
 LSTM.      14.32.10 28-Aug-21:  Log Start Time 
 MDCL.ppm         60000.000000:  Mud Chlorides 
 MDES.             Fresh Water:  Mud Desc 
 DFD .ppg             9.638940:  Mud Density 
 MDMN.ppg             9.597213:  Dens Mud Min 
 MDMX.ppg             9.680667:  Dens Mud Max 
 PH  .pH              9.900000:  Mud pH 
 MOIL.                    0.00:  Run Mud Oil % 
 MSND.                    0.20:  Run Mud Sand % 
 MSOL.                     4.3:  Run Mud Solids% 
 DFV .spqt           47.000000:  Mud Viscosity 
 MWOD.in              6.750000:  MWD Tool OD 
 MWSI.                      No:  Serv Intrp, MWD 
 ORV1.deg             0.000000:  Orientation 1 
 ORV2.deg             0.000000:  Orientation 2 
 OTIM.hr            111.000000:  Time Operating 
 PMAX.psia         9168.941406:  Press Op, Max 
 PV  .cP             12.000000:  Mud PV 
 RMS .ohmm            0.085000:  Mud Resistivity 
 RMCS.ohmm            0.095000:  Mud Cake Resistivity 
 MCST.degF           80.959999:  Mud Cake Sample Temperature 
 RMFS.ohmm            0.080000:  Mud Filtrate Resistivity 
 RMFT.degF           80.959999:  Mud Filtrate Sample Temperature 
 RMMT.ohmm            0.192300:  Rm @ Max Temp 
 MST .degF           80.959999:  Mud Sample Temperature 
 RUN .                     600:  Run Number 
 ROP .fph             0.000000:  ROP Orient Avg 
 ROP .fph            43.143044:  ROP Rot Avg 
 ROPA.fph            43.143044:  ROP Avg 
 ROPN.fph            33.628609:  ROP Min 
 ROPX.fph            44.291336:  ROP Max 
 RPMA.rpm           173.389999:  RPM Surface Avg 
 RPMN.rpm           155.000000:  RPM Surface Min 
 RPMX.rpm           180.000000:  RPM Surface Max 
 RRUN.                     600:  Rig Run Number 
 RTIM.hr             10.500000:  Time Reaming 
 SAZI.deg           236.539993:  Azm, Start 
 SDEP.ft          11158.136719:  Start Depth 
 SDL1.          Christina Sava:  SDL Engineer 1 
 SDL2.         Mohamed Gharieb:  SDL Engineer 2 
 SIDD.                      No:  Serv Intrp, DD 
 SINC.deg            88.860001:  Inc, Start 
 SPPA.psig         2398.194824:  SPP Avg 
 SPPN.psig         2199.985840:  SPP Min 
 SPPX.psig         2519.983887:  SPP Max 
 STIM.      05.37.03 29-Aug-21:  Start Time 
 SVER.                9.200000:  Sperry Version 
 TDAT.ft          11158.136719:  Tot Depth Attmp 
 TDDF.                      No:  Trip for DD 
 TDLG.ft           1374.671875:  Tot Depth Loggd 
 TFF .                      No:  Trip for Fail 
 TQAA.f-p         20745.179688:  Torque Abs Avg 
 TQAN.f-p         17000.000000:  Torque Abs Min 
 TQAX.f-p         25000.000000:  Torque Abs Max 
 TRRT.°/100'          0.081280:  Turn Rotating 
 MRT .                     PWD:  Maximum Recorded Temperature 
 TTMX.degF          102.199997:  Max Tool Temp 
 VS01.                90642082:  Virtual Str1 SN 
 VS02.                90641410:  Virtual Str2 SN 
 VS03.                90645759:  Virtual Str3 SN 
 VS04.                90645758:  Virtual Str4 SN 
 VS05.                90645760:  Virtual Str5 SN 
 VS06.                90641262:  Virtual Str6 SN 
 VS07.                90647660:  Virtual Str7 SN 
 VS08.                13098488:  Virtual Str8 SN 
 VS09.                90642211:  Virtual Str9 SN 
 WBMN.klb             7.000000:  WOB Min 
 WITN.              Johan Roos:  Customer Rep 
 WITN.           Danial Jacobs:  Customer Rep 2 
 WOBA.klb            16.770000:  WOB Avg 
 WOBX.klb            25.000000:  WOB Max 
 YP  .lhf2           20.000000:  Yield Point 
~Curve Information Block
#MNEM.UNIT                 API CODE     Curve Description
#---------               -----------    ---------------------------
 DEPT.F                 00 000 000 000:  Depth
 AFRSAC.ohmm            00 000 000 000:  AFR Shallow Avg Res BC
 AFRMAC.ohmm            00 000 000 000:  AFR Medium Avg Res BC
 AFRDAC.ohmm            00 000 000 000:  AFR Deep Avg Res BC
#Other Information
#
#WARRANTY: Halliburton will use its best efforts to furnish customers with 
#accurate information and interpretations that are part of, and incident to, the services 
#provided.  However, Halliburton cannot and does not warrant the accuracy 
#or correctness of such information and interpretations.  Under no circumstances should any 
#such information or interpretation be relied upon as the sole basis for any drilling, 
#completion, production, or financial decision or any procedure involving any risk to the 
#safety of any drilling venture, drilling rig or its crew or any other third party.  The 
#Customer has full responsibility for all drilling, completion and production operation.  
#Halliburton makes no representations or warranties, either expressed or 
#implied, including, but not limited to, the implied warranties of merchantability or fitness 
#for a particular purpose, with respect to the services rendered.  In no event will 
#Halliburton be liable for failure to obtain any particular results or for 
#any damages, including, but not limited to, indirect, special or consequential damages, 
#resulting from the use of any information or interpretation provided by Halliburton.
#
~A    DEPT     AFRSAC    AFRMAC    AFRDAC   
# ...
   11200.0000    5.2464   40.9610   52.2711
   11200.5000    5.2447   42.4431   52.2179
   11201.0000    5.2496   43.5063   52.2174
   11201.5000    5.1109   43.1030   51.7649
   11202.0000    4.9729   42.4472   51.3006
   11202.5000    5.0034   42.2453   51.0808
   11203.0000    5.1388   42.7900   51.4713
   11203.5000    5.2826   42.9578   52.1533
   11204.0000    5.3986   42.9229   52.6461
   11204.5000    5.4811   42.9575   52.6207
   11205.0000    5.4895   43.1136   52.0712
   11205.5000    5.5528   44.2292   52.5895
   11206.0000    5.6365   45.4063   53.4110
   11206.5000    5.7517   46.1206   54.3509
   11207.0000    5.8614   46.2971   54.6808
   11207.5000    5.8342   45.6955   53.3529
   11208.0000    5.8152   46.4218   53.4225
   11208.5000    5.8948   47.9364   55.3363
   11209.0000    5.8893   47.8667   55.8051
   11209.5000    5.8336   47.5905   55.5514
   11210.0000    5.8613   47.8808   56.0886
   11210.5000    5.9246   47.3964   55.9553
   11211.0000    5.9533   46.6689   54.9736
   11211.5000    5.9195   46.8253   54.6373
   11212.0000    5.8725   48.2307   55.6312
   11212.5000    5.8961   49.4187   57.2051
   11213.0000    5.9422   49.2172   56.7707
   11213.5000    5.9498   47.9868   54.3369
   11214.0000    5.9681   46.7945   52.4242
   11214.5000    6.0496   46.1248   51.9707
   11215.0000    6.0839   45.6560   51.4905
   11215.5000    6.0441   45.1782   50.7651
   11216.0000    6.0417   45.5910   51.0822
   11216.5000    6.0188   47.1251   52.9737
   11217.0000    5.9152   48.4895   55.3570
   11217.5000    5.8488   48.5944   56.6125
   11218.0000    5.8900   48.0095   56.6548
   11218.5000    5.8747   48.3623   56.6093
   11219.0000    5.8003   49.1787   56.7889
   11219.5000    5.8215   48.9585   56.9264
   11220.0000    5.8757   48.4075   56.8901
   11220.5000    5.8311   47.8828   56.4074
   11221.0000    5.8121   47.0151   56.0990
   11221.5000    5.7843   46.1804   55.5150
   11222.0000    5.7125   46.2326   54.6195
   11222.5000    5.6900   46.6307   54.3104
   11223.0000    5.7594   46.0776   54.4896
   11223.5000    5.8319   45.2733   54.6955
   11224.0000    5.9039   45.1770   55.5378
   11224.5000    5.9810   45.6542   56.9403
   11225.0000    5.9855   46.2559   57.7741
   11225.5000    5.9044   47.0463   57.8436
   11226.0000    5.8091   47.6942   57.7044
   11226.5000    5.7647   47.8943   57.8356
   11227.0000    5.7691   47.6671   58.1282
   11227.5000    5.7513   47.3508   57.7613
   11228.0000    5.7306   47.2307   57.4372
   11228.5000    5.7238   47.5060   57.9080
   11229.0000    5.7134   47.6825   58.3246
   11229.5000    5.7246   47.8976   58.3165
   11230.0000    5.8037   48.3906   58.5187
   11230.5000    5.9934   49.4508   59.3616
   11231.0000    6.2053   50.9546   60.1358
   11231.5000    6.3596   51.4137   60.1120
   11232.0000    6.4052   49.9479   58.7128
   11232.5000    6.2315   46.4863   54.8162
   11233.0000    6.0224   46.6314   52.4161
   11233.5000    5.9449   51.4833   55.2833
   11234.0000    5.9082   54.3339   59.7550
   11234.5000    5.9032   53.8061   61.3876
   11235.0000    5.9045   52.6327   60.5297
   11235.5000    5.9198   51.6475   59.7228
   11236.0000    5.9196   51.3037   59.3409
   11236.5000    5.9020   52.0098   59.6454
   11237.0000    5.8751   53.0135   60.4331
   11237.5000    5.7805   52.7535   60.2525
   11238.0000    5.6451   51.6897   59.0462
   11238.5000    5.6018   50.8964   58.0048
   11239.0000    5.5869   49.9715   57.5757
   11239.5000    5.6198   50.5299   60.0018
   11240.0000    5.7325   53.1308   63.9758
   11240.5000    5.8319   53.7205   64.4648
   11241.0000    5.8850   54.2223   63.4475
   11241.5000    5.9571   57.5819   64.4198
   11242.0000    6.0337   61.1307   66.0463
   11242.5000    6.0194   62.3283   65.6272
   11243.0000    5.9463   62.9072   61.4528
   11243.5000    5.8630   61.3398   53.8875
   11244.0000    5.8176   55.2490   48.2299
   11244.5000    5.8482   50.9693   45.4573
   11245.0000    5.8815   51.4677   45.8719
   11245.5000    5.8884   53.0808   50.4507
   11246.0000    5.7871   53.2733   57.9284
   11246.5000    5.6601   53.1068   63.6144
   11247.0000    5.6384   52.6703   65.7021
   11247.5000    5.5847   51.4928   65.4607
   11248.0000    5.4608   49.4775   63.7335
   11248.5000    5.4019   47.8879   60.5454
   11249.0000    5.4152   47.6356   56.4154
   11249.5000    5.4653   47.5014   54.8870
   11250.0000    5.4862   46.0271   55.9536
   11250.5000    5.4751   44.6286   56.8075
   11251.0000    5.4941   43.4321   57.5941
   11251.5000    5.5192   42.2119   58.9884
   11252.0000    5.4140   40.7987   58.4131
   11252.5000    5.2235   39.4431   54.6477
   11253.0000    5.1661   40.2635   51.5440
   11253.5000    5.2094   42.6429   50.6058
   11254.0000    5.1361   42.4097   49.0727
   11254.5000    5.2814   38.2742   47.4632
   11255.0000    6.0334   32.4957   43.5108
   11255.5000    7.8215   27.1065   41.0291
   11256.0000   14.6235   24.8847   60.9713
   11256.5000   50.1081   32.0195  184.1032
   11257.0000  141.2790   73.5629  503.2606
   11257.5000  189.0973  129.5679  632.8939
   11258.0000   80.6393   63.3865  217.9543
   11258.5000   27.7534   40.0663   83.6792
   11259.0000   14.1026   43.0694   61.6055
   11259.5000    9.9418   51.2315   62.1987
   11260.0000    8.6678   58.4027   62.5036
   11260.5000    8.5484   61.4652   63.8432
   11261.0000    8.3471   59.8372   70.6084
   11261.5000    7.7059   55.1234   73.6727
   11262.0000    6.9205   51.8937   71.9413
   11262.5000    6.3636   50.3567   68.6507
   11263.0000    6.2150   47.7707   66.1927
   11263.5000    6.1254   46.4065   64.2834
   11264.0000    5.8341   47.9548   62.9047
   11264.5000    5.5138   49.8585   62.2876
   11265.0000    5.3427   50.0663   61.6926
   11265.5000    5.2135   49.2111   60.6939
   11266.0000    5.0995   47.7047   60.1570
   11266.5000    4.9826   46.1317   58.8945
   11267.0000    4.8536   45.4800   56.0034
   11267.5000    4.7728   45.4922   54.6824
   11268.0000    4.8091   45.6483   56.3395
   11268.5000    4.8348   45.8511   57.4197
   11269.0000    4.8183   46.1923   56.8847
   11269.5000    4.8130   45.7723   56.0142
   11270.0000    4.7748   44.3484   54.8497
   11270.5000    4.7300   42.9642   53.9907
   11271.0000    4.7202   42.1337   53.1174
   11271.5000    4.7590   41.7612   52.4031
   11272.0000    4.8124   41.8917   51.9258
   11272.5000    4.8582   41.6845   51.6488
   11273.0000    4.9108   42.0307   52.2075
   11273.5000    4.9580   43.4127   53.2160
   11274.0000    5.0421   44.9320   54.4739
   11274.5000    5.1096   45.3945   54.9053
   11275.0000    5.0883   44.7227   53.1936
   11275.5000    5.1260   44.2416   52.1146
   11276.0000    5.1942   44.2815   52.0360
   11276.5000    5.2877   45.1097   52.3158
   11277.0000    5.3707   46.1345   52.1057
   11277.5000    5.4243   45.5598   52.3740
   11278.0000    5.5678   46.4311   55.6861
   11278.5000    5.6672   47.7875   56.9863
   11279.0000    5.6038   48.2051   55.6857
   11279.5000    5.4618   47.0054   55.0702
   11280.0000    5.3151   44.6959   54.8038
   11280.5000    5.1902   44.4744   54.9088
   11281.0000    5.0460   43.8319   53.4181
   11281.5000    4.9938   42.5406   51.6990
   11282.0000    5.0310   42.6422   52.8551
   11282.5000    5.0232   44.1296   55.5101
   11283.0000    5.0461   45.1218   57.4119
   11283.5000    5.1148   45.5758   58.2764
   11284.0000    5.1449   45.1887   57.6710
   11284.5000    5.1377   42.6948   54.1761
   11285.0000    5.0894   41.7601   52.3948
   11285.5000    4.9546   43.7851   54.8208
   11286.0000    4.7775   45.7968   57.8726
   11286.5000    4.7006   47.2977   59.5106
   11287.0000    4.7113   49.3429   61.2925
   11287.5000    4.7067   51.5720   63.4763
   11288.0000    4.8215   53.2948   65.1177
   11288.5000    5.1096   54.6599   66.1384
   11289.0000    5.5237   57.2829   67.2741
   11289.5000    5.6788   55.2005   61.0014
   11290.0000    5.6724   50.1040   54.7062
   11290.5000    6.0110   50.1181   58.0842
