~Version Information
 VERS.                  2.0:   CWLS log ASCII Standard -VERSION 2.0
 WRAP.                   NO:   One line per depth step
~Well Information Block
#MNEM.UNIT     VALUE/NAME     DESCRIPTION
#---------     -----------    ---------------------------
 STRT.F             10927.0000: START DEPTH
 STOP.F             12844.5000: STOP DEPTH
 STEP.F                 0.5000: STEP DEPTH
 NULL.               -999.2500: NULL VALUE
 API .                        :  API NUMBER
 CNTY.                        :  COUNTY
 COMP.                        :  COMPANY
 CTRY.                        :  COUNTRY
 DATE.                        :  DATE
 FLD .                        :  FIELD
 PROV.                        :  PROVINCE
 SRVC.             Halliburton:  SERVICE COMPANY
 STAT.                        :  STATE
 UWI .                        :  UNIQUE WELL IDENTIFIER
 WELL.                        :  WELL
 LOC .                        :  LOCATION
 TDL .ft           1374.671875:  TOTAL DEPTH (LOGGER)
~Parameter Information Block
#MNEM.UNIT       Value        Description
#---------     -----------    ---------------------------
 AV  .fpm           452.755920:  Ann Velocity 
 AVMX.fpm           511.811035:  Max Ann Veloc 
 AZIF.deg           237.779999:  Azm, Final 
 BHAT.        Rotary Steerable:  BHA Type 
 BROT.°/100'          0.030480:  Build Rotating 
 BS  .in              8.500000:  Bit Size 
 BSZ .in              8.500000:  Bit Size 
 BTPL.psig          511.000000:  Bit Press Loss 
 CABU.                      No:  Customer Abuse 
 CGEO.        Jonathan Randles:  Customer Geo 
 COMM.                     ä<]:  Run Comments 1 
 TCS .hr             63.500000:  Time Ciculation Ended 
 CV  .fpm           393.700806:  Crit Velocity 
 CVMX.fpm           393.700806:  Max Crit Veloc 
 DD1 .          Andrey Borodin:  Direct Drillr 1 
 DD2 .           Pierre Giroud:  Direct Drillr 2 
 DDSV.                 iCruise:  DD Service 
 DEFF.%              98.000000:  % Det Eff 
 DEVI.deg            89.040001:  InclinationUp 
 DEVI.deg            89.019997:  InclinationLow 
 DLRX.°/100'          8.818880:  Dogleg Rot Max 
 DLSO.°/100'          2.245360:  Dogleg Oriented 
 DLSX.°/100'          8.818880:  Dogleg Str Max 
 DRET.      01.05.00 01-Sep-21:  Drill End Time 
 DRST.      14.32.10 29-Aug-21:  Drill Start Tim 
 DTIM.hr             44.500000:  Time Drilling 
 EDEP.ft          13077.427734:  End Depth 
 ENG1.           Sergey Burkov:  Engineer 1 
 ENG2.         Ebenezer Parker:  Engineer 2 
 ENG3.            Gerald Natai:  Engineer 3 
 ENG4.         Victor Alvarado:  Engineer 4 
 ETIM.      01.05.00 02-Sep-21:  End Time 
 FLOI.gpm           629.930054:  Flow In 
 FLON.gpm           600.000000:  Flow In Min 
 FLOS.mptm            3.200000:  Fluid Loss 
 FLOX.gpm           650.000000:  Flow In Max 
 HAZI.deg           236.610001:  AzimuthLower 
 HAZI.deg           238.050003:  AzimuthUpper 
 HPRE.                      No:  High Pressure 
 HYDO.ft              0.000000:  Hydro Offset 
 IFIN.deg            91.870003:  Inc, Final 
 IMAX.deg            92.339996:  Inc Max 
 IMIN.deg            84.989998:  Inc Min 
 IMND.ft          12906.824219:  Inc Min Depth 
 IMXD.ft          11745.407227:  Inc Max Depth 
 JARR.                      No:  Jarring 
 LETM.      01.05.00 01-Sep-21:  Log End Time 
 LOST.hr                     0:  Lost Rig Time 
 LSTM.      14.32.10 28-Aug-21:  Log Start Time 
 MDCL.ppm         60000.000000:  Mud Chlorides 
 MDES.             Fresh Water:  Mud Desc 
 DFD .ppg             9.638940:  Mud Density 
 MDMN.ppg             9.597213:  Dens Mud Min 
 MDMX.ppg             9.680667:  Dens Mud Max 
 PH  .pH              9.900000:  Mud pH 
 MOIL.                    0.00:  Run Mud Oil % 
 MSND.                    0.20:  Run Mud Sand % 
 MSOL.                     4.3:  Run Mud Solids% 
 DFV .spqt           47.000000:  Mud Viscosity 
 MWOD.in              6.750000:  MWD Tool OD 
 MWSI.                      No:  Serv Intrp, MWD 
 ORV1.deg             0.000000:  Orientation 1 
 ORV2.deg             0.000000:  Orientation 2 
 OTIM.hr            111.000000:  Time Operating 
 PMAX.psia         9168.941406:  Press Op, Max 
 PV  .cP             12.000000:  Mud PV 
 RMS .ohmm            0.085000:  Mud Resistivity 
 RMCS.ohmm            0.095000:  Mud Cake Resistivity 
 MCST.degF           80.959999:  Mud Cake Sample Temperature 
 RMFS.ohmm            0.080000:  Mud Filtrate Resistivity 
 RMFT.degF           80.959999:  Mud Filtrate Sample Temperature 
 RMMT.ohmm            0.192300:  Rm @ Max Temp 
 MST .degF           80.959999:  Mud Sample Temperature 
 RUN .                     600:  Run Number 
 ROP .fph             0.000000:  ROP Orient Avg 
 ROP .fph            43.143044:  ROP Rot Avg 
 ROPA.fph            43.143044:  ROP Avg 
 ROPN.fph            33.628609:  ROP Min 
 ROPX.fph            44.291336:  ROP Max 
 RPMA.rpm           173.389999:  RPM Surface Avg 
 RPMN.rpm           155.000000:  RPM Surface Min 
 RPMX.rpm           180.000000:  RPM Surface Max 
 RRUN.                     600:  Rig Run Number 
 RTIM.hr             10.500000:  Time Reaming 
 SAZI.deg           236.539993:  Azm, Start 
 SDEP.ft          11158.136719:  Start Depth 
 SDL1.          Christina Sava:  SDL Engineer 1 
 SDL2.         Mohamed Gharieb:  SDL Engineer 2 
 SIDD.                      No:  Serv Intrp, DD 
 SINC.deg            88.860001:  Inc, Start 
 SPPA.psig         2398.194824:  SPP Avg 
 SPPN.psig         2199.985840:  SPP Min 
 SPPX.psig         2519.983887:  SPP Max 
 STIM.      05.37.03 29-Aug-21:  Start Time 
 SVER.                9.200000:  Sperry Version 
 TDAT.ft          11158.136719:  Tot Depth Attmp 
 TDDF.                      No:  Trip for DD 
 TDLG.ft           1374.671875:  Tot Depth Loggd 
 TFF .                      No:  Trip for Fail 
 TQAA.f-p         20745.179688:  Torque Abs Avg 
 TQAN.f-p         17000.000000:  Torque Abs Min 
 TQAX.f-p         25000.000000:  Torque Abs Max 
 TRRT.°/100'          0.081280:  Turn Rotating 
 MRT .                     PWD:  Maximum Recorded Temperature 
 TTMX.degF          102.199997:  Max Tool Temp 
 VS01.                90642082:  Virtual Str1 SN 
 VS02.                90641410:  Virtual Str2 SN 
 VS03.                90645759:  Virtual Str3 SN 
 VS04.                90645758:  Virtual Str4 SN 
 VS05.                90645760:  Virtual Str5 SN 
 VS06.                90641262:  Virtual Str6 SN 
 VS07.                90647660:  Virtual Str7 SN 
 VS08.                13098488:  Virtual Str8 SN 
 VS09.                90642211:  Virtual Str9 SN 
 WBMN.klb             7.000000:  WOB Min 
 WITN.              Johan Roos:  Customer Rep 
 WITN.           Danial Jacobs:  Customer Rep 2 
 WOBA.klb            16.770000:  WOB Avg 
 WOBX.klb            25.000000:  WOB Max 
 YP  .lhf2           20.000000:  Yield Point 
~Curve Information Block
#MNEM.UNIT                 API CODE     Curve Description
#---------               -----------    ---------------------------
 DEPT.F                 00 000 000 000:  Depth
 AFRSAC.ohmm            00 000 000 000:  AFR Shallow Avg Res BC
 AFRMAC.ohmm            00 000 000 000:  AFR Medium Avg Res BC
 AFRDAC.ohmm            00 000 000 000:  AFR Deep Avg Res BC
#Other Information
#
#WARRANTY: Halliburton will use its best efforts to furnish customers with 
#accurate information and interpretations that are part of, and incident to, the services 
#provided.  However, Halliburton cannot and does not warrant the accuracy 
#or correctness of such information and interpretations.  Under no circumstances should any 
#such information or interpretation be relied upon as the sole basis for any drilling, 
#completion, production, or financial decision or any procedure involving any risk to the 
#safety of any drilling venture, drilling rig or its crew or any other third party.  The 
#Customer has full responsibility for all drilling, completion and production operation.  
#Halliburton makes no representations or warranties, either expressed or 
#implied, including, but not limited to, the implied warranties of merchantability or fitness 
#for a particular purpose, with respect to the services rendered.  In no event will 
#Halliburton be liable for failure to obtain any particular results or for 
#any damages, including, but not limited to, indirect, special or consequential damages, 
#resulting from the use of any information or interpretation provided by Halliburton.
#
~A    DEPT     AFRSAC    AFRMAC    AFRDAC   
# ...
   12383.0000    4.0671    8.4196    9.6821
   12383.5000    3.9692    8.5596    9.8103
   12384.0000    3.8607    8.5802    9.9075
   12384.5000    3.7726    8.4737    9.9010
   12385.0000    3.8281    8.6183   10.0524
   12385.5000    3.8757    8.9851   10.1236
   12386.0000    3.9354    9.3139   10.2462
   12386.5000    4.0020    9.4284   10.3395
   12387.0000    4.0468    9.2146   10.2392
   12387.5000    4.0812    9.0545   10.0455
   12388.0000    4.1344    8.9844   10.0691
   12388.5000    4.1600    9.0587   10.3154
   12389.0000    4.2456    9.7135   10.8652
   12389.5000    4.3667   10.5247   11.5808
   12390.0000    4.4287   11.0000   12.1272
   12390.5000    4.4424   11.2417   12.4110
   12391.0000    4.4100   11.0726   12.4151
   12391.5000    4.4520   11.0638   12.6932
   12392.0000    4.5687   11.2338   13.1562
   12392.5000    4.5636   11.3565   13.1875
   12393.0000    4.6231   11.9409   13.3618
   12393.5000    4.8426   13.0964   13.9978
   12394.0000    4.9248   13.4440   14.0490
   12394.5000    5.0012   13.8060   14.2899
   12395.0000    5.0989   14.2330   14.5207
   12395.5000    5.0937   13.6087   13.6572
   12396.0000    5.1006   12.8924   12.4007
   12396.5000    5.7706   15.5719   14.2742
   12397.0000    6.7691   20.6785   19.4736
   12397.5000    7.6120   26.5041   26.4111
   12398.0000    7.7688   26.7312   26.1744
   12398.5000    7.5424   24.2033   22.8669
   12399.0000    7.7294   27.2199   26.2409
   12399.5000    8.4737   42.8954   44.1623
   12400.0000    8.9987   61.2953   63.9354
   12400.5000    9.3159   66.0045   68.2528
   12401.0000    9.5481   67.9406   70.4055
   12401.5000    9.7850   70.7259   73.1614
   12402.0000    9.7568   72.5407   74.5635
   12402.5000    9.3708   74.5240   75.1144
   12403.0000    9.1360   78.2102   77.1818
   12403.5000    9.2511   82.6135   80.2650
   12404.0000    9.1756   86.5797   83.4087
   12404.5000    8.8079   90.8312   87.4950
   12405.0000    8.7959   91.7361   89.0048
   12405.5000    9.1694   91.7023   89.7435
   12406.0000    9.2529   92.4629   90.1981
   12406.5000    9.1273   92.7524   89.8576
   12407.0000    9.2453   92.8720   90.0398
   12407.5000    9.2476   92.4232   89.8326
   12408.0000    9.0281   91.6531   89.8477
   12408.5000    8.8384   92.5933   91.7097
   12409.0000    8.6216   94.5229   94.7228
   12409.5000    8.3644   97.4250   98.6301
   12410.0000    8.2458   99.4475  100.7878
   12410.5000    8.2259  100.3079  101.7966
   12411.0000    8.2012  103.6197  106.5150
   12411.5000    8.3491  107.5532  111.5800
   12412.0000    8.5239  109.0147  112.9105
   12412.5000    8.4175  108.6461  112.1683
   12413.0000    8.3161  109.9022  113.0356
   12413.5000    8.2897  113.1060  115.5671
   12414.0000    8.2577  116.1049  117.3096
   12414.5000    8.3735  117.4957  118.2473
   12415.0000    8.3706  117.8302  119.1926
   12415.5000    8.3008  117.2856  119.9600
   12416.0000    8.3556  117.2529  120.6820
   12416.5000    8.3698  117.8608  121.2416
   12417.0000    8.3131  120.0537  122.7620
   12417.5000    8.2714  120.7146  122.2644
   12418.0000    8.3912  118.0178  119.5093
   12418.5000    8.5345  116.9779  119.4648
   12419.0000    8.5348  118.9563  122.1820
   12419.5000    8.5862  119.9926  123.4361
   12420.0000    8.5930  119.5305  122.5073
   12420.5000    8.5837  120.2944  123.5293
   12421.0000    8.4751  121.4126  125.5993
   12421.5000    8.3654  120.1908  125.3888
   12422.0000    8.3266  117.9757  124.0319
   12422.5000    8.1528  117.4682  123.2537
   12423.0000    7.9792  119.0553  124.4375
   12423.5000    7.8390  120.5268  125.3473
   12424.0000    7.6916  118.1599  122.1580
   12424.5000    7.7772  114.1768  117.5957
   12425.0000    7.9549  113.5182  116.8096
   12425.5000    8.1398  116.9307  120.1141
   12426.0000    8.3755  120.8388  123.7080
   12426.5000    8.5527  119.8748  122.1562
   12427.0000    8.7202  118.2956  119.4585
   12427.5000    8.8391  120.3533  120.8598
   12428.0000    8.9898  122.2274  122.9148
   12428.5000    9.1085  122.4105  122.2542
   12429.0000    9.1359  120.5507  119.7703
   12429.5000    9.1675  118.6844  118.2406
   12430.0000    9.1773  117.7286  116.8676
   12430.5000    9.1692  115.2920  113.2518
   12431.0000    9.1835  112.8350  109.8524
   12431.5000    9.1014  107.5881  104.0186
   12432.0000    9.1632  100.8000   97.1419
   12432.5000    9.4085  100.8395   97.0291
   12433.0000    9.6917  107.9695  104.4228
   12433.5000    9.9536  113.4522  111.0293
   12434.0000    9.9819  110.7129  109.4798
   12434.5000    9.7165  107.1336  106.5598
   12435.0000    9.3267  107.1707  106.5776
   12435.5000    9.0308  108.3425  107.7377
   12436.0000    8.9845  110.0387  110.1513
   12436.5000    9.0135  111.0093  112.0819
   12437.0000    9.1142  111.9557  114.0847
   12437.5000    9.1165  112.8452  116.8990
   12438.0000    8.7594  110.2022  116.0546
   12438.5000    8.3842  106.9845  114.4556
   12439.0000    8.5489  106.3775  113.2674
   12439.5000    8.4121  104.0860  107.7895
   12440.0000    7.9837  103.2980  105.6496
   12440.5000    8.0029   99.5289  103.0305
   12441.0000    7.6048   73.2855   76.2700
   12441.5000    7.7738   58.5909   57.3185
   12442.0000    7.7543   58.3343   54.0152
   12442.5000    7.3406   64.9375   62.7246
   12443.0000    7.5798   79.2210   84.0393
   12443.5000    7.7470   98.2253  109.9510
   12444.0000    7.4772  110.2270  128.0666
   12444.5000    7.1067  105.7935  126.1431
   12445.0000    6.7090   89.9825  108.8410
   12445.5000    6.3659   79.9610   94.9491
   12446.0000    6.1613   82.6294   97.7825
   12446.5000    5.9627   86.0866  104.4236
   12447.0000    5.7717   83.5830  103.4841
   12447.5000    5.7007   80.5410  101.6469
   12448.0000    5.7304   81.9786  103.8125
   12448.5000    6.0353   88.6172  113.5567
   12449.0000    6.4451   93.4701  122.9729
   12449.5000    6.7079   95.1882  127.5395
   12450.0000    6.9849   97.9502  130.3787
   12450.5000    7.2631  101.9683  130.8029
   12451.0000    7.4657  107.3717  130.8420
   12451.5000    7.8175  112.6257  131.2710
   12452.0000    8.2670  114.6635  130.8086
   12452.5000    8.5705  117.4939  133.4921
   12453.0000    8.6206  123.6889  140.6871
   12453.5000    8.6089  127.0965  142.8497
   12454.0000    8.4258  124.6170  137.8114
   12454.5000    7.9225  124.0718  135.1826
   12455.0000    7.5722  125.9752  133.7892
   12455.5000    7.7209  127.2809  133.3920
   12456.0000    8.3887  128.5802  135.8839
   12456.5000    9.4245  131.0011  137.9414
   12457.0000   10.2249  135.1622  140.5890
   12457.5000   10.2001  138.1217  141.7596
   12458.0000    9.6395  135.2439  134.7143
   12458.5000    9.1168  135.1124  130.3863
   12459.0000    8.6657  141.8485  135.7166
   12459.5000    8.8753  143.5671  138.1827
   12460.0000    9.7133  136.3997  131.8522
   12460.5000    9.7443  138.3407  131.5937
   12461.0000    9.9231  144.7742  136.4902
   12461.5000   10.7568  144.2236  138.8340
   12462.0000   10.4454  144.9910  140.3125
   12462.5000    9.4942  146.2585  139.1187
   12463.0000    8.8749  143.8972  134.4854
   12463.5000    8.5590  142.0988  131.4333
   12464.0000    8.5972  141.8763  131.7836
   12464.5000    9.0795  141.0429  133.4917
   12465.0000    9.9081  138.9135  133.2857
   12465.5000   10.4459  138.7982  132.3911
   12466.0000   10.6326  139.0265  129.6456
   12466.5000   10.6554  135.4943  125.1703
   12467.0000   10.3455  134.0871  123.9128
   12467.5000   10.0121  138.0092  127.1149
   12468.0000    9.7507  138.8427  127.6484
   12468.5000    9.3319  133.2974  123.4723
   12469.0000    8.7900  124.5384  116.1787
   12469.5000    8.1348  115.8837  106.4740
   12470.0000    7.9612  109.4732  100.2952
   12470.5000    8.1092  106.1450   98.3360
   12471.0000    7.9856  101.0306   97.8609
   12471.5000    7.6766   92.5649   98.1163
   12472.0000    7.5407   90.3296  100.6801
   12472.5000    7.5456   94.4636  106.9464
   12473.0000    7.3562   94.4452  107.8279
   12473.5000    7.1702   91.7182  103.8596
