~Version Information
 VERS.                  2.0:   CWLS log ASCII Standard -VERSION 2.0
 WRAP.                   NO:   One line per depth step
~Well Information Block
#MNEM.UNIT     VALUE/NAME     DESCRIPTION
#---------     -----------    ---------------------------
 STRT.F             10927.0000: START DEPTH
 STOP.F             12844.5000: STOP DEPTH
 STEP.F                 0.5000: STEP DEPTH
 NULL.               -999.2500: NULL VALUE
 API .                        :  API NUMBER
 CNTY.                        :  COUNTY
 COMP.                        :  COMPANY
 CTRY.                        :  COUNTRY
 DATE.                        :  DATE
 FLD .                        :  FIELD
 PROV.                        :  PROVINCE
 SRVC.             Halliburton:  SERVICE COMPANY
 STAT.                        :  STATE
 UWI .                        :  UNIQUE WELL IDENTIFIER
 WELL.                        :  WELL
 LOC .                        :  LOCATION
 TDL .ft           1374.671875:  TOTAL DEPTH (LOGGER)
~Parameter Information Block
#MNEM.UNIT       Value        Description
#---------     -----------    ---------------------------
 AV  .fpm           452.755920:  Ann Velocity 
 AVMX.fpm           511.811035:  Max Ann Veloc 
 AZIF.deg           237.779999:  Azm, Final 
 BHAT.        Rotary Steerable:  BHA Type 
 BROT.°/100'          0.030480:  Build Rotating 
 BS  .in              8.500000:  Bit Size 
 BSZ .in              8.500000:  Bit Size 
 BTPL.psig          511.000000:  Bit Press Loss 
 CABU.                      No:  Customer Abuse 
 CGEO.        Jonathan Randles:  Customer Geo 
 COMM.                     ä<]:  Run Comments 1 
 TCS .hr             63.500000:  Time Ciculation Ended 
 CV  .fpm           393.700806:  Crit Velocity 
 CVMX.fpm           393.700806:  Max Crit Veloc 
 DD1 .          Andrey Borodin:  Direct Drillr 1 
 DD2 .           Pierre Giroud:  Direct Drillr 2 
 DDSV.                 iCruise:  DD Service 
 DEFF.%              98.000000:  % Det Eff 
 DEVI.deg            89.040001:  InclinationUp 
 DEVI.deg            89.019997:  InclinationLow 
 DLRX.°/100'          8.818880:  Dogleg Rot Max 
 DLSO.°/100'          2.245360:  Dogleg Oriented 
 DLSX.°/100'          8.818880:  Dogleg Str Max 
 DRET.      01.05.00 01-Sep-21:  Drill End Time 
 DRST.      14.32.10 29-Aug-21:  Drill Start Tim 
 DTIM.hr             44.500000:  Time Drilling 
 EDEP.ft          13077.427734:  End Depth 
 ENG1.           Sergey Burkov:  Engineer 1 
 ENG2.         Ebenezer Parker:  Engineer 2 
 ENG3.            Gerald Natai:  Engineer 3 
 ENG4.         Victor Alvarado:  Engineer 4 
 ETIM.      01.05.00 02-Sep-21:  End Time 
 FLOI.gpm           629.930054:  Flow In 
 FLON.gpm           600.000000:  Flow In Min 
 FLOS.mptm            3.200000:  Fluid Loss 
 FLOX.gpm           650.000000:  Flow In Max 
 HAZI.deg           236.610001:  AzimuthLower 
 HAZI.deg           238.050003:  AzimuthUpper 
 HPRE.                      No:  High Pressure 
 HYDO.ft              0.000000:  Hydro Offset 
 IFIN.deg            91.870003:  Inc, Final 
 IMAX.deg            92.339996:  Inc Max 
 IMIN.deg            84.989998:  Inc Min 
 IMND.ft          12906.824219:  Inc Min Depth 
 IMXD.ft          11745.407227:  Inc Max Depth 
 JARR.                      No:  Jarring 
 LETM.      01.05.00 01-Sep-21:  Log End Time 
 LOST.hr                     0:  Lost Rig Time 
 LSTM.      14.32.10 28-Aug-21:  Log Start Time 
 MDCL.ppm         60000.000000:  Mud Chlorides 
 MDES.             Fresh Water:  Mud Desc 
 DFD .ppg             9.638940:  Mud Density 
 MDMN.ppg             9.597213:  Dens Mud Min 
 MDMX.ppg             9.680667:  Dens Mud Max 
 PH  .pH              9.900000:  Mud pH 
 MOIL.                    0.00:  Run Mud Oil % 
 MSND.                    0.20:  Run Mud Sand % 
 MSOL.                     4.3:  Run Mud Solids% 
 DFV .spqt           47.000000:  Mud Viscosity 
 MWOD.in              6.750000:  MWD Tool OD 
 MWSI.                      No:  Serv Intrp, MWD 
 ORV1.deg             0.000000:  Orientation 1 
 ORV2.deg             0.000000:  Orientation 2 
 OTIM.hr            111.000000:  Time Operating 
 PMAX.psia         9168.941406:  Press Op, Max 
 PV  .cP             12.000000:  Mud PV 
 RMS .ohmm            0.085000:  Mud Resistivity 
 RMCS.ohmm            0.095000:  Mud Cake Resistivity 
 MCST.degF           80.959999:  Mud Cake Sample Temperature 
 RMFS.ohmm            0.080000:  Mud Filtrate Resistivity 
 RMFT.degF           80.959999:  Mud Filtrate Sample Temperature 
 RMMT.ohmm            0.192300:  Rm @ Max Temp 
 MST .degF           80.959999:  Mud Sample Temperature 
 RUN .                     600:  Run Number 
 ROP .fph             0.000000:  ROP Orient Avg 
 ROP .fph            43.143044:  ROP Rot Avg 
 ROPA.fph            43.143044:  ROP Avg 
 ROPN.fph            33.628609:  ROP Min 
 ROPX.fph            44.291336:  ROP Max 
 RPMA.rpm           173.389999:  RPM Surface Avg 
 RPMN.rpm           155.000000:  RPM Surface Min 
 RPMX.rpm           180.000000:  RPM Surface Max 
 RRUN.                     600:  Rig Run Number 
 RTIM.hr             10.500000:  Time Reaming 
 SAZI.deg           236.539993:  Azm, Start 
 SDEP.ft          11158.136719:  Start Depth 
 SDL1.          Christina Sava:  SDL Engineer 1 
 SDL2.         Mohamed Gharieb:  SDL Engineer 2 
 SIDD.                      No:  Serv Intrp, DD 
 SINC.deg            88.860001:  Inc, Start 
 SPPA.psig         2398.194824:  SPP Avg 
 SPPN.psig         2199.985840:  SPP Min 
 SPPX.psig         2519.983887:  SPP Max 
 STIM.      05.37.03 29-Aug-21:  Start Time 
 SVER.                9.200000:  Sperry Version 
 TDAT.ft          11158.136719:  Tot Depth Attmp 
 TDDF.                      No:  Trip for DD 
 TDLG.ft           1374.671875:  Tot Depth Loggd 
 TFF .                      No:  Trip for Fail 
 TQAA.f-p         20745.179688:  Torque Abs Avg 
 TQAN.f-p         17000.000000:  Torque Abs Min 
 TQAX.f-p         25000.000000:  Torque Abs Max 
 TRRT.°/100'          0.081280:  Turn Rotating 
 MRT .                     PWD:  Maximum Recorded Temperature 
 TTMX.degF          102.199997:  Max Tool Temp 
 VS01.                90642082:  Virtual Str1 SN 
 VS02.                90641410:  Virtual Str2 SN 
 VS03.                90645759:  Virtual Str3 SN 
 VS04.                90645758:  Virtual Str4 SN 
 VS05.                90645760:  Virtual Str5 SN 
 VS06.                90641262:  Virtual Str6 SN 
 VS07.                90647660:  Virtual Str7 SN 
 VS08.                13098488:  Virtual Str8 SN 
 VS09.                90642211:  Virtual Str9 SN 
 WBMN.klb             7.000000:  WOB Min 
 WITN.              Johan Roos:  Customer Rep 
 WITN.           Danial Jacobs:  Customer Rep 2 
 WOBA.klb            16.770000:  WOB Avg 
 WOBX.klb            25.000000:  WOB Max 
 YP  .lhf2           20.000000:  Yield Point 
~Curve Information Block
#MNEM.UNIT                 API CODE     Curve Description
#---------               -----------    ---------------------------
 DEPT.F                 00 000 000 000:  Depth
 AFRSAC.ohmm            00 000 000 000:  AFR Shallow Avg Res BC
 AFRMAC.ohmm            00 000 000 000:  AFR Medium Avg Res BC
 AFRDAC.ohmm            00 000 000 000:  AFR Deep Avg Res BC
#Other Information
#
#WARRANTY: Halliburton will use its best efforts to furnish customers with 
#accurate information and interpretations that are part of, and incident to, the services 
#provided.  However, Halliburton cannot and does not warrant the accuracy 
#or correctness of such information and interpretations.  Under no circumstances should any 
#such information or interpretation be relied upon as the sole basis for any drilling, 
#completion, production, or financial decision or any procedure involving any risk to the 
#safety of any drilling venture, drilling rig or its crew or any other third party.  The 
#Customer has full responsibility for all drilling, completion and production operation.  
#Halliburton makes no representations or warranties, either expressed or 
#implied, including, but not limited to, the implied warranties of merchantability or fitness 
#for a particular purpose, with respect to the services rendered.  In no event will 
#Halliburton be liable for failure to obtain any particular results or for 
#any damages, including, but not limited to, indirect, special or consequential damages, 
#resulting from the use of any information or interpretation provided by Halliburton.
#
~A    DEPT     AFRSAC    AFRMAC    AFRDAC   
# ...
   11382.0000    7.0618   43.2421   57.4234
   11382.5000    7.1398   43.1440   58.9117
   11383.0000    7.1815   47.4502   67.6988
   11383.5000    7.5744   57.6242   88.6418
   11384.0000    7.5358   63.3335  103.2055
   11384.5000    6.9754   60.9047   93.9082
   11385.0000    6.4641   55.8951   78.1133
   11385.5000    6.2010   49.5889   68.2192
   11386.0000    6.3703   45.5269   67.0359
   11386.5000    7.0344   44.8331   69.2321
   11387.0000    7.8826   50.8312   74.4577
   11387.5000   10.6367   82.6427   98.5980
   11388.0000   13.1020   99.6269  130.1161
   11388.5000   10.0861   60.0102  106.0183
   11389.0000    7.6413   43.5757   75.5677
   11389.5000    7.3247   45.5081   74.4026
   11390.0000    7.3388   55.2375   84.1485
   11390.5000    7.6700   65.7763   91.3536
   11391.0000    8.6613   70.5114   94.3736
   11391.5000    9.4518   52.5595   73.6348
   11392.0000    9.9482   40.8166   60.8384
   11392.5000   11.8297   44.9906   68.4766
   11393.0000   15.3007   60.5388   85.5895
   11393.5000   19.7315   76.2677  108.7172
   11394.0000   20.4543   68.0880  110.6561
   11394.5000   16.3774   53.8266   90.4016
   11395.0000   14.1451   59.7145   98.0648
   11395.5000   13.3355   79.5266  130.7831
   11396.0000   12.0113   85.6330  125.5583
   11396.5000   10.0087   68.3182   94.0765
   11397.0000    9.0960   58.1677   87.0719
   11397.5000    8.7383   60.0986  104.3023
   11398.0000    8.7763   70.3097  136.4401
   11398.5000    8.4718   73.4172  135.3842
   11399.0000    7.8615   64.7043  108.1693
   11399.5000    7.5276   57.0331   94.7025
   11400.0000    7.5656   54.3692   96.4383
   11400.5000    7.8759   56.5981  105.2409
   11401.0000    8.3324   64.2264  122.3799
   11401.5000    8.3262   65.9280  128.7941
   11402.0000    7.8095   57.9955  115.3744
   11402.5000    7.6441   53.1287  106.1165
   11403.0000    7.6015   49.6656   95.3469
   11403.5000    7.4164   47.0889   81.8268
   11404.0000    7.4725   50.4568   84.0747
   11404.5000    7.2582   55.4821   95.9340
   11405.0000    6.3911   59.8394  101.9888
   11405.5000    5.7386   71.6309  116.0230
   11406.0000    5.4916   79.7414  125.2418
   11406.5000    5.3649   69.1055  107.8339
   11407.0000    5.5666   60.1210   95.7853
   11407.5000    6.3828   62.2908  104.2698
   11408.0000    7.5496   72.7116  120.3426
   11408.5000    9.1962   82.5023  125.9304
   11409.0000   11.7022   92.8827  131.4323
   11409.5000   11.4589   92.9043  136.7721
   11410.0000    8.3188   70.6184  109.3584
   11410.5000    6.2795   55.2429   82.3562
   11411.0000    5.5064   53.6633   77.7017
   11411.5000    5.1297   57.7710   81.3638
   11412.0000    5.0899   61.6091   84.2808
   11412.5000    5.3651   62.6202   85.2298
   11413.0000    5.4977   60.9239   84.3932
   11413.5000    5.4104   60.0887   86.4806
   11414.0000    5.3304   63.9236   93.7359
   11414.5000    5.2281   68.8101   96.9160
   11415.0000    5.2168   64.6019   92.0059
   11415.5000    5.2795   57.0603   87.5228
   11416.0000    5.1133   53.8368   86.0356
   11416.5000    4.9117   60.2820   95.1056
   11417.0000    5.0829   76.0483  115.1865
   11417.5000    5.4163   84.6072  121.2677
   11418.0000    5.5235   80.7340  112.9271
   11418.5000    5.4511   72.8213  106.2319
   11419.0000    5.4491   63.2311   93.1895
   11419.5000    5.7383   57.6808   85.9981
   11420.0000    5.5557   65.7454   97.0755
   11420.5000    4.7747   85.6937  116.2419
   11421.0000    4.5069   96.2591  127.1856
   11421.5000    4.7632   89.9475  128.6747
   11422.0000    5.0754   91.6861  131.4515
   11422.5000    5.5094  107.0231  136.1079
   11423.0000    5.8328  115.3069  151.9672
   11423.5000    5.8796  113.1577  179.2923
   11424.0000    6.1254  117.9341  195.0743
   11424.5000    6.1719  122.9349  191.1118
   11425.0000    5.8766  117.6210  182.5851
   11425.5000    5.5952  109.1586  174.4055
   11426.0000    5.2557  110.5100  171.8215
   11426.5000    4.8644  122.5492  180.4608
   11427.0000    4.8406  135.2035  193.5932
   11427.5000    5.4904  144.5096  185.7445
   11428.0000    6.7266  129.9693  133.4700
   11428.5000    8.2557  125.7363  115.6801
   11429.0000   14.1103  195.7543  198.4920
   11429.5000   33.5371  233.6215  357.8578
   11430.0000   31.2016  153.5487  234.5014
   11430.5000   16.4196  121.2388  135.1598
   11431.0000   12.7065  114.9873  126.9330
   11431.5000   10.5387  109.4342  125.1214
   11432.0000    8.5209  103.6200  114.2245
   11432.5000    6.5539   89.1342  106.7354
   11433.0000    5.2215   82.6047  104.6149
   11433.5000    4.7244   83.8706  109.5365
   11434.0000    4.7168   87.2071  116.3545
   11434.5000    4.8168   87.9597  120.5296
   11435.0000    4.9550   86.6417  126.0822
   11435.5000    5.0996   84.3570  128.6920
   11436.0000    5.3243   83.1868  126.0779
   11436.5000    5.4153   84.5930  120.4158
   11437.0000    5.2675   84.2883  111.1860
   11437.5000    5.2224   79.7220   99.9339
   11438.0000    5.4402   77.8678   95.5692
   11438.5000    5.8748   80.4825  103.7065
   11439.0000    6.6598   78.4050  108.6389
   11439.5000    7.3591   70.4447  101.5222
   11440.0000    7.3526   71.9861  107.3225
   11440.5000    6.6767   80.8300  118.8767
   11441.0000    5.7474   74.2118  102.5588
   11441.5000    5.2861   65.3960   91.8788
   11442.0000    5.3454   68.1631  103.1772
   11442.5000    5.4837   72.7293  114.1775
   11443.0000    5.4329   69.4091  108.2464
   11443.5000    5.3459   62.6600   96.7495
   11444.0000    5.2810   57.3358   87.5033
   11444.5000    5.2007   53.9112   80.6534
   11445.0000    5.0908   51.6609   75.4565
   11445.5000    4.9765   50.6161   73.3424
   11446.0000    4.8973   50.7733   75.8896
   11446.5000    4.7600   53.2650   79.5915
   11447.0000    4.6115   57.0637   81.4951
   11447.5000    4.6105   62.8487   86.8358
   11448.0000    4.7403   68.8532   95.2213
   11448.5000    4.8459   69.5358   97.6069
   11449.0000    4.9882   68.7639   96.9185
   11449.5000    5.3023   69.9438   97.7606
   11450.0000    5.6657   70.5261  102.3791
   11450.5000    5.5952   71.1569  105.0819
   11451.0000    5.1967   72.3535  100.1055
   11451.5000    5.0140   72.9993   96.1683
   11452.0000    5.0990   69.0347   98.7399
   11452.5000    5.1763   63.0357   96.9491
   11453.0000    4.9602   61.0858   92.7330
   11453.5000    4.8365   61.5768   96.5123
   11454.0000    5.4440   62.8972  109.2393
   11454.5000    7.0820   72.7713  129.3515
   11455.0000    8.8782   91.2479  152.8019
   11455.5000    9.0880   96.9307  169.3650
   11456.0000    7.4600   92.1508  158.1540
   11456.5000    5.6609   84.8994  131.6695
   11457.0000    4.8846   73.5503  117.5346
   11457.5000    5.3696   67.8018  120.0806
   11458.0000    6.4105   70.4733  129.8713
   11458.5000    6.7715   70.8238  133.5156
   11459.0000    6.2350   62.4486  119.3879
   11459.5000    5.4522   57.0185  106.3888
   11460.0000    5.0952   59.1466  112.2033
   11460.5000    4.9682   66.6932  125.6523
   11461.0000    4.8551   71.7038  128.2463
   11461.5000    4.8192   70.7269  128.6388
   11462.0000    4.7960   64.2043  129.8041
   11462.5000    4.8266   58.3259  123.8118
   11463.0000    5.0583   56.3873  116.7815
   11463.5000    5.5748   60.0744  125.1370
   11464.0000    6.0071   63.1085  136.2273
   11464.5000    5.6644   54.6388  118.0111
   11465.0000    5.2873   46.4727   98.5959
   11465.5000    5.3685   47.3737  101.6645
   11466.0000    5.8531   55.1155  124.9249
   11466.5000    6.1982   63.3055  143.3548
   11467.0000    5.6690   59.1542  124.5765
   11467.5000    5.0734   49.7892   97.9801
   11468.0000    4.9141   47.6698   91.0367
   11468.5000    4.8090   50.6437   95.4185
   11469.0000    4.7506   52.0636   94.7808
   11469.5000    4.8306   50.9638   89.0834
   11470.0000    4.8679   48.2594   85.7459
   11470.5000    4.9923   44.8727   83.8992
   11471.0000    5.1745   42.2355   81.3259
   11471.5000    5.3472   40.7947   79.4959
   11472.0000    5.3886   39.9035   78.2412
   11472.5000    5.4957   42.3293   83.5126
