~Version Information
 VERS.                  2.0:   CWLS log ASCII Standard -VERSION 2.0
 WRAP.                   NO:   One line per depth step
~Well Information Block
#MNEM.UNIT     VALUE/NAME     DESCRIPTION
#---------     -----------    ---------------------------
 STRT.F             10927.0000: START DEPTH
 STOP.F             12844.5000: STOP DEPTH
 STEP.F                 0.5000: STEP DEPTH
 NULL.               -999.2500: NULL VALUE
 API .                        :  API NUMBER
 CNTY.                        :  COUNTY
 COMP.                        :  COMPANY
 CTRY.                        :  COUNTRY
 DATE.                        :  DATE
 FLD .                        :  FIELD
 PROV.                        :  PROVINCE
 SRVC.             Halliburton:  SERVICE COMPANY
 STAT.                        :  STATE
 UWI .                        :  UNIQUE WELL IDENTIFIER
 WELL.                        :  WELL
 LOC .                        :  LOCATION
 TDL .ft           1374.671875:  TOTAL DEPTH (LOGGER)
~Parameter Information Block
#MNEM.UNIT       Value        Description
#---------     -----------    ---------------------------
 AV  .fpm           452.755920:  Ann Velocity 
 AVMX.fpm           511.811035:  Max Ann Veloc 
 AZIF.deg           237.779999:  Azm, Final 
 BHAT.        Rotary Steerable:  BHA Type 
 BROT.°/100'          0.030480:  Build Rotating 
 BS  .in              8.500000:  Bit Size 
 BSZ .in              8.500000:  Bit Size 
 BTPL.psig          511.000000:  Bit Press Loss 
 CABU.                      No:  Customer Abuse 
 CGEO.        Jonathan Randles:  Customer Geo 
 COMM.                     ä<]:  Run Comments 1 
 TCS .hr             63.500000:  Time Ciculation Ended 
 CV  .fpm           393.700806:  Crit Velocity 
 CVMX.fpm           393.700806:  Max Crit Veloc 
 DD1 .          Andrey Borodin:  Direct Drillr 1 
 DD2 .           Pierre Giroud:  Direct Drillr 2 
 DDSV.                 iCruise:  DD Service 
 DEFF.%              98.000000:  % Det Eff 
 DEVI.deg            89.040001:  InclinationUp 
 DEVI.deg            89.019997:  InclinationLow 
 DLRX.°/100'          8.818880:  Dogleg Rot Max 
 DLSO.°/100'          2.245360:  Dogleg Oriented 
 DLSX.°/100'          8.818880:  Dogleg Str Max 
 DRET.      01.05.00 01-Sep-21:  Drill End Time 
 DRST.      14.32.10 29-Aug-21:  Drill Start Tim 
 DTIM.hr             44.500000:  Time Drilling 
 EDEP.ft          13077.427734:  End Depth 
 ENG1.           Sergey Burkov:  Engineer 1 
 ENG2.         Ebenezer Parker:  Engineer 2 
 ENG3.            Gerald Natai:  Engineer 3 
 ENG4.         Victor Alvarado:  Engineer 4 
 ETIM.      01.05.00 02-Sep-21:  End Time 
 FLOI.gpm           629.930054:  Flow In 
 FLON.gpm           600.000000:  Flow In Min 
 FLOS.mptm            3.200000:  Fluid Loss 
 FLOX.gpm           650.000000:  Flow In Max 
 HAZI.deg           236.610001:  AzimuthLower 
 HAZI.deg           238.050003:  AzimuthUpper 
 HPRE.                      No:  High Pressure 
 HYDO.ft              0.000000:  Hydro Offset 
 IFIN.deg            91.870003:  Inc, Final 
 IMAX.deg            92.339996:  Inc Max 
 IMIN.deg            84.989998:  Inc Min 
 IMND.ft          12906.824219:  Inc Min Depth 
 IMXD.ft          11745.407227:  Inc Max Depth 
 JARR.                      No:  Jarring 
 LETM.      01.05.00 01-Sep-21:  Log End Time 
 LOST.hr                     0:  Lost Rig Time 
 LSTM.      14.32.10 28-Aug-21:  Log Start Time 
 MDCL.ppm         60000.000000:  Mud Chlorides 
 MDES.             Fresh Water:  Mud Desc 
 DFD .ppg             9.638940:  Mud Density 
 MDMN.ppg             9.597213:  Dens Mud Min 
 MDMX.ppg             9.680667:  Dens Mud Max 
 PH  .pH              9.900000:  Mud pH 
 MOIL.                    0.00:  Run Mud Oil % 
 MSND.                    0.20:  Run Mud Sand % 
 MSOL.                     4.3:  Run Mud Solids% 
 DFV .spqt           47.000000:  Mud Viscosity 
 MWOD.in              6.750000:  MWD Tool OD 
 MWSI.                      No:  Serv Intrp, MWD 
 ORV1.deg             0.000000:  Orientation 1 
 ORV2.deg             0.000000:  Orientation 2 
 OTIM.hr            111.000000:  Time Operating 
 PMAX.psia         9168.941406:  Press Op, Max 
 PV  .cP             12.000000:  Mud PV 
 RMS .ohmm            0.085000:  Mud Resistivity 
 RMCS.ohmm            0.095000:  Mud Cake Resistivity 
 MCST.degF           80.959999:  Mud Cake Sample Temperature 
 RMFS.ohmm            0.080000:  Mud Filtrate Resistivity 
 RMFT.degF           80.959999:  Mud Filtrate Sample Temperature 
 RMMT.ohmm            0.192300:  Rm @ Max Temp 
 MST .degF           80.959999:  Mud Sample Temperature 
 RUN .                     600:  Run Number 
 ROP .fph             0.000000:  ROP Orient Avg 
 ROP .fph            43.143044:  ROP Rot Avg 
 ROPA.fph            43.143044:  ROP Avg 
 ROPN.fph            33.628609:  ROP Min 
 ROPX.fph            44.291336:  ROP Max 
 RPMA.rpm           173.389999:  RPM Surface Avg 
 RPMN.rpm           155.000000:  RPM Surface Min 
 RPMX.rpm           180.000000:  RPM Surface Max 
 RRUN.                     600:  Rig Run Number 
 RTIM.hr             10.500000:  Time Reaming 
 SAZI.deg           236.539993:  Azm, Start 
 SDEP.ft          11158.136719:  Start Depth 
 SDL1.          Christina Sava:  SDL Engineer 1 
 SDL2.         Mohamed Gharieb:  SDL Engineer 2 
 SIDD.                      No:  Serv Intrp, DD 
 SINC.deg            88.860001:  Inc, Start 
 SPPA.psig         2398.194824:  SPP Avg 
 SPPN.psig         2199.985840:  SPP Min 
 SPPX.psig         2519.983887:  SPP Max 
 STIM.      05.37.03 29-Aug-21:  Start Time 
 SVER.                9.200000:  Sperry Version 
 TDAT.ft          11158.136719:  Tot Depth Attmp 
 TDDF.                      No:  Trip for DD 
 TDLG.ft           1374.671875:  Tot Depth Loggd 
 TFF .                      No:  Trip for Fail 
 TQAA.f-p         20745.179688:  Torque Abs Avg 
 TQAN.f-p         17000.000000:  Torque Abs Min 
 TQAX.f-p         25000.000000:  Torque Abs Max 
 TRRT.°/100'          0.081280:  Turn Rotating 
 MRT .                     PWD:  Maximum Recorded Temperature 
 TTMX.degF          102.199997:  Max Tool Temp 
 VS01.                90642082:  Virtual Str1 SN 
 VS02.                90641410:  Virtual Str2 SN 
 VS03.                90645759:  Virtual Str3 SN 
 VS04.                90645758:  Virtual Str4 SN 
 VS05.                90645760:  Virtual Str5 SN 
 VS06.                90641262:  Virtual Str6 SN 
 VS07.                90647660:  Virtual Str7 SN 
 VS08.                13098488:  Virtual Str8 SN 
 VS09.                90642211:  Virtual Str9 SN 
 WBMN.klb             7.000000:  WOB Min 
 WITN.              Johan Roos:  Customer Rep 
 WITN.           Danial Jacobs:  Customer Rep 2 
 WOBA.klb            16.770000:  WOB Avg 
 WOBX.klb            25.000000:  WOB Max 
 YP  .lhf2           20.000000:  Yield Point 
~Curve Information Block
#MNEM.UNIT                 API CODE     Curve Description
#---------               -----------    ---------------------------
 DEPT.F                 00 000 000 000:  Depth
 AFRSAC.ohmm            00 000 000 000:  AFR Shallow Avg Res BC
 AFRMAC.ohmm            00 000 000 000:  AFR Medium Avg Res BC
 AFRDAC.ohmm            00 000 000 000:  AFR Deep Avg Res BC
#Other Information
#
#WARRANTY: Halliburton will use its best efforts to furnish customers with 
#accurate information and interpretations that are part of, and incident to, the services 
#provided.  However, Halliburton cannot and does not warrant the accuracy 
#or correctness of such information and interpretations.  Under no circumstances should any 
#such information or interpretation be relied upon as the sole basis for any drilling, 
#completion, production, or financial decision or any procedure involving any risk to the 
#safety of any drilling venture, drilling rig or its crew or any other third party.  The 
#Customer has full responsibility for all drilling, completion and production operation.  
#Halliburton makes no representations or warranties, either expressed or 
#implied, including, but not limited to, the implied warranties of merchantability or fitness 
#for a particular purpose, with respect to the services rendered.  In no event will 
#Halliburton be liable for failure to obtain any particular results or for 
#any damages, including, but not limited to, indirect, special or consequential damages, 
#resulting from the use of any information or interpretation provided by Halliburton.
#
~A    DEPT     AFRSAC    AFRMAC    AFRDAC   
# ...
   11928.0000    5.7124   10.0891   12.0137
   11928.5000    5.8976   10.2744   12.1049
   11929.0000    6.0056   10.1771   12.0678
   11929.5000    6.0203   10.0455   11.8127
   11930.0000    6.0195   10.0892   11.4978
   11930.5000    5.9251    9.9315   11.0040
   11931.0000    5.9260    9.8092   10.8767
   11931.5000    6.1158   10.0978   11.3540
   11932.0000    6.2729   10.4813   11.7734
   11932.5000    6.3289   10.4601   11.8271
   11933.0000    6.3754   10.3112   11.8346
   11933.5000    6.4594   10.2928   11.9792
   11934.0000    6.6838   10.6071   12.5243
   11934.5000    6.7917   10.9619   12.8643
   11935.0000    6.5795   10.9100   12.4711
   11935.5000    6.1782   10.4143   11.6906
   11936.0000    5.8053    9.9114   11.1041
   11936.5000    5.6252    9.7113   10.9541
   11937.0000    5.5858    9.7808   11.0889
   11937.5000    5.6288    9.9787   11.2976
   11938.0000    5.7584   10.1747   11.6138
   11938.5000    5.8929   10.3006   11.9728
   11939.0000    5.8441   10.1589   11.9636
   11939.5000    5.6865    9.9606   11.6598
   11940.0000    5.4948    9.6345   11.2409
   11940.5000    5.2879    9.2554   10.8208
   11941.0000    5.1389    9.1103   10.5931
   11941.5000    5.1055    9.2272   10.6188
   11942.0000    5.0892    9.3911   10.6865
   11942.5000    5.0892    9.4955   10.8230
   11943.0000    5.1335    9.5128   11.0508
   11943.5000    5.1718    9.4920   11.2024
   11944.0000    5.2243    9.5391   11.3600
   11944.5000    5.3016    9.7873   11.6162
   11945.0000    5.3614   10.0047   11.8650
   11945.5000    5.2566    9.9856   11.6872
   11946.0000    5.1119    9.7670   11.3487
   11946.5000    5.0945    9.6469   11.2976
   11947.0000    5.0627    9.6277   11.2678
   11947.5000    4.9848    9.6486   11.1659
   11948.0000    4.9296    9.7246   11.1139
   11948.5000    4.8937    9.6965   11.0208
   11949.0000    4.8335    9.4851   10.8141
   11949.5000    4.7940    9.3128   10.7115
   11950.0000    4.8381    9.4697   10.8741
   11950.5000    4.9439    9.7583   11.1449
   11951.0000    5.0700    9.9219   11.4663
   11951.5000    5.1492   10.0469   11.7037
   11952.0000    5.1611   10.0434   11.7094
   11952.5000    5.0608    9.7626   11.3794
   11953.0000    4.9737    9.5278   11.1201
   11953.5000    4.9567    9.4709   11.0482
   11954.0000    4.9451    9.5124   11.0234
   11954.5000    4.9455    9.6694   11.1176
   11955.0000    4.9425    9.8116   11.2373
   11955.5000    4.8488    9.6916   11.0368
   11956.0000    4.6931    9.3874   10.5674
   11956.5000    4.5540    9.0626   10.2177
   11957.0000    4.4463    8.7598   10.0724
   11957.5000    4.4096    8.5585   10.1158
   11958.0000    4.4723    8.7113   10.4463
   11958.5000    4.5792    9.0899   10.9415
   11959.0000    4.6594    9.2402   11.3053
   11959.5000    4.6559    9.1951   11.4288
   11960.0000    4.5582    9.1206   11.2666
   11960.5000    4.4438    9.0671   11.0118
   11961.0000    4.3605    9.0290   10.7451
   11961.5000    4.3051    8.9622   10.4616
   11962.0000    4.2569    8.8825   10.1849
   11962.5000    4.2072    8.7943   10.0091
   11963.0000    4.1478    8.6554    9.8515
   11963.5000    4.0620    8.4982    9.6732
   11964.0000    4.0116    8.4202    9.6137
   11964.5000    4.0861    8.4617    9.8495
   11965.0000    4.3088    8.7650   10.3812
   11965.5000    4.6271    9.3881   11.0732
   11966.0000    5.0033   10.2302   11.8743
   11966.5000    5.4203   11.1329   13.0029
   11967.0000    5.6108   11.5561   13.8969
   11967.5000    5.4018   11.0884   13.5991
   11968.0000    5.0304   10.5215   12.6252
   11968.5000    4.6903   10.1315   11.7311
   11969.0000    4.4621    9.7452   11.1847
   11969.5000    4.3894    9.5378   11.0384
   11970.0000    4.4382    9.6307   11.1703
   11970.5000    4.5072    9.8108   11.3647
   11971.0000    4.6085    9.8952   11.6320
   11971.5000    4.7564   10.0518   11.9574
   11972.0000    4.8809   10.2500   12.2428
   11972.5000    4.9495   10.4707   12.4706
   11973.0000    5.0191   10.6729   12.6706
   11973.5000    5.0888   10.7132   12.7655
   11974.0000    5.1552   10.6220   12.7584
   11974.5000    5.2179   10.6106   12.7919
   11975.0000    5.3057   10.7654   13.0152
   11975.5000    5.4156   11.0688   13.3661
   11976.0000    5.4129   11.1564   13.3638
   11976.5000    5.4259   11.0927   13.2231
   11977.0000    5.5059   11.1713   13.2468
   11977.5000    5.4677   11.1812   13.0805
   11978.0000    5.3825   10.9922   12.7981
   11978.5000    5.3034   10.7801   12.4785
   11979.0000    5.2485   10.2451   12.0831
   11979.5000    5.2408   10.0203   11.8670
   11980.0000    5.2733   10.3045   12.0846
   11980.5000    5.2808   10.3989   12.3352
   11981.0000    5.2299   10.2134   12.2467
   11981.5000    5.1851   10.0797   12.0427
   11982.0000    5.1692    9.9275   11.8229
   11982.5000    5.1944    9.7618   11.5997
   11983.0000    5.2774    9.7288   11.4121
   11983.5000    5.3989    9.7790   11.3137
   11984.0000    5.5878    9.9495   11.4005
   11984.5000    5.8680   10.1476   11.6111
   11985.0000    6.1738   10.2999   11.8070
   11985.5000    6.5423   10.5914   12.0806
   11986.0000    6.9508   10.8266   12.4365
   11986.5000    7.5205   11.0895   13.1665
   11987.0000    8.2794   12.0788   14.2280
   11987.5000    8.6039   12.9929   14.4082
   11988.0000    8.3734   12.4117   13.6039
   11988.5000    8.1923   11.6643   13.0034
   11989.0000    8.1026   11.9836   12.8474
   11989.5000    8.3541   12.6150   13.4563
   11990.0000    8.6093   12.8140   14.2140
   11990.5000    8.3093   12.8610   13.8532
   11991.0000    7.4704   12.3522   12.3869
   11991.5000    6.8450   11.2028   11.2640
   11992.0000    6.8928   10.6141   11.3352
   11992.5000    7.2326   10.7574   12.0765
   11993.0000    7.2584   10.7548   12.3215
   11993.5000    7.0659   10.5140   11.9329
   11994.0000    7.1756   10.5854   12.1393
   11994.5000    7.6947   11.4467   13.5408
   11995.0000    8.3276   12.8909   15.1157
   11995.5000    8.5432   13.0777   15.2622
   11996.0000    8.1608   12.0187   14.1101
   11996.5000    7.5965   11.1423   12.8730
   11997.0000    7.3224   11.1422   12.3501
   11997.5000    7.2897   11.4684   12.3746
   11998.0000    7.2740   11.3731   12.3017
   11998.5000    7.0758   10.8873   11.9155
   11999.0000    7.1423   10.8590   12.1080
   11999.5000    7.4887   11.3560   12.7496
   12000.0000    7.4068   11.3671   12.4518
   12000.5000    7.1640   10.9710   11.7832
   12001.0000    7.2368   10.9149   11.6352
   12001.5000    7.2051   10.6572   11.3085
   12002.0000    6.9316   10.0921   10.5855
   12002.5000    7.0948   10.1816   10.8053
   12003.0000    7.6297   10.7920   11.7574
   12003.5000    7.8305   11.0422   12.1008
   12004.0000    8.1239   11.3863   12.5322
   12004.5000    8.3250   11.6347   12.7530
   12005.0000    7.9853   11.1844   12.0014
   12005.5000    7.6905   10.7583   11.4282
   12006.0000    7.8529   10.9035   11.7222
   12006.5000    7.9571   10.9521   11.8554
   12007.0000    7.8563   10.8199   11.5409
   12007.5000    7.7434   10.8569   11.1894
   12008.0000    7.4949   10.6088   10.8237
   12008.5000    7.2506    9.9254   10.5834
   12009.0000    7.0349    9.2405   10.3693
   12009.5000    6.7271    8.5251    9.9883
   12010.0000    6.6101    8.7698    9.8660
   12010.5000    6.6847    9.4774   10.2003
   12011.0000    6.9439    9.5598   11.1434
   12011.5000    7.1709   10.0100   12.0068
   12012.0000    6.5185   10.6862   10.7085
   12012.5000    5.5530    9.5746    8.6627
   12013.0000    4.8473    7.6459    7.2846
   12013.5000    4.5572    6.5582    6.7533
   12014.0000    4.4029    6.2252    6.3458
   12014.5000    4.3911    6.9478    6.3281
   12015.0000    4.8922    9.1915    7.6357
   12015.5000    6.0415   11.3302   10.3616
   12016.0000    7.2684   11.7480   12.5734
   12016.5000    7.7211   11.5704   12.9993
   12017.0000    7.8552   11.3787   13.2154
   12017.5000    8.3514   11.4245   14.2684
   12018.0000    9.2972   12.4506   15.6895
   12018.5000    9.9651   13.9702   15.9249
