~Version Information
 VERS.                  2.0:   CWLS log ASCII Standard -VERSION 2.0
 WRAP.                   NO:   One line per depth step
~Well Information Block
#MNEM.UNIT     VALUE/NAME     DESCRIPTION
#---------     -----------    ---------------------------
 STRT.F             10927.0000: START DEPTH
 STOP.F             12844.5000: STOP DEPTH
 STEP.F                 0.5000: STEP DEPTH
 NULL.               -999.2500: NULL VALUE
 API .                        :  API NUMBER
 CNTY.                        :  COUNTY
 COMP.                        :  COMPANY
 CTRY.                        :  COUNTRY
 DATE.                        :  DATE
 FLD .                        :  FIELD
 PROV.                        :  PROVINCE
 SRVC.             Halliburton:  SERVICE COMPANY
 STAT.                        :  STATE
 UWI .                        :  UNIQUE WELL IDENTIFIER
 WELL.                        :  WELL
 LOC .                        :  LOCATION
 TDL .ft           1374.671875:  TOTAL DEPTH (LOGGER)
~Parameter Information Block
#MNEM.UNIT       Value        Description
#---------     -----------    ---------------------------
 AV  .fpm           452.755920:  Ann Velocity 
 AVMX.fpm           511.811035:  Max Ann Veloc 
 AZIF.deg           237.779999:  Azm, Final 
 BHAT.        Rotary Steerable:  BHA Type 
 BROT.°/100'          0.030480:  Build Rotating 
 BS  .in              8.500000:  Bit Size 
 BSZ .in              8.500000:  Bit Size 
 BTPL.psig          511.000000:  Bit Press Loss 
 CABU.                      No:  Customer Abuse 
 CGEO.        Jonathan Randles:  Customer Geo 
 COMM.                     ä<]:  Run Comments 1 
 TCS .hr             63.500000:  Time Ciculation Ended 
 CV  .fpm           393.700806:  Crit Velocity 
 CVMX.fpm           393.700806:  Max Crit Veloc 
 DD1 .          Andrey Borodin:  Direct Drillr 1 
 DD2 .           Pierre Giroud:  Direct Drillr 2 
 DDSV.                 iCruise:  DD Service 
 DEFF.%              98.000000:  % Det Eff 
 DEVI.deg            89.040001:  InclinationUp 
 DEVI.deg            89.019997:  InclinationLow 
 DLRX.°/100'          8.818880:  Dogleg Rot Max 
 DLSO.°/100'          2.245360:  Dogleg Oriented 
 DLSX.°/100'          8.818880:  Dogleg Str Max 
 DRET.      01.05.00 01-Sep-21:  Drill End Time 
 DRST.      14.32.10 29-Aug-21:  Drill Start Tim 
 DTIM.hr             44.500000:  Time Drilling 
 EDEP.ft          13077.427734:  End Depth 
 ENG1.           Sergey Burkov:  Engineer 1 
 ENG2.         Ebenezer Parker:  Engineer 2 
 ENG3.            Gerald Natai:  Engineer 3 
 ENG4.         Victor Alvarado:  Engineer 4 
 ETIM.      01.05.00 02-Sep-21:  End Time 
 FLOI.gpm           629.930054:  Flow In 
 FLON.gpm           600.000000:  Flow In Min 
 FLOS.mptm            3.200000:  Fluid Loss 
 FLOX.gpm           650.000000:  Flow In Max 
 HAZI.deg           236.610001:  AzimuthLower 
 HAZI.deg           238.050003:  AzimuthUpper 
 HPRE.                      No:  High Pressure 
 HYDO.ft              0.000000:  Hydro Offset 
 IFIN.deg            91.870003:  Inc, Final 
 IMAX.deg            92.339996:  Inc Max 
 IMIN.deg            84.989998:  Inc Min 
 IMND.ft          12906.824219:  Inc Min Depth 
 IMXD.ft          11745.407227:  Inc Max Depth 
 JARR.                      No:  Jarring 
 LETM.      01.05.00 01-Sep-21:  Log End Time 
 LOST.hr                     0:  Lost Rig Time 
 LSTM.      14.32.10 28-Aug-21:  Log Start Time 
 MDCL.ppm         60000.000000:  Mud Chlorides 
 MDES.             Fresh Water:  Mud Desc 
 DFD .ppg             9.638940:  Mud Density 
 MDMN.ppg             9.597213:  Dens Mud Min 
 MDMX.ppg             9.680667:  Dens Mud Max 
 PH  .pH              9.900000:  Mud pH 
 MOIL.                    0.00:  Run Mud Oil % 
 MSND.                    0.20:  Run Mud Sand % 
 MSOL.                     4.3:  Run Mud Solids% 
 DFV .spqt           47.000000:  Mud Viscosity 
 MWOD.in              6.750000:  MWD Tool OD 
 MWSI.                      No:  Serv Intrp, MWD 
 ORV1.deg             0.000000:  Orientation 1 
 ORV2.deg             0.000000:  Orientation 2 
 OTIM.hr            111.000000:  Time Operating 
 PMAX.psia         9168.941406:  Press Op, Max 
 PV  .cP             12.000000:  Mud PV 
 RMS .ohmm            0.085000:  Mud Resistivity 
 RMCS.ohmm            0.095000:  Mud Cake Resistivity 
 MCST.degF           80.959999:  Mud Cake Sample Temperature 
 RMFS.ohmm            0.080000:  Mud Filtrate Resistivity 
 RMFT.degF           80.959999:  Mud Filtrate Sample Temperature 
 RMMT.ohmm            0.192300:  Rm @ Max Temp 
 MST .degF           80.959999:  Mud Sample Temperature 
 RUN .                     600:  Run Number 
 ROP .fph             0.000000:  ROP Orient Avg 
 ROP .fph            43.143044:  ROP Rot Avg 
 ROPA.fph            43.143044:  ROP Avg 
 ROPN.fph            33.628609:  ROP Min 
 ROPX.fph            44.291336:  ROP Max 
 RPMA.rpm           173.389999:  RPM Surface Avg 
 RPMN.rpm           155.000000:  RPM Surface Min 
 RPMX.rpm           180.000000:  RPM Surface Max 
 RRUN.                     600:  Rig Run Number 
 RTIM.hr             10.500000:  Time Reaming 
 SAZI.deg           236.539993:  Azm, Start 
 SDEP.ft          11158.136719:  Start Depth 
 SDL1.          Christina Sava:  SDL Engineer 1 
 SDL2.         Mohamed Gharieb:  SDL Engineer 2 
 SIDD.                      No:  Serv Intrp, DD 
 SINC.deg            88.860001:  Inc, Start 
 SPPA.psig         2398.194824:  SPP Avg 
 SPPN.psig         2199.985840:  SPP Min 
 SPPX.psig         2519.983887:  SPP Max 
 STIM.      05.37.03 29-Aug-21:  Start Time 
 SVER.                9.200000:  Sperry Version 
 TDAT.ft          11158.136719:  Tot Depth Attmp 
 TDDF.                      No:  Trip for DD 
 TDLG.ft           1374.671875:  Tot Depth Loggd 
 TFF .                      No:  Trip for Fail 
 TQAA.f-p         20745.179688:  Torque Abs Avg 
 TQAN.f-p         17000.000000:  Torque Abs Min 
 TQAX.f-p         25000.000000:  Torque Abs Max 
 TRRT.°/100'          0.081280:  Turn Rotating 
 MRT .                     PWD:  Maximum Recorded Temperature 
 TTMX.degF          102.199997:  Max Tool Temp 
 VS01.                90642082:  Virtual Str1 SN 
 VS02.                90641410:  Virtual Str2 SN 
 VS03.                90645759:  Virtual Str3 SN 
 VS04.                90645758:  Virtual Str4 SN 
 VS05.                90645760:  Virtual Str5 SN 
 VS06.                90641262:  Virtual Str6 SN 
 VS07.                90647660:  Virtual Str7 SN 
 VS08.                13098488:  Virtual Str8 SN 
 VS09.                90642211:  Virtual Str9 SN 
 WBMN.klb             7.000000:  WOB Min 
 WITN.              Johan Roos:  Customer Rep 
 WITN.           Danial Jacobs:  Customer Rep 2 
 WOBA.klb            16.770000:  WOB Avg 
 WOBX.klb            25.000000:  WOB Max 
 YP  .lhf2           20.000000:  Yield Point 
~Curve Information Block
#MNEM.UNIT                 API CODE     Curve Description
#---------               -----------    ---------------------------
 DEPT.F                 00 000 000 000:  Depth
 AFRSAC.ohmm            00 000 000 000:  AFR Shallow Avg Res BC
 AFRMAC.ohmm            00 000 000 000:  AFR Medium Avg Res BC
 AFRDAC.ohmm            00 000 000 000:  AFR Deep Avg Res BC
#Other Information
#
#WARRANTY: Halliburton will use its best efforts to furnish customers with 
#accurate information and interpretations that are part of, and incident to, the services 
#provided.  However, Halliburton cannot and does not warrant the accuracy 
#or correctness of such information and interpretations.  Under no circumstances should any 
#such information or interpretation be relied upon as the sole basis for any drilling, 
#completion, production, or financial decision or any procedure involving any risk to the 
#safety of any drilling venture, drilling rig or its crew or any other third party.  The 
#Customer has full responsibility for all drilling, completion and production operation.  
#Halliburton makes no representations or warranties, either expressed or 
#implied, including, but not limited to, the implied warranties of merchantability or fitness 
#for a particular purpose, with respect to the services rendered.  In no event will 
#Halliburton be liable for failure to obtain any particular results or for 
#any damages, including, but not limited to, indirect, special or consequential damages, 
#resulting from the use of any information or interpretation provided by Halliburton.
#
~A    DEPT     AFRSAC    AFRMAC    AFRDAC   
# ...
   11291.0000    6.1343   53.5452   61.8791
   11291.5000    6.2005   60.4030   66.3431
   11292.0000    6.5662   70.2693   77.7575
   11292.5000    7.0219   79.4393   94.5372
   11293.0000    7.4482   90.7423  110.6329
   11293.5000    6.8719   65.5588   74.3234
   11294.0000    6.0118   41.9428   45.1774
   11294.5000    6.0134   47.7608   53.6426
   11295.0000    6.0093   61.0404   73.6801
   11295.5000    5.3246   49.1583   56.9333
   11296.0000    4.9988   42.9415   46.6261
   11296.5000    4.9531   44.1187   48.9357
   11297.0000    4.8431   45.2473   51.8558
   11297.5000    4.7123   45.3035   51.4592
   11298.0000    4.6225   45.9764   51.9072
   11298.5000    4.6619   46.7603   53.3353
   11299.0000    4.7637   46.4048   52.4979
   11299.5000    4.8796   46.8913   52.9292
   11300.0000    5.1420   48.8781   55.5365
   11300.5000    5.5429   50.3368   57.4542
   11301.0000    5.7264   50.2811   56.7540
   11301.5000    5.7188   49.2170   55.7643
   11302.0000    5.7555   49.2304   55.7237
   11302.5000    5.8286   51.7382   56.5232
   11303.0000    5.9532   53.3667   59.2816
   11303.5000    5.9399   51.8416   59.6505
   11304.0000    5.8633   50.7070   58.1277
   11304.5000    5.8666   51.6907   58.7736
   11305.0000    5.8467   52.1799   59.9241
   11305.5000    5.8318   52.6129   60.8996
   11306.0000    5.8664   54.2587   62.6620
   11306.5000    5.9185   56.5992   64.3586
   11307.0000    5.9540   56.8672   63.7561
   11307.5000    5.9600   53.4443   59.5892
   11308.0000    5.8332   45.1531   50.4508
   11308.5000    5.6958   40.9491   44.3731
   11309.0000    5.7269   44.3833   47.0955
   11309.5000    5.7590   49.7967   53.1614
   11310.0000    5.7697   52.6970   56.4504
   11310.5000    5.9347   55.7322   60.5078
   11311.0000    6.1751   59.4726   66.7812
   11311.5000    6.3928   63.1282   71.8435
   11312.0000    6.4836   63.8783   72.2359
   11312.5000    6.4520   60.8521   68.6582
   11313.0000    6.4091   58.3035   65.6745
   11313.5000    6.4283   60.0931   68.4327
   11314.0000    6.5259   66.6635   75.0776
   11314.5000    6.6603   72.6800   79.0330
   11315.0000    6.7576   73.3623   79.5835
   11315.5000    6.8070   71.7491   78.9482
   11316.0000    6.7874   70.0152   76.3192
   11316.5000    6.7081   68.3237   72.8139
   11317.0000    6.5623   66.7151   70.0547
   11317.5000    6.4041   64.5960   67.3706
   11318.0000    6.3426   61.8861   63.8996
   11318.5000    6.3448   58.8595   60.4496
   11319.0000    6.3491   58.0819   59.9601
   11319.5000    6.3217   61.2861   63.5856
   11320.0000    6.2940   65.4374   68.6812
   11320.5000    6.2413   67.7305   71.9643
   11321.0000    6.0623   66.8910   70.7379
   11321.5000    5.8914   62.5298   66.9225
   11322.0000    5.8241   58.3913   64.4762
   11322.5000    5.6892   56.0345   63.0658
   11323.0000    5.5919   53.7696   62.3107
   11323.5000    5.6002   51.7853   62.3528
   11324.0000    5.6208   52.1819   63.6494
   11324.5000    5.5547   55.6315   65.8786
   11325.0000    5.4047   60.8184   69.1973
   11325.5000    5.3352   65.0677   72.8470
   11326.0000    5.4360   67.0751   75.4600
   11326.5000    5.5492   67.1806   76.1942
   11327.0000    5.6087   65.3562   74.9161
   11327.5000    5.7107   65.0222   75.2881
   11328.0000    5.6803   65.2611   75.2312
   11328.5000    5.5850   64.7653   73.6739
   11329.0000    5.4899   63.9684   72.1630
   11329.5000    5.4486   61.6607   68.1026
   11330.0000    5.4765   57.7710   61.7579
   11330.5000    5.5253   54.4663   58.2850
   11331.0000    5.5146   53.2716   58.9702
   11331.5000    5.4720   51.9728   58.9840
   11332.0000    5.4779   49.5248   55.9780
   11332.5000    5.4872   50.7379   56.8645
   11333.0000    5.4280   57.3805   64.6887
   11333.5000    5.2918   59.9972   68.0542
   11334.0000    5.2130   56.1102   64.0997
   11334.5000    5.2081   55.0007   63.5541
   11335.0000    5.2310   56.5950   65.9913
   11335.5000    5.3173   57.5690   66.9544
   11336.0000    5.4206   57.5817   66.1580
   11336.5000    5.4666   57.7660   65.4723
   11337.0000    5.4691   57.8672   64.8592
   11337.5000    5.4584   56.9930   63.2977
   11338.0000    5.4753   56.0851   61.9286
   11338.5000    5.4871   55.2095   60.6500
   11339.0000    5.5448   55.6577   60.9616
   11339.5000    5.6016   57.8281   62.8061
   11340.0000    5.6461   60.3012   65.1914
   11340.5000    5.7045   62.3390   68.2180
   11341.0000    5.7450   64.3802   71.7131
   11341.5000    5.7795   66.9677   75.3105
   11342.0000    5.7518   68.1848   77.0950
   11342.5000    5.7499   67.7133   77.7488
   11343.0000    5.7536   65.9923   76.7891
   11343.5000    5.6537   65.0089   75.3288
   11344.0000    5.4942   65.4810   74.0936
   11344.5000    5.3670   65.4498   72.8577
   11345.0000    5.3091   63.4574   71.9534
   11345.5000    5.3060   61.5901   70.9815
   11346.0000    5.3012   61.4016   69.7985
   11346.5000    5.3553   63.2867   71.0652
   11347.0000    5.3596   64.3231   73.1008
   11347.5000    5.3666   62.8644   71.9604
   11348.0000    5.5047   60.8866   68.6075
   11348.5000    5.6210   59.6297   66.3323
   11349.0000    5.6974   59.3349   66.2694
   11349.5000    5.7490   59.3445   66.6037
   11350.0000    5.7680   60.6693   67.9824
   11350.5000    5.7797   63.1605   70.9137
   11351.0000    5.7246   63.6832   71.8199
   11351.5000    5.6124   61.7308   69.7770
   11352.0000    5.5139   59.9092   68.7667
   11352.5000    5.5338   61.1331   73.0711
   11353.0000    5.6490   63.8654   78.9287
   11353.5000    5.6307   64.0516   79.4398
   11354.0000    5.5588   63.9042   78.9313
   11354.5000    5.4689   63.0920   76.0145
   11355.0000    5.2877   57.4064   66.9749
   11355.5000    5.1217   52.1609   60.2623
   11356.0000    5.0415   50.4458   59.0398
   11356.5000    4.9736   49.7705   59.3532
   11357.0000    4.9362   50.9366   62.2082
   11357.5000    4.9172   55.9156   70.5179
   11358.0000    4.9453   62.4931   81.7765
   11358.5000    4.9570   66.0833   89.0672
   11359.0000    4.8910   65.6662   89.8820
   11359.5000    4.9145   62.5474   84.3709
   11360.0000    4.8847   55.5526   72.3211
   11360.5000    4.8557   50.3599   63.6624
   11361.0000    4.9293   50.1197   62.9248
   11361.5000    5.0375   54.0925   68.5819
   11362.0000    5.1999   59.7255   78.0829
   11362.5000    5.2727   59.7468   78.8356
   11363.0000    5.2375   55.1417   69.9242
   11363.5000    5.2159   54.7490   67.2849
   11364.0000    5.1977   58.5359   69.0296
   11364.5000    5.2038   55.6705   63.2020
   11365.0000    5.2680   48.1822   55.5048
   11365.5000    5.4667   47.1843   55.0942
   11366.0000    5.9684   53.9556   64.2202
   11366.5000    6.6170   64.5907   81.7109
   11367.0000    6.9602   71.5216   94.7176
   11367.5000    6.9163   71.8381   94.9427
   11368.0000    6.2295   59.9629   76.4552
   11368.5000    5.5906   48.6823   62.9619
   11369.0000    5.5296   46.5936   63.1869
   11369.5000    5.7137   49.4118   67.1359
   11370.0000    5.5130   49.1870   65.4222
   11370.5000    5.3667   50.9651   64.1678
   11371.0000    5.4343   55.6838   63.6825
   11371.5000    5.7287   57.4375   59.1856
   11372.0000    6.0358   49.8624   52.2802
   11372.5000    6.2031   38.9628   46.8470
   11373.0000    6.1992   34.6913   43.5651
   11373.5000    6.6609   41.3055   48.1521
   11374.0000   10.1539   60.2485   77.2086
   11374.5000   22.4065   86.8682  163.1736
   11375.0000   38.9173  132.2947  259.0198
   11375.5000   38.3861  179.0368  212.5759
   11376.0000   20.5823   76.0742  106.4298
   11376.5000    9.8061   36.0204   58.5778
   11377.0000    6.6399   30.9315   47.4234
   11377.5000    6.1281   38.2359   51.3975
   11378.0000    6.7013   53.3751   66.1278
   11378.5000    7.1250   60.3075   76.3545
   11379.0000    6.3804   50.4200   66.8305
   11379.5000    5.5328   36.9660   57.8285
   11380.0000    5.3357   32.5452   53.0868
   11380.5000    5.7527   38.2052   52.3874
   11381.0000    6.2412   46.0293   53.8034
   11381.5000    6.6691   46.6643   56.5862
