~Version Information
 VERS.                  2.0:   CWLS log ASCII Standard -VERSION 2.0
 WRAP.                   NO:   One line per depth step
~Well Information Block
#MNEM.UNIT     VALUE/NAME     DESCRIPTION
#---------     -----------    ---------------------------
 STRT.F             10927.0000: START DEPTH
 STOP.F             12844.5000: STOP DEPTH
 STEP.F                 0.5000: STEP DEPTH
 NULL.               -999.2500: NULL VALUE
 API .                        :  API NUMBER
 CNTY.                        :  COUNTY
 COMP.                        :  COMPANY
 CTRY.                        :  COUNTRY
 DATE.                        :  DATE
 FLD .                        :  FIELD
 PROV.                        :  PROVINCE
 SRVC.             Halliburton:  SERVICE COMPANY
 STAT.                        :  STATE
 UWI .                        :  UNIQUE WELL IDENTIFIER
 WELL.                        :  WELL
 LOC .                        :  LOCATION
 TDL .ft           1374.671875:  TOTAL DEPTH (LOGGER)
~Parameter Information Block
#MNEM.UNIT       Value        Description
#---------     -----------    ---------------------------
 AV  .fpm           452.755920:  Ann Velocity 
 AVMX.fpm           511.811035:  Max Ann Veloc 
 AZIF.deg           237.779999:  Azm, Final 
 BHAT.        Rotary Steerable:  BHA Type 
 BROT.°/100'          0.030480:  Build Rotating 
 BS  .in              8.500000:  Bit Size 
 BSZ .in              8.500000:  Bit Size 
 BTPL.psig          511.000000:  Bit Press Loss 
 CABU.                      No:  Customer Abuse 
 CGEO.        Jonathan Randles:  Customer Geo 
 COMM.                     ä<]:  Run Comments 1 
 TCS .hr             63.500000:  Time Ciculation Ended 
 CV  .fpm           393.700806:  Crit Velocity 
 CVMX.fpm           393.700806:  Max Crit Veloc 
 DD1 .          Andrey Borodin:  Direct Drillr 1 
 DD2 .           Pierre Giroud:  Direct Drillr 2 
 DDSV.                 iCruise:  DD Service 
 DEFF.%              98.000000:  % Det Eff 
 DEVI.deg            89.040001:  InclinationUp 
 DEVI.deg            89.019997:  InclinationLow 
 DLRX.°/100'          8.818880:  Dogleg Rot Max 
 DLSO.°/100'          2.245360:  Dogleg Oriented 
 DLSX.°/100'          8.818880:  Dogleg Str Max 
 DRET.      01.05.00 01-Sep-21:  Drill End Time 
 DRST.      14.32.10 29-Aug-21:  Drill Start Tim 
 DTIM.hr             44.500000:  Time Drilling 
 EDEP.ft          13077.427734:  End Depth 
 ENG1.           Sergey Burkov:  Engineer 1 
 ENG2.         Ebenezer Parker:  Engineer 2 
 ENG3.            Gerald Natai:  Engineer 3 
 ENG4.         Victor Alvarado:  Engineer 4 
 ETIM.      01.05.00 02-Sep-21:  End Time 
 FLOI.gpm           629.930054:  Flow In 
 FLON.gpm           600.000000:  Flow In Min 
 FLOS.mptm            3.200000:  Fluid Loss 
 FLOX.gpm           650.000000:  Flow In Max 
 HAZI.deg           236.610001:  AzimuthLower 
 HAZI.deg           238.050003:  AzimuthUpper 
 HPRE.                      No:  High Pressure 
 HYDO.ft              0.000000:  Hydro Offset 
 IFIN.deg            91.870003:  Inc, Final 
 IMAX.deg            92.339996:  Inc Max 
 IMIN.deg            84.989998:  Inc Min 
 IMND.ft          12906.824219:  Inc Min Depth 
 IMXD.ft          11745.407227:  Inc Max Depth 
 JARR.                      No:  Jarring 
 LETM.      01.05.00 01-Sep-21:  Log End Time 
 LOST.hr                     0:  Lost Rig Time 
 LSTM.      14.32.10 28-Aug-21:  Log Start Time 
 MDCL.ppm         60000.000000:  Mud Chlorides 
 MDES.             Fresh Water:  Mud Desc 
 DFD .ppg             9.638940:  Mud Density 
 MDMN.ppg             9.597213:  Dens Mud Min 
 MDMX.ppg             9.680667:  Dens Mud Max 
 PH  .pH              9.900000:  Mud pH 
 MOIL.                    0.00:  Run Mud Oil % 
 MSND.                    0.20:  Run Mud Sand % 
 MSOL.                     4.3:  Run Mud Solids% 
 DFV .spqt           47.000000:  Mud Viscosity 
 MWOD.in              6.750000:  MWD Tool OD 
 MWSI.                      No:  Serv Intrp, MWD 
 ORV1.deg             0.000000:  Orientation 1 
 ORV2.deg             0.000000:  Orientation 2 
 OTIM.hr            111.000000:  Time Operating 
 PMAX.psia         9168.941406:  Press Op, Max 
 PV  .cP             12.000000:  Mud PV 
 RMS .ohmm            0.085000:  Mud Resistivity 
 RMCS.ohmm            0.095000:  Mud Cake Resistivity 
 MCST.degF           80.959999:  Mud Cake Sample Temperature 
 RMFS.ohmm            0.080000:  Mud Filtrate Resistivity 
 RMFT.degF           80.959999:  Mud Filtrate Sample Temperature 
 RMMT.ohmm            0.192300:  Rm @ Max Temp 
 MST .degF           80.959999:  Mud Sample Temperature 
 RUN .                     600:  Run Number 
 ROP .fph             0.000000:  ROP Orient Avg 
 ROP .fph            43.143044:  ROP Rot Avg 
 ROPA.fph            43.143044:  ROP Avg 
 ROPN.fph            33.628609:  ROP Min 
 ROPX.fph            44.291336:  ROP Max 
 RPMA.rpm           173.389999:  RPM Surface Avg 
 RPMN.rpm           155.000000:  RPM Surface Min 
 RPMX.rpm           180.000000:  RPM Surface Max 
 RRUN.                     600:  Rig Run Number 
 RTIM.hr             10.500000:  Time Reaming 
 SAZI.deg           236.539993:  Azm, Start 
 SDEP.ft          11158.136719:  Start Depth 
 SDL1.          Christina Sava:  SDL Engineer 1 
 SDL2.         Mohamed Gharieb:  SDL Engineer 2 
 SIDD.                      No:  Serv Intrp, DD 
 SINC.deg            88.860001:  Inc, Start 
 SPPA.psig         2398.194824:  SPP Avg 
 SPPN.psig         2199.985840:  SPP Min 
 SPPX.psig         2519.983887:  SPP Max 
 STIM.      05.37.03 29-Aug-21:  Start Time 
 SVER.                9.200000:  Sperry Version 
 TDAT.ft          11158.136719:  Tot Depth Attmp 
 TDDF.                      No:  Trip for DD 
 TDLG.ft           1374.671875:  Tot Depth Loggd 
 TFF .                      No:  Trip for Fail 
 TQAA.f-p         20745.179688:  Torque Abs Avg 
 TQAN.f-p         17000.000000:  Torque Abs Min 
 TQAX.f-p         25000.000000:  Torque Abs Max 
 TRRT.°/100'          0.081280:  Turn Rotating 
 MRT .                     PWD:  Maximum Recorded Temperature 
 TTMX.degF          102.199997:  Max Tool Temp 
 VS01.                90642082:  Virtual Str1 SN 
 VS02.                90641410:  Virtual Str2 SN 
 VS03.                90645759:  Virtual Str3 SN 
 VS04.                90645758:  Virtual Str4 SN 
 VS05.                90645760:  Virtual Str5 SN 
 VS06.                90641262:  Virtual Str6 SN 
 VS07.                90647660:  Virtual Str7 SN 
 VS08.                13098488:  Virtual Str8 SN 
 VS09.                90642211:  Virtual Str9 SN 
 WBMN.klb             7.000000:  WOB Min 
 WITN.              Johan Roos:  Customer Rep 
 WITN.           Danial Jacobs:  Customer Rep 2 
 WOBA.klb            16.770000:  WOB Avg 
 WOBX.klb            25.000000:  WOB Max 
 YP  .lhf2           20.000000:  Yield Point 
~Curve Information Block
#MNEM.UNIT                 API CODE     Curve Description
#---------               -----------    ---------------------------
 DEPT.F                 00 000 000 000:  Depth
 AFRSAC.ohmm            00 000 000 000:  AFR Shallow Avg Res BC
 AFRMAC.ohmm            00 000 000 000:  AFR Medium Avg Res BC
 AFRDAC.ohmm            00 000 000 000:  AFR Deep Avg Res BC
#Other Information
#
#WARRANTY: Halliburton will use its best efforts to furnish customers with 
#accurate information and interpretations that are part of, and incident to, the services 
#provided.  However, Halliburton cannot and does not warrant the accuracy 
#or correctness of such information and interpretations.  Under no circumstances should any 
#such information or interpretation be relied upon as the sole basis for any drilling, 
#completion, production, or financial decision or any procedure involving any risk to the 
#safety of any drilling venture, drilling rig or its crew or any other third party.  The 
#Customer has full responsibility for all drilling, completion and production operation.  
#Halliburton makes no representations or warranties, either expressed or 
#implied, including, but not limited to, the implied warranties of merchantability or fitness 
#for a particular purpose, with respect to the services rendered.  In no event will 
#Halliburton be liable for failure to obtain any particular results or for 
#any damages, including, but not limited to, indirect, special or consequential damages, 
#resulting from the use of any information or interpretation provided by Halliburton.
#
~A    DEPT     AFRSAC    AFRMAC    AFRDAC   
# ...
   11564.0000    4.9953   79.7767  114.0614
   11564.5000    4.9892   77.7373  114.4933
   11565.0000    5.0908   76.3953  115.6071
   11565.5000    5.1905   75.3486  114.7570
   11566.0000    5.2386   75.1753  116.2906
   11566.5000    5.3351   75.9393  119.1191
   11567.0000    5.4375   74.2402  114.8433
   11567.5000    5.4453   71.9538  108.8922
   11568.0000    5.4374   72.1743  107.0082
   11568.5000    5.4754   73.2603  105.0539
   11569.0000    5.5450   74.3179  103.1825
   11569.5000    5.5988   75.6656  105.0787
   11570.0000    5.7473   76.4034  108.5196
   11570.5000    6.0349   76.5686  110.5135
   11571.0000    6.2801   78.7879  113.8340
   11571.5000    6.4371   82.9676  115.7364
   11572.0000    6.5502   86.2863  114.6417
   11572.5000    6.5705   90.0204  114.5792
   11573.0000    6.5154   96.7943  116.4612
   11573.5000    6.2331  103.1385  119.8619
   11574.0000    6.0757  106.1023  125.9410
   11574.5000    6.7096  105.3701  128.0012
   11575.0000    7.7530  102.5782  125.0729
   11575.5000    9.8046  108.3697  140.4654
   11576.0000   12.7916  113.6335  150.2809
   11576.5000   10.8628   92.3856  116.2371
   11577.0000    6.9411   74.2803   92.3761
   11577.5000    5.2945   75.8675   92.8295
   11578.0000    5.0733   80.5084  102.8917
   11578.5000    5.4330   78.0580  111.6812
   11579.0000    5.5850   70.7640  114.0165
   11579.5000    5.4830   65.6962  113.3809
   11580.0000    5.3470   63.6578  112.5119
   11580.5000    5.1065   61.6011  109.1040
   11581.0000    4.9430   60.3165  106.0761
   11581.5000    4.9798   61.2895  108.5778
   11582.0000    5.0558   64.5472  116.8856
   11582.5000    5.0969   67.9264  126.5977
   11583.0000    5.1506   69.1402  130.5728
   11583.5000    5.2475   68.5105  128.5587
   11584.0000    5.3616   68.6161  128.4262
   11584.5000    5.4661   71.1443  132.8691
   11585.0000    5.6082   76.0900  139.4609
   11585.5000    5.6449   81.2191  142.5643
   11586.0000    5.5264   83.7620  141.3317
   11586.5000    5.4085   85.7390  140.0562
   11587.0000    5.4378   88.3385  140.6988
   11587.5000    5.9052   90.3555  142.0869
   11588.0000    6.2931   90.9433  145.3842
   11588.5000    6.0446   93.3557  149.9333
   11589.0000    5.9575   96.0950  155.3287
   11589.5000    6.1145   95.0883  159.1872
   11590.0000    5.9269   91.2107  157.5903
   11590.5000    5.5757   87.0476  151.1988
   11591.0000    5.3747   84.5752  145.3314
   11591.5000    5.2680   82.0797  139.6134
   11592.0000    5.1405   77.7555  133.6490
   11592.5000    5.0255   74.5460  133.4571
   11593.0000    4.9346   73.4231  137.7892
   11593.5000    4.8733   72.8258  140.5118
   11594.0000    4.8621   72.3572  138.6319
   11594.5000    4.8138   71.1182  129.7778
   11595.0000    4.7885   68.8187  121.5773
   11595.5000    4.7728   66.6716  118.9890
   11596.0000    4.7842   65.2294  122.6641
   11596.5000    4.8160   62.9358  128.7175
   11597.0000    4.7422   60.9353  131.4091
   11597.5000    4.5702   59.6082  127.7682
   11598.0000    4.4181   59.2270  122.5284
   11598.5000    4.3241   60.1597  124.4060
   11599.0000    4.3090   62.4732  134.4774
   11599.5000    4.3503   65.1625  144.0771
   11600.0000    4.4678   65.3556  136.6735
   11600.5000    4.7024   60.7189  113.3055
   11601.0000    5.0811   62.0806  112.1172
   11601.5000    5.5725   73.3509  134.4980
   11602.0000    6.1863   75.2387  124.8887
   11602.5000    7.3197   67.3234   94.6687
   11603.0000    9.8975   72.9992   99.2976
   11603.5000   14.3635   91.0931  136.2366
   11604.0000   26.6054  134.5804  231.2189
   11604.5000   40.3147  214.5157  420.6006
   11605.0000   23.4354  169.8781  264.6258
   11605.5000   13.5282   89.4830  117.3846
   11606.0000   10.7371   75.0328   87.9899
   11606.5000    9.3231   88.2880   99.4982
   11607.0000    9.1253  104.6389  118.6383
   11607.5000    9.4182  103.6809  124.3538
   11608.0000    9.5806   98.1484  129.7431
   11608.5000    9.8211  111.5532  152.4473
   11609.0000    9.5320  131.8679  175.8816
   11609.5000    8.8962  109.0743  143.4945
   11610.0000    8.8512   83.3918  101.6690
   11610.5000    8.8026   74.5040   87.1796
   11611.0000    9.2245   87.6376  105.5199
   11611.5000    9.8498  113.9264  137.7767
   11612.0000    9.0282  108.1316  130.3136
   11612.5000    7.7408   88.9540  111.8612
   11613.0000    7.1149   87.1078  112.4504
   11613.5000    6.4155   89.2372  111.8307
   11614.0000    6.1050   92.6235  111.9406
   11614.5000    6.3105   92.4038  114.6088
   11615.0000    6.6390   81.8119  107.0743
   11615.5000    7.0087   75.8788  103.8764
   11616.0000    7.9190   86.4116  124.6078
   11616.5000    9.3783  107.6946  155.3797
   11617.0000   10.0126  114.9371  151.0004
   11617.5000    9.0840  100.5824  124.9630
   11618.0000    8.0107   89.0141  109.7579
   11618.5000    7.2968   88.4782  107.7590
   11619.0000    6.7832   93.0560  110.2754
   11619.5000    6.4751   95.5323  111.4299
   11620.0000    6.4420   92.9139  110.1237
   11620.5000    6.5450   88.7232  109.2287
   11621.0000    6.8449   91.8168  118.3968
   11621.5000    7.3813  103.2188  142.8390
   11622.0000    7.7321  109.5299  162.0173
   11622.5000    7.4658  101.0734  149.8599
   11623.0000    7.0491   89.8323  127.2751
   11623.5000    7.0693   87.2565  116.8246
   11624.0000    7.0351   88.4307  117.8491
   11624.5000    6.6010   89.7988  120.3461
   11625.0000    6.5202   91.7727  119.7239
   11625.5000    6.7545   90.1496  116.7865
   11626.0000    6.7715   90.6005  115.8150
   11626.5000    6.6702   94.1972  118.7159
   11627.0000    6.6793   98.2712  122.1510
   11627.5000    6.7735  100.8751  123.1210
   11628.0000    6.8739  100.5889  124.7122
   11628.5000    6.8892  101.1280  126.5970
   11629.0000    6.8320  104.5289  126.2378
   11629.5000    6.8703  107.0747  127.0879
   11630.0000    7.0400  106.9757  126.0240
   11630.5000    7.3170   99.6873  116.1027
   11631.0000    7.8117   90.3160  102.6906
   11631.5000    8.4993   85.4163   93.6316
   11632.0000    9.1225   83.0627   88.8248
   11632.5000    9.2457   80.9340   86.1841
   11633.0000    8.9179   80.0852   85.7278
   11633.5000    8.8608   81.7950   87.4952
   11634.0000    8.5812   86.2632   92.0792
   11634.5000    7.9166   90.0736   99.0911
   11635.0000    7.5200   93.2249  106.6999
   11635.5000    7.1056   92.9778  109.0137
   11636.0000    6.8263   93.0566  109.5754
   11636.5000    6.6795   93.5044  109.1179
   11637.0000    6.5948   94.1792  108.3233
   11637.5000    6.5696   93.1719  107.2288
   11638.0000    6.5370   91.4657  106.0073
   11638.5000    6.4967   90.3287  105.7697
   11639.0000    6.4531   89.0968  106.6957
   11639.5000    6.3918   88.6192  108.1549
   11640.0000    6.3258   87.2693  109.2984
   11640.5000    6.2072   82.0325  107.1952
   11641.0000    6.0173   75.6252  100.5438
   11641.5000    5.8237   71.8624   92.7572
   11642.0000    5.7453   71.0021   85.2806
   11642.5000    5.8260   68.3660   73.8069
   11643.0000    6.2778   58.8185   60.0795
   11643.5000    7.2646   50.6102   52.4048
   11644.0000    9.1141   54.5187   58.1886
   11644.5000   13.6923   60.1604   76.4927
   11645.0000   21.8566   45.2597   66.2244
   11645.5000   28.8798   40.0676   49.4733
   11646.0000   33.5949   49.8228   48.1279
   11646.5000   28.6305   46.5612   42.9425
   11647.0000   19.5273   34.0722   32.5763
   11647.5000   17.7484   27.0436   31.2977
   11648.0000   17.4033   24.7331   33.5928
   11648.5000   15.2217   23.9070   33.6677
   11649.0000   22.0765   41.8251   54.4940
   11649.5000   41.9580  100.5673  130.9958
   11650.0000   22.3957   66.3084   91.7005
   11650.5000   12.1145   36.6451   45.5940
   11651.0000    8.4161   23.5956   27.0197
   11651.5000    6.1042   15.6930   18.0515
   11652.0000    5.4098   13.6856   14.9306
   11652.5000    5.2798   15.0286   15.6769
   11653.0000    5.1537   18.9632   20.5922
   11653.5000    5.7662   27.5049   31.9349
   11654.0000    6.8661   33.6145   40.2532
   11654.5000    7.1542   30.3039   36.7500
