~Version Information
 VERS.                  2.0:   CWLS log ASCII Standard -VERSION 2.0
 WRAP.                   NO:   One line per depth step
~Well Information Block
#MNEM.UNIT     VALUE/NAME     DESCRIPTION
#---------     -----------    ---------------------------
 STRT.M              3630.0000: START DEPTH
 STOP.M              5008.7000: STOP DEPTH
 STEP.M                 0.1000: STEP DEPTH
 NULL.               -999.2500: NULL VALUE
 DFWT.                        :  DIST FWL TEXT
 DFST.                        :  DIST FSL TEXT
 DMF .             Drill Floor:  DRILL MEAS FROM
 STIM.      10.30.00 08-May-21:  START TIME
 DATE.      11.38.00 18-Jun-21:  END TIME
 SPUD.               08-May-21:  SPUD DATE
 NREF.                    Grid:  NORTH REFERENCE
 HPTY.       Minimum Curvature:  HOLE POS TYPE
 DMOD.             Drill Model:  DRILL MOD DESC
 SVYD.                  Survey:  SURVEY DESC
 ILTD.               Lithology:  INTERP LTH DESC
 FTOP.          Formation Tops:  FORM TOPS DESC
 SON .        PA-XX-0907037989:  JOB NUMBER
 WTYP.                Deviated:  WELL TYPE
 COMP.     Strike West Pty Ltd:  COMPANY
 BASE.                   Perth:  LOGGING EQUIPMENT BASE LOCATION
 REGN.                      AP:  REGION
 CTRY.               Australia:  COUNTRY NAME
 FLD .          West Erregulla:  FIELD NAME
 SRVC.                  Ensign:  CONTRACTOR
 MWDS.                Jandakot:  MWD SHOP
 WELL.        West Erregulla 5:  WELL NAME
 JOBN.        PA-XX-0907037989:  JOB TICKET NUMB
 RIG .              Ensign 970:  RIG NAME
 DCON.     Sperry Drilling Services:  DIRECTNL CONTR
 UNIT.                11741669:  LOGGING EQUIPMENT ID
 PROV.       Western Australia:  PROVINCE
 STAT.       Western Australia:  STATE NAME
 PDAT.          Mean Sea Level:  PERMANENT DATUM
 MMDL.            bggm2021.dat:  MAGNETIC MODEL
 MMDD.            06 May, 2021:  MAG DATA DATE
 MDS .              Win MagUTM:  MAG DATA SOURCE
 GCDE.     Generic Lat/Long's, Degrees, -180 ==> +180:  GEO COORD DESC
 CCDE.     UTM Zone 50S on Geocentric Datum of Australia 1994, Meters:  CART COORD DESC
 GGSY.                      LL:  GEO GRID SYS
 CGSY.             SS GDA94-50:  CART GRID SYS
 GREF.     Ellipsoid World Geodetic System :  GEO REFERENCE
 CREF.     Datum Geocentric Datum of Austra:  CART REFERENCE
 LLGR.      Latitude/Longitude:  LLGROUP
 XYGR.     Australia/New Zealand Coordinate Systems:  XYGROUP
 API .                        :  API NUMBER
 CNTY.                        :  COUNTY
 UWI .                        :  UNIQUE WELL IDENTIFIER
 LOC .                        :  LOCATION
 LMF .             Drill Floor:  LOG MEASURED FROM
 TVDS.m             224.839988:  TVDSS CORRECTN
 LATI.deg           -29.398151:  LATITUDE
 LONG.deg           115.307694:  LONGITUDE
 WHNS.m               0.000000:  WELL HEAD N/S
 WHEW.m               0.000000:  WELL HEAD E/W
 UTMX.m          335792.640000:  UTM X
 UTMY.m         6746710.760000:  UTM Y
 DFWL.m               0.000000:  DISTANCE FWL
 DFSL.m               0.000000:  DISTANCE FSL
 SDEP.m              61.000002:  START DEPTH
 TDD .m            5015.000011:  TOTAL DEPTH (DRILLER)
 VSDR.deg             0.000000:  VERT SEC DIRECT
 GVFD.g               1.000000:  GRAVITY FIELD
 MFLD.nT          56933.789063:  MAGNETIC FIELD
 MDIP.deg           -63.343086:  MAGNETIC DIP
 MDEC.deg            -1.413625:  MAGNETIC DECL
 GRDC.deg             0.830898:  GRID CORRECTION
 AZTC.deg            -2.244523:  AZM TOTAL CORR
 EPD .m               0.000000:  ELEVATION
 EGL .m             217.679997:  GROUND ELEVATION
 WDMS.m               0.000000:  WD ELEV
 APD .m             224.839988:  DEPTH ABOVE PD
 AGAP.m               7.160000:  AIR GAP
 MMDE.m             -68.531232:  MAGUTM CALC DEP
 DEP .m               0.000000:  DEPTH
 CMER.deg           117.000000:  CENTRL MERIDIAN
 EKB .m               0.000000:  KB ELEVATION
 EDF .m             224.839988:  DF ELEVATION
 VSC .                       1:  VS TO CLOSURE
 MAGU.                 1375590:  MAGUTM CHECKSUM
~Parameter Information Block
#MNEM.UNIT       Value        Description
#---------     -----------    ---------------------------
 AV  .mps             2.583333:  Ann Velocity 
 AVMX.mps             2.933333:  Max Ann Veloc 
 AZIF.deg           193.410004:  Azm, Final 
 BHAT.                  Rotary:  BHA Type 
 BREV.krev          608.299988:  Rev Bit Total 
 BROT.°/30m           0.100000:  Build Rotating 
 BS  .mm            215.899994:  Bit Size 
 BTPL.kPag         3385.350342:  Bit Press Loss 
 CGEO.               Joe Emery:  Customer Geo 
 COMM.                     de~:  Run Comments 1 
 TCS .hr            130.012054:  Time Ciculation Ended 
 CV  .mps             4.100000:  Crit Velocity 
 CVMX.mps             4.100000:  Max Crit Veloc 
 DD1 .           Wayne Parsons:  Direct Drillr 1 
 DDSV.                   Other:  DD Service 
 DEFF.%              98.000000:  % Det Eff 
 DLRX.°/30m           0.680000:  Dogleg Rot Max 
 DLSO.°/30m           0.000000:  Dogleg Oriented 
 DLSX.°/30m           0.000000:  Dogleg Str Max 
 DRET.      22.50.00 17-Jun-21:  Drill End Time 
 DRST.      14.00.00 11-Jun-21:  Drill Start Tim 
 DTIM.hr            107.500000:  Time Drilling 
 EDEP.m            5015.000000:  End Depth 
 ENG1.           Liam ODonnell:  Engineer 1 
 ENG2.               Alan Rule:  Engineer 2 
 ENG3.        Vitaly Vasilenko:  Engineer 3 
 ETIM.      11.38.00 18-Jun-21:  End Time 
 FLOI.m3pm            2.100841:  Flow In 
 FLON.m3pm            2.044061:  Flow In Min 
 FLOS.mptm            3.000000:  Fluid Loss 
 FLOX.m3pm            2.380953:  Flow In Max 
 DFT .                 Polymer:  Mud Type 
 HFLO.                      No:  High Flow 
 HPRE.                      No:  High Pressure 
 HTEM.                      No:  High Temp 
 HYDO.m               2.500000:  Hydro Offset 
 IFIN.deg             5.220000:  Inc, Final 
 IMAX.deg             6.775680:  Inc Max 
 IMIN.deg             1.611614:  Inc Min 
 IMND.m            4310.580078:  Inc Min Depth 
 IMXD.m            4827.209961:  Inc Max Depth 
 JARR.                      No:  Jarring 
 LETM.      22.50.00 17-Jun-21:  Log End Time 
 LOST.hr                     0:  Lost Rig Time 
 LSTM.      14.00.00 11-Jun-21:  Log Start Time 
 MDCL.ppm         97000.000000:  Mud Chlorides 
 MDES.             Fresh Water:  Mud Desc 
 DFD .kg/m3        1222.229614:  Mud Density 
 MDMN.kg/m3        1210.247070:  Dens Mud Min 
 MDMX.kg/m3        1234.212280:  Dens Mud Max 
 PH  .pH              9.500000:  Mud pH 
 MOIL.                       0:  Run Mud Oil % 
 MOWR.                   0 100:  Run Mud OWR 
 MSND.                    0.10:  Run Mud Sand % 
 MSOL.                   12.40:  Run Mud Solids% 
 DFV .spl            62.362999:  Mud Viscosity 
 MWOD.mm            171.449997:  MWD Tool OD 
 MWSI.                      No:  Serv Intrp, MWD 
 OTIM.hr            176.676529:  Time Operating 
 PMAX.kPag        65859.195313:  Press Op, Max 
 PV  .mPsec          35.000000:  Mud PV 
 RMS .ohmm            0.080000:  Mud Resistivity 
 RMCS.ohmm            0.120000:  Mud Cake Resistivity 
 MCST.degC           21.999998:  Mud Cake Sample Temperature 
 RMFS.ohmm            0.060000:  Mud Filtrate Resistivity 
 RMFT.degC           21.999998:  Mud Filtrate Sample Temperature 
 RMMT.ohmm            0.023400:  Rm @ Max Temp 
 MST .degC           21.999998:  Mud Sample Temperature 
 RUN .                     500:  Run Number 
 ROPA.m/hr            6.800000:  ROP Avg 
 ROPN.m/hr            0.100000:  ROP Min 
 ROPX.m/hr           31.799999:  ROP Max 
 RPMA.rpm            98.000000:  RPM Surface Avg 
 RPMN.rpm            65.000000:  RPM Surface Min 
 RPMX.rpm           115.000008:  RPM Surface Max 
 RRUN.                       6:  Rig Run Number 
 RTIM.hr              0.000000:  Time Reaming 
 SAZI.deg           198.550003:  Azm, Start 
 SDEP.m            4283.000000:  Start Depth 
 SIDD.                      No:  Serv Intrp, DD 
 SINC.deg             2.000000:  Inc, Start 
 SPPA.kPag        21042.951172:  SPP Avg 
 SPPN.kPag        19677.779297:  SPP Min 
 SPPX.kPag        25117.783203:  SPP Max 
 STIM.      23.30.00 10-Jun-21:  Start Time 
 SVCS.                 DD, MWD:  Services 
 SVER.                9.200000:  Sperry Version 
 TDAT.m             732.000000:  Tot Depth Attmp 
 TDDF.                      No:  Trip for DD 
 TDLG.m             732.000000:  Tot Depth Loggd 
 TFF .                      No:  Trip for Fail 
 TQAA.kN-m            8.134908:  Torque Abs Avg 
 TQAN.kN-m            8.134908:  Torque Abs Min 
 TQAX.kN-m           14.507253:  Torque Abs Max 
 TRRT.°/30m           0.000000:  Turn Rotating 
 MRT .                    HCIM:  Maximum Recorded Temperature 
 TTMX.degC          127.000000:  Max Tool Temp 
 VS01.                90649920:  Virtual Str1 SN 
 VS02.                90649925:  Virtual Str2 SN 
 VS03.                90649923:  Virtual Str3 SN 
 WBMN.kdN            10.230908:  WOB Min 
 WITN.          Rick Dzivinski:  Customer Rep 2 
 WITN.           Mark Jachmann:  Customer Rep 
 WOBA.kdN            16.636347:  WOB Avg 
 WOBX.kdN            20.906639:  WOB Max 
 YP  .pa             15.321648:  Yield Point 
~Curve Information Block
#MNEM.UNIT                 API CODE     Curve Description
#---------               -----------    ---------------------------
 DEPT.M                 00 000 000 000:  Depth
 AFRSAC.ohmm            00 000 000 000:  AFR Shallow Avg Res BC
 AFRMAC.ohmm            00 000 000 000:  AFR Medium Avg Res BC
 AFRDAC.ohmm            00 000 000 000:  AFR Deep Avg Res BC
#Other Information
#
#WARRANTY: Halliburton will use its best efforts to furnish customers with 
#accurate information and interpretations that are part of, and incident to, the services 
#provided.  However, Halliburton cannot and does not warrant the accuracy 
#or correctness of such information and interpretations.  Under no circumstances should any 
#such information or interpretation be relied upon as the sole basis for any drilling, 
#completion, production, or financial decision or any procedure involving any risk to the 
#safety of any drilling venture, drilling rig or its crew or any other third party.  The 
#Customer has full responsibility for all drilling, completion and production operation.  
#Halliburton makes no representations or warranties, either expressed or 
#implied, including, but not limited to, the implied warranties of merchantability or fitness 
#for a particular purpose, with respect to the services rendered.  In no event will 
#Halliburton be liable for failure to obtain any particular results or for 
#any damages, including, but not limited to, indirect, special or consequential damages, 
#resulting from the use of any information or interpretation provided by Halliburton.
#
~A   DEPT      AFRSAC     AFRMAC     AFRDAC   
# ...
   4534.8000    17.8198    17.6816    17.6643
   4534.9000    17.8757    17.6816    17.7220
   4535.0000    18.1054    17.9588    17.9597
   4535.1000    18.4983    18.3269    18.3952
   4535.2000    18.6090    18.4274    18.5597
   4535.3000    18.7483    18.5062    18.7109
   4535.4000    18.7713    18.3960    18.6902
   4535.5000    18.5322    17.9860    18.4125
   4535.6000    18.2620    17.5347    18.1535
   4535.7000    18.1219    17.3393    18.1039
   4535.8000    18.2572    17.6218    18.3236
   4535.9000    18.5528    17.8665    18.6851
   4536.0000    18.5919    17.3968    18.7562
   4536.1000    18.7082    17.1176    18.8521
   4536.2000    18.7437    17.2353    18.8560
   4536.3000    18.4215    17.9335    18.4611
   4536.4000    18.2616    18.4635    18.2978
   4536.5000    18.0688    18.2424    18.1573
   4536.6000    18.0708    17.5554    18.1871
   4536.7000    18.0707    17.1695    18.1905
   4536.8000    17.6986    16.9537    17.7768
   4536.9000    17.3447    16.6424    17.3980
   4537.0000    17.2790    16.7279    17.3732
   4537.1000    17.2353    16.9668    17.4236
   4537.2000    17.4583    17.4620    17.7671
   4537.3000    17.3411    17.5248    17.6323
   4537.4000    16.9787    16.9610    17.0586
   4537.5000    16.4364    16.1268    16.1807
   4537.6000    15.6579    15.0563    15.0502
   4537.7000    14.9402    14.1075    14.0810
   4537.8000    14.6820    13.7620    13.6740
   4537.9000    14.8231    14.0098    13.7467
   4538.0000    14.8996    14.2088    13.8123
   4538.1000    15.0650    14.2905    13.9753
   4538.2000    15.2348    14.3046    14.1768
   4538.3000    15.2046    14.1688    14.2079
   4538.4000    15.7333    14.6278    14.8590
   4538.5000    15.9574    15.0216    15.2670
   4538.6000    17.1956    16.4810    16.8052
   4538.7000    18.2339    17.8389    18.1581
   4538.8000    18.8998    18.7300    19.1247
   4538.9000    19.0037    18.9195    19.3528
   4539.0000    19.0115    18.9497    19.3712
   4539.1000    18.8713    18.8508    19.1435
   4539.2000    18.6371    18.5026    18.7822
   4539.3000    18.4111    18.1012    18.4250
   4539.4000    18.1737    17.7236    18.0664
   4539.5000    18.1146    17.4714    17.9327
   4539.6000    17.9460    17.3051    17.7359
   4539.7000    17.7454    17.2119    17.5322
   4539.8000    17.8102    17.4247    17.6237
   4539.9000    18.0046    17.7984    17.8659
   4540.0000    18.0970    17.9563    17.9857
   4540.1000    17.9772    17.8598    17.8563
   4540.2000    17.7909    17.6651    17.6004
   4540.3000    17.6307    17.4542    17.3236
   4540.4000    17.5304    17.1792    17.0871
   4540.5000    17.2604    16.7366    16.6860
   4540.6000    16.6986    16.0950    15.9969
   4540.7000    16.6253    16.0144    15.8602
   4540.8000    16.5238    15.9115    15.7142
   4540.9000    16.6513    15.9835    15.8523
   4541.0000    16.6130    15.8147    15.8889
   4541.1000    16.8535    16.1146    16.2756
   4541.2000    17.7577    17.1388    17.4176
   4541.3000    19.0171    18.6858    19.0019
   4541.4000    19.8687    19.7428    20.0955
   4541.5000    19.8862    19.8436    20.1339
   4541.6000    19.3721    19.0564    19.4219
   4541.7000    18.5735    17.9729    18.3333
   4541.8000    18.0566    17.2945    17.5840
   4541.9000    17.8497    17.0219    17.2409
   4542.0000    18.0028    17.3361    17.3255
   4542.1000    17.6849    17.2049    16.9262
   4542.2000    17.1820    16.7343    16.3237
   4542.3000    16.6548    16.2161    15.7132
   4542.4000    16.8278    16.2816    15.8693
   4542.5000    17.5318    16.9907    16.6421
   4542.6000    17.9646    17.4614    17.2078
   4542.7000    17.9618    17.3359    17.2810
   4542.8000    17.4766    16.6052    16.8089
   4542.9000    17.3568    16.3353    16.7145
   4543.0000    17.6878    16.6424    17.0886
   4543.1000    18.1461    17.2578    17.6441
   4543.2000    17.7817    17.2931    17.3723
   4543.3000    17.3953    17.3053    17.1000
   4543.4000    18.0061    18.1860    17.8830
   4543.5000    19.1041    18.8046    19.2003
   4543.6000    19.4612    18.9148    19.6614
   4543.7000    18.6736    17.6663    18.8140
   4543.8000    17.8316    17.0413    17.8907
   4543.9000    18.0140    17.4518    18.1208
   4544.0000    18.3351    17.9572    18.5649
   4544.1000    18.3686    18.1751    18.6805
   4544.2000    18.3146    18.2227    18.6456
   4544.3000    18.4335    18.2431    18.7409
   4544.4000    18.7194    18.4541    19.0346
   4544.5000    18.8393    18.5001    19.1457
   4544.6000    18.8641    18.3862    19.1117
   4544.7000    18.5144    17.8897    18.6033
   4544.8000    17.7835    17.1547    17.6803
   4544.9000    16.7746    16.0294    16.4723
   4545.0000    16.2672    15.3220    15.8409
   4545.1000    16.0081    15.1381    15.5233
   4545.2000    16.1393    15.3847    15.6434
   4545.3000    16.0586    15.7861    15.5513
   4545.4000    15.8544    15.5873    15.3010
   4545.5000    15.8653    15.3898    15.2030
   4545.6000    16.1231    15.5078    15.3687
   4545.7000    16.7990    15.9450    15.9763
   4545.8000    17.6341    16.5670    16.8191
   4545.9000    18.3418    17.0344    17.5806
   4546.0000    18.9395    17.6618    18.2454
   4546.1000    18.8377    17.6359    18.2254
   4546.2000    18.8658    17.9754    18.3098
   4546.3000    18.7633    18.0274    18.2453
   4546.4000    18.2118    17.6834    17.6455
   4546.5000    17.5907    17.0136    16.9465
   4546.6000    16.6828    16.0251    15.9731
   4546.7000    16.6092    15.9413    15.8995
   4546.8000    16.8437    16.3500    16.1689
   4546.9000    17.4351    17.2614    16.8462
   4547.0000    17.8860    18.0077    17.3795
   4547.1000    17.8426    17.9322    17.3383
   4547.2000    17.4837    17.3599    16.8648
   4547.3000    16.8957    16.1984    16.1102
   4547.4000    15.9214    14.5183    14.9443
   4547.5000    15.8699    13.9225    14.7378
   4547.6000    15.2874    13.4865    14.1005
   4547.7000    14.8481    13.4191    13.7201
   4547.8000    15.1857    14.2506    14.2633
   4547.9000    16.2160    15.5939    15.6744
   4548.0000    19.0140    18.7178    19.1161
   4548.1000    19.6488    19.6693    20.1636
   4548.2000    18.5691    18.3578    19.0069
   4548.3000    17.1688    16.7297    17.2937
   4548.4000    16.5511    15.8108    16.4061
   4548.5000    16.1504    15.2959    15.8522
   4548.6000    16.1695    15.2899    15.8428
   4548.7000    16.1200    15.3270    15.7947
   4548.8000    16.3719    15.8765    16.0449
   4548.9000    16.7202    16.4056    16.3730
   4549.0000    16.3427    16.0837    15.9278
   4549.1000    16.5002    15.9933    15.9305
   4549.2000    16.5245    15.8517    15.6531
   4549.3000    15.3685    14.5271    14.2478
   4549.4000    14.2790    13.2931    13.0920
   4549.5000    14.5061    13.5199    13.3993
   4549.6000    16.6811    15.4776    15.8339
   4549.7000    19.6835    18.9991    19.3071
   4549.8000    21.0914    20.6216    20.9504
   4549.9000    19.7122    19.4132    19.1986
   4550.0000    18.3545    17.8269    17.3059
   4550.1000    17.1617    16.1670    15.7499
   4550.2000    16.5043    15.5622    14.9911
   4550.3000    16.8644    15.8678    15.3891
   4550.4000    17.9375    17.1267    16.6064
   4550.5000    18.7382    17.9162    17.6530
   4550.6000    18.9718    18.2059    18.2269
   4550.7000    20.0444    19.2439    19.6970
   4550.8000    21.5117    21.3890    21.6770
   4550.9000    22.8936    24.0174    23.6146
   4551.0000    22.8887    24.5179    23.8059
   4551.1000    21.5767    22.8725    22.3743
   4551.2000    21.0617    21.6824    21.6817
   4551.3000    21.7031    21.4830    22.2168
   4551.4000    21.8313    20.6917    22.2269
   4551.5000    21.1475    19.7269    21.4456
   4551.6000    20.6336    19.1641    21.0572
   4551.7000    21.6588    20.8739    22.5069
   4551.8000    22.8607    23.0305    24.3431
   4551.9000    22.6670    23.6303    24.4047
   4552.0000    20.3586    21.4968    21.7183
   4552.1000    18.5960    19.4813    19.6078
