~Version Information
 VERS.                  2.0:   CWLS log ASCII Standard -VERSION 2.0
 WRAP.                   NO:   One line per depth step
~Well Information Block
#MNEM.UNIT     VALUE/NAME     DESCRIPTION
#---------     -----------    ---------------------------
 STRT.M              3630.0000: START DEPTH
 STOP.M              5008.7000: STOP DEPTH
 STEP.M                 0.1000: STEP DEPTH
 NULL.               -999.2500: NULL VALUE
 DFWT.                        :  DIST FWL TEXT
 DFST.                        :  DIST FSL TEXT
 DMF .             Drill Floor:  DRILL MEAS FROM
 STIM.      10.30.00 08-May-21:  START TIME
 DATE.      11.38.00 18-Jun-21:  END TIME
 SPUD.               08-May-21:  SPUD DATE
 NREF.                    Grid:  NORTH REFERENCE
 HPTY.       Minimum Curvature:  HOLE POS TYPE
 DMOD.             Drill Model:  DRILL MOD DESC
 SVYD.                  Survey:  SURVEY DESC
 ILTD.               Lithology:  INTERP LTH DESC
 FTOP.          Formation Tops:  FORM TOPS DESC
 SON .        PA-XX-0907037989:  JOB NUMBER
 WTYP.                Deviated:  WELL TYPE
 COMP.     Strike West Pty Ltd:  COMPANY
 BASE.                   Perth:  LOGGING EQUIPMENT BASE LOCATION
 REGN.                      AP:  REGION
 CTRY.               Australia:  COUNTRY NAME
 FLD .          West Erregulla:  FIELD NAME
 SRVC.                  Ensign:  CONTRACTOR
 MWDS.                Jandakot:  MWD SHOP
 WELL.        West Erregulla 5:  WELL NAME
 JOBN.        PA-XX-0907037989:  JOB TICKET NUMB
 RIG .              Ensign 970:  RIG NAME
 DCON.     Sperry Drilling Services:  DIRECTNL CONTR
 UNIT.                11741669:  LOGGING EQUIPMENT ID
 PROV.       Western Australia:  PROVINCE
 STAT.       Western Australia:  STATE NAME
 PDAT.          Mean Sea Level:  PERMANENT DATUM
 MMDL.            bggm2021.dat:  MAGNETIC MODEL
 MMDD.            06 May, 2021:  MAG DATA DATE
 MDS .              Win MagUTM:  MAG DATA SOURCE
 GCDE.     Generic Lat/Long's, Degrees, -180 ==> +180:  GEO COORD DESC
 CCDE.     UTM Zone 50S on Geocentric Datum of Australia 1994, Meters:  CART COORD DESC
 GGSY.                      LL:  GEO GRID SYS
 CGSY.             SS GDA94-50:  CART GRID SYS
 GREF.     Ellipsoid World Geodetic System :  GEO REFERENCE
 CREF.     Datum Geocentric Datum of Austra:  CART REFERENCE
 LLGR.      Latitude/Longitude:  LLGROUP
 XYGR.     Australia/New Zealand Coordinate Systems:  XYGROUP
 API .                        :  API NUMBER
 CNTY.                        :  COUNTY
 UWI .                        :  UNIQUE WELL IDENTIFIER
 LOC .                        :  LOCATION
 LMF .             Drill Floor:  LOG MEASURED FROM
 TVDS.m             224.839988:  TVDSS CORRECTN
 LATI.deg           -29.398151:  LATITUDE
 LONG.deg           115.307694:  LONGITUDE
 WHNS.m               0.000000:  WELL HEAD N/S
 WHEW.m               0.000000:  WELL HEAD E/W
 UTMX.m          335792.640000:  UTM X
 UTMY.m         6746710.760000:  UTM Y
 DFWL.m               0.000000:  DISTANCE FWL
 DFSL.m               0.000000:  DISTANCE FSL
 SDEP.m              61.000002:  START DEPTH
 TDD .m            5015.000011:  TOTAL DEPTH (DRILLER)
 VSDR.deg             0.000000:  VERT SEC DIRECT
 GVFD.g               1.000000:  GRAVITY FIELD
 MFLD.nT          56933.789063:  MAGNETIC FIELD
 MDIP.deg           -63.343086:  MAGNETIC DIP
 MDEC.deg            -1.413625:  MAGNETIC DECL
 GRDC.deg             0.830898:  GRID CORRECTION
 AZTC.deg            -2.244523:  AZM TOTAL CORR
 EPD .m               0.000000:  ELEVATION
 EGL .m             217.679997:  GROUND ELEVATION
 WDMS.m               0.000000:  WD ELEV
 APD .m             224.839988:  DEPTH ABOVE PD
 AGAP.m               7.160000:  AIR GAP
 MMDE.m             -68.531232:  MAGUTM CALC DEP
 DEP .m               0.000000:  DEPTH
 CMER.deg           117.000000:  CENTRL MERIDIAN
 EKB .m               0.000000:  KB ELEVATION
 EDF .m             224.839988:  DF ELEVATION
 VSC .                       1:  VS TO CLOSURE
 MAGU.                 1375590:  MAGUTM CHECKSUM
~Parameter Information Block
#MNEM.UNIT       Value        Description
#---------     -----------    ---------------------------
 AV  .mps             2.583333:  Ann Velocity 
 AVMX.mps             2.933333:  Max Ann Veloc 
 AZIF.deg           193.410004:  Azm, Final 
 BHAT.                  Rotary:  BHA Type 
 BREV.krev          608.299988:  Rev Bit Total 
 BROT.°/30m           0.100000:  Build Rotating 
 BS  .mm            215.899994:  Bit Size 
 BTPL.kPag         3385.350342:  Bit Press Loss 
 CGEO.               Joe Emery:  Customer Geo 
 COMM.                     de~:  Run Comments 1 
 TCS .hr            130.012054:  Time Ciculation Ended 
 CV  .mps             4.100000:  Crit Velocity 
 CVMX.mps             4.100000:  Max Crit Veloc 
 DD1 .           Wayne Parsons:  Direct Drillr 1 
 DDSV.                   Other:  DD Service 
 DEFF.%              98.000000:  % Det Eff 
 DLRX.°/30m           0.680000:  Dogleg Rot Max 
 DLSO.°/30m           0.000000:  Dogleg Oriented 
 DLSX.°/30m           0.000000:  Dogleg Str Max 
 DRET.      22.50.00 17-Jun-21:  Drill End Time 
 DRST.      14.00.00 11-Jun-21:  Drill Start Tim 
 DTIM.hr            107.500000:  Time Drilling 
 EDEP.m            5015.000000:  End Depth 
 ENG1.           Liam ODonnell:  Engineer 1 
 ENG2.               Alan Rule:  Engineer 2 
 ENG3.        Vitaly Vasilenko:  Engineer 3 
 ETIM.      11.38.00 18-Jun-21:  End Time 
 FLOI.m3pm            2.100841:  Flow In 
 FLON.m3pm            2.044061:  Flow In Min 
 FLOS.mptm            3.000000:  Fluid Loss 
 FLOX.m3pm            2.380953:  Flow In Max 
 DFT .                 Polymer:  Mud Type 
 HFLO.                      No:  High Flow 
 HPRE.                      No:  High Pressure 
 HTEM.                      No:  High Temp 
 HYDO.m               2.500000:  Hydro Offset 
 IFIN.deg             5.220000:  Inc, Final 
 IMAX.deg             6.775680:  Inc Max 
 IMIN.deg             1.611614:  Inc Min 
 IMND.m            4310.580078:  Inc Min Depth 
 IMXD.m            4827.209961:  Inc Max Depth 
 JARR.                      No:  Jarring 
 LETM.      22.50.00 17-Jun-21:  Log End Time 
 LOST.hr                     0:  Lost Rig Time 
 LSTM.      14.00.00 11-Jun-21:  Log Start Time 
 MDCL.ppm         97000.000000:  Mud Chlorides 
 MDES.             Fresh Water:  Mud Desc 
 DFD .kg/m3        1222.229614:  Mud Density 
 MDMN.kg/m3        1210.247070:  Dens Mud Min 
 MDMX.kg/m3        1234.212280:  Dens Mud Max 
 PH  .pH              9.500000:  Mud pH 
 MOIL.                       0:  Run Mud Oil % 
 MOWR.                   0 100:  Run Mud OWR 
 MSND.                    0.10:  Run Mud Sand % 
 MSOL.                   12.40:  Run Mud Solids% 
 DFV .spl            62.362999:  Mud Viscosity 
 MWOD.mm            171.449997:  MWD Tool OD 
 MWSI.                      No:  Serv Intrp, MWD 
 OTIM.hr            176.676529:  Time Operating 
 PMAX.kPag        65859.195313:  Press Op, Max 
 PV  .mPsec          35.000000:  Mud PV 
 RMS .ohmm            0.080000:  Mud Resistivity 
 RMCS.ohmm            0.120000:  Mud Cake Resistivity 
 MCST.degC           21.999998:  Mud Cake Sample Temperature 
 RMFS.ohmm            0.060000:  Mud Filtrate Resistivity 
 RMFT.degC           21.999998:  Mud Filtrate Sample Temperature 
 RMMT.ohmm            0.023400:  Rm @ Max Temp 
 MST .degC           21.999998:  Mud Sample Temperature 
 RUN .                     500:  Run Number 
 ROPA.m/hr            6.800000:  ROP Avg 
 ROPN.m/hr            0.100000:  ROP Min 
 ROPX.m/hr           31.799999:  ROP Max 
 RPMA.rpm            98.000000:  RPM Surface Avg 
 RPMN.rpm            65.000000:  RPM Surface Min 
 RPMX.rpm           115.000008:  RPM Surface Max 
 RRUN.                       6:  Rig Run Number 
 RTIM.hr              0.000000:  Time Reaming 
 SAZI.deg           198.550003:  Azm, Start 
 SDEP.m            4283.000000:  Start Depth 
 SIDD.                      No:  Serv Intrp, DD 
 SINC.deg             2.000000:  Inc, Start 
 SPPA.kPag        21042.951172:  SPP Avg 
 SPPN.kPag        19677.779297:  SPP Min 
 SPPX.kPag        25117.783203:  SPP Max 
 STIM.      23.30.00 10-Jun-21:  Start Time 
 SVCS.                 DD, MWD:  Services 
 SVER.                9.200000:  Sperry Version 
 TDAT.m             732.000000:  Tot Depth Attmp 
 TDDF.                      No:  Trip for DD 
 TDLG.m             732.000000:  Tot Depth Loggd 
 TFF .                      No:  Trip for Fail 
 TQAA.kN-m            8.134908:  Torque Abs Avg 
 TQAN.kN-m            8.134908:  Torque Abs Min 
 TQAX.kN-m           14.507253:  Torque Abs Max 
 TRRT.°/30m           0.000000:  Turn Rotating 
 MRT .                    HCIM:  Maximum Recorded Temperature 
 TTMX.degC          127.000000:  Max Tool Temp 
 VS01.                90649920:  Virtual Str1 SN 
 VS02.                90649925:  Virtual Str2 SN 
 VS03.                90649923:  Virtual Str3 SN 
 WBMN.kdN            10.230908:  WOB Min 
 WITN.          Rick Dzivinski:  Customer Rep 2 
 WITN.           Mark Jachmann:  Customer Rep 
 WOBA.kdN            16.636347:  WOB Avg 
 WOBX.kdN            20.906639:  WOB Max 
 YP  .pa             15.321648:  Yield Point 
~Curve Information Block
#MNEM.UNIT                 API CODE     Curve Description
#---------               -----------    ---------------------------
 DEPT.M                 00 000 000 000:  Depth
 AFRSAC.ohmm            00 000 000 000:  AFR Shallow Avg Res BC
 AFRMAC.ohmm            00 000 000 000:  AFR Medium Avg Res BC
 AFRDAC.ohmm            00 000 000 000:  AFR Deep Avg Res BC
#Other Information
#
#WARRANTY: Halliburton will use its best efforts to furnish customers with 
#accurate information and interpretations that are part of, and incident to, the services 
#provided.  However, Halliburton cannot and does not warrant the accuracy 
#or correctness of such information and interpretations.  Under no circumstances should any 
#such information or interpretation be relied upon as the sole basis for any drilling, 
#completion, production, or financial decision or any procedure involving any risk to the 
#safety of any drilling venture, drilling rig or its crew or any other third party.  The 
#Customer has full responsibility for all drilling, completion and production operation.  
#Halliburton makes no representations or warranties, either expressed or 
#implied, including, but not limited to, the implied warranties of merchantability or fitness 
#for a particular purpose, with respect to the services rendered.  In no event will 
#Halliburton be liable for failure to obtain any particular results or for 
#any damages, including, but not limited to, indirect, special or consequential damages, 
#resulting from the use of any information or interpretation provided by Halliburton.
#
~A   DEPT      AFRSAC     AFRMAC     AFRDAC   
# ...
   4360.8000    12.5133    12.7147    13.0842
   4360.9000    13.3673    13.6711    14.2758
   4361.0000    13.5975    13.7361    14.6689
   4361.1000    13.1572    13.2656    14.1395
   4361.2000    12.4322    12.3671    13.1404
   4361.3000    11.2588    10.9728    11.5795
   4361.4000    10.4671    10.0505    10.5277
   4361.5000     9.9825     9.6806     9.9651
   4361.6000    10.1249    10.0848    10.1440
   4361.7000    10.2429    10.4679    10.2958
   4361.8000     9.5366     9.8221     9.4968
   4361.9000     8.6721     8.7980     8.4261
   4362.0000     8.2389     8.1781     7.7605
   4362.1000     8.0891     7.8058     7.3903
   4362.2000     7.8359     7.4517     7.0546
   4362.3000     7.8423     7.5215     7.1615
   4362.4000     9.8142     9.4836     9.3052
   4362.5000    14.1853    13.8962    14.1454
   4362.6000    17.1768    16.4712    17.5739
   4362.7000    14.7742    13.8385    14.7306
   4362.8000    11.3924    10.5051    11.0071
   4362.9000    10.7491     9.8603    10.3596
   4363.0000    12.5932    11.6958    12.3974
   4363.1000    13.2398    12.6711    13.3895
   4363.2000    12.7978    13.1321    13.0768
   4363.3000    11.7188    12.7340    11.8733
   4363.4000    11.4147    12.8700    11.4548
   4363.5000    11.6822    13.0157    11.6275
   4363.6000    11.9953    12.1858    11.8250
   4363.7000    11.8521    11.2773    11.5978
   4363.8000    11.7850    10.7747    11.4754
   4363.9000    11.9841    13.9683    11.6409
   4364.0000    11.8748    23.4814    11.5056
   4364.1000    11.7814    42.2092    11.3812
   4364.2000    11.6414    34.7613    11.4685
   4364.3000    12.2287    18.1119    12.4444
   4364.4000    14.0153    12.3652    14.5687
   4364.5000    14.4693    11.0090    14.6156
   4364.6000    14.1598    11.0524    13.5510
   4364.7000    11.9430    11.1718    10.9613
   4364.8000    10.3279    11.1278     9.1749
   4364.9000    10.0002    11.2403     8.7038
   4365.0000    10.1728    10.4484     8.7433
   4365.1000    10.1894     8.6276     8.7411
   4365.2000     9.8649     7.5174     8.5495
   4365.3000     9.7211     7.4463     8.6140
   4365.4000    10.6747     8.6318     9.8860
   4365.5000    12.2050    11.3248    12.0449
   4365.6000    12.3686    13.7519    12.9669
   4365.7000    11.0673    12.7434    11.9228
   4365.8000    10.2819    11.9762    10.9103
   4365.9000    10.4189    10.8727    10.9410
   4366.0000    10.9280    11.1349    11.5295
   4366.1000    10.7756    11.2171    11.4622
   4366.2000    10.1575    10.2564    10.8504
   4366.3000    10.2471    10.1109    10.9056
   4366.4000    10.6344    10.5607    11.3016
   4366.5000    10.6260    10.9083    11.1512
   4366.6000    10.2043    10.3999    10.4483
   4366.7000     9.4933     9.5220     9.3917
   4366.8000     8.9596     8.6869     8.5757
   4366.9000     8.9354     8.5132     8.3161
   4367.0000     8.9135     8.5249     8.1851
   4367.1000     8.4194     8.0446     7.7048
   4367.2000     9.3841     8.9765     8.6676
   4367.3000    11.2292    11.1622    10.6275
   4367.4000    12.1208    12.6004    11.7471
   4367.5000    12.2006    12.9437    11.9840
   4367.6000    10.5189    10.7544    10.1898
   4367.7000    11.1796    10.8874    10.8122
   4367.8000    12.4776    12.0768    12.1453
   4367.9000    12.4998    12.0244    12.2629
   4368.0000    11.5142    11.2533    11.2354
   4368.1000    11.1222    11.0526    10.7655
   4368.2000    11.3595    11.3539    10.9928
   4368.3000    12.5010    12.4607    12.1884
   4368.4000    13.6582    13.3440    13.4043
   4368.5000    13.9508    13.7886    13.6414
   4368.6000    13.9604    13.6276    13.5604
   4368.7000    13.4292    13.1144    12.9651
   4368.8000    13.3190    12.4666    12.8165
   4368.9000    13.8769    12.8293    13.3861
   4369.0000    15.0217    13.8194    14.7345
   4369.1000    16.4623    15.4612    16.5579
   4369.2000    17.2853    17.2113    17.6458
   4369.3000    16.0137    15.7460    16.0779
   4369.4000    13.1538    13.0277    12.7685
   4369.5000    12.4220    12.3069    11.8483
   4369.6000    12.9645    12.3722    12.2461
   4369.7000    14.1238    12.9164    13.1413
   4369.8000    12.3257    10.7973    11.0842
   4369.9000     9.7551     8.5025     8.4369
   4370.0000     9.1881     8.1031     7.8563
   4370.1000     9.9107     8.8834     8.6649
   4370.2000    11.9064    11.0543    10.9833
   4370.3000    13.2542    13.0149    12.8051
   4370.4000    13.5869    14.0076    13.5669
   4370.5000    14.0714    14.5960    14.2699
   4370.6000    13.9181    14.3139    14.1353
   4370.7000    14.1830    14.2524    14.4151
   4370.8000    14.4291    14.1920    14.6690
   4370.9000    14.6878    14.2074    14.9520
   4371.0000    14.6271    13.8830    14.8618
   4371.1000    14.5343    13.5524    14.7394
   4371.2000    14.9361    13.9218    15.0744
   4371.3000    15.1875    14.2572    15.2808
   4371.4000    15.4239    14.7779    15.6167
   4371.5000    16.8465    16.0190    17.2504
   4371.6000    17.0318    15.5049    17.5307
   4371.7000    16.1177    14.3434    16.3182
   4371.8000    13.9166    12.5970    13.5150
   4371.9000    11.7217    10.8450    10.9780
   4372.0000    11.2016    10.6262    10.3346
   4372.1000    11.4340    11.1414    10.6474
   4372.2000    11.5761    11.8480    11.2067
   4372.3000    12.6685    13.7823    12.8691
   4372.4000    14.3776    15.6451    15.3351
   4372.5000    15.5611    15.6437    17.0866
   4372.6000    15.0573    13.8853    16.2782
   4372.7000    11.7514     9.6394    12.0194
   4372.8000     9.0955     7.6135     8.7623
   4372.9000     8.6419     7.4813     8.3475
   4373.0000    10.5974     9.6723    10.5988
   4373.1000    14.1705    14.4323    15.3517
   4373.2000    13.1028    14.0720    14.3021
   4373.3000     9.4802    10.7947     9.8568
   4373.4000     6.7793     7.3811     6.6129
   4373.5000     5.9248     5.8462     5.5176
   4373.6000     5.6568     5.3237     5.1733
   4373.7000     5.5794     5.1652     5.1216
   4373.8000     5.5080     5.1795     5.1127
   4373.9000     5.6957     5.5001     5.3739
   4374.0000     6.0256     6.0323     5.8185
   4374.1000     6.4484     6.8258     6.3732
   4374.2000     7.3999     8.2048     7.4644
   4374.3000     7.7326     8.6751     7.9380
   4374.4000     7.8943     7.6703     8.2584
   4374.5000     8.0918     7.2510     8.5547
   4374.6000     7.7288     6.5353     8.1508
   4374.7000     7.9921     6.5106     8.3351
   4374.8000     8.1044     6.7259     8.4072
   4374.9000     8.7918     7.6980     9.2006
   4375.0000    11.3602    11.0198    12.3007
   4375.1000    12.9108    14.4122    14.5477
   4375.2000    12.9703    16.1333    14.9547
   4375.3000    13.8696    17.7860    16.1007
   4375.4000    12.2815    15.1471    13.4072
   4375.5000    10.3952    11.6856    10.3435
   4375.6000     8.3478     8.3043     7.6817
   4375.7000     6.5215     6.1684     5.7110
   4375.8000     6.2957     5.7782     5.5072
   4375.9000     7.3554     6.4886     6.6237
   4376.0000     9.9196     8.8539     9.4235
   4376.1000    10.4906     9.9343    10.2470
   4376.2000     9.4302     9.2072     9.1547
   4376.3000     8.0385     7.8130     7.6972
   4376.4000     8.3328     7.8109     8.0445
   4376.5000    10.1803     9.6878    10.1215
   4376.6000    10.7423    10.5223    10.9033
   4376.7000    10.2748    10.2671    10.3937
   4376.8000     9.8009     9.8805     9.7781
   4376.9000     9.8059     9.8201     9.6422
   4377.0000    10.7770    10.5328    10.4994
   4377.1000    11.3183    10.4776    10.9524
   4377.2000    11.8858    10.5502    11.6038
   4377.3000    13.0657    11.4371    13.0479
   4377.4000    15.3164    13.6835    15.8677
   4377.5000    17.6123    16.7217    18.6856
   4377.6000    16.7310    17.3662    17.4897
   4377.7000    14.6423    15.0283    14.8389
   4377.8000    12.8648    12.4997    12.7559
   4377.9000    12.7513    11.2019    12.5554
   4378.0000    13.0283    10.5904    12.8284
   4378.1000    12.7307    11.3617    12.5035
