~Version Information
 VERS.                  2.0:   CWLS log ASCII Standard -VERSION 2.0
 WRAP.                   NO:   One line per depth step
~Well Information Block
#MNEM.UNIT     VALUE/NAME     DESCRIPTION
#---------     -----------    ---------------------------
 STRT.M              3630.0000: START DEPTH
 STOP.M              5008.7000: STOP DEPTH
 STEP.M                 0.1000: STEP DEPTH
 NULL.               -999.2500: NULL VALUE
 DFWT.                        :  DIST FWL TEXT
 DFST.                        :  DIST FSL TEXT
 DMF .             Drill Floor:  DRILL MEAS FROM
 STIM.      10.30.00 08-May-21:  START TIME
 DATE.      11.38.00 18-Jun-21:  END TIME
 SPUD.               08-May-21:  SPUD DATE
 NREF.                    Grid:  NORTH REFERENCE
 HPTY.       Minimum Curvature:  HOLE POS TYPE
 DMOD.             Drill Model:  DRILL MOD DESC
 SVYD.                  Survey:  SURVEY DESC
 ILTD.               Lithology:  INTERP LTH DESC
 FTOP.          Formation Tops:  FORM TOPS DESC
 SON .        PA-XX-0907037989:  JOB NUMBER
 WTYP.                Deviated:  WELL TYPE
 COMP.     Strike West Pty Ltd:  COMPANY
 BASE.                   Perth:  LOGGING EQUIPMENT BASE LOCATION
 REGN.                      AP:  REGION
 CTRY.               Australia:  COUNTRY NAME
 FLD .          West Erregulla:  FIELD NAME
 SRVC.                  Ensign:  CONTRACTOR
 MWDS.                Jandakot:  MWD SHOP
 WELL.        West Erregulla 5:  WELL NAME
 JOBN.        PA-XX-0907037989:  JOB TICKET NUMB
 RIG .              Ensign 970:  RIG NAME
 DCON.     Sperry Drilling Services:  DIRECTNL CONTR
 UNIT.                11741669:  LOGGING EQUIPMENT ID
 PROV.       Western Australia:  PROVINCE
 STAT.       Western Australia:  STATE NAME
 PDAT.          Mean Sea Level:  PERMANENT DATUM
 MMDL.            bggm2021.dat:  MAGNETIC MODEL
 MMDD.            06 May, 2021:  MAG DATA DATE
 MDS .              Win MagUTM:  MAG DATA SOURCE
 GCDE.     Generic Lat/Long's, Degrees, -180 ==> +180:  GEO COORD DESC
 CCDE.     UTM Zone 50S on Geocentric Datum of Australia 1994, Meters:  CART COORD DESC
 GGSY.                      LL:  GEO GRID SYS
 CGSY.             SS GDA94-50:  CART GRID SYS
 GREF.     Ellipsoid World Geodetic System :  GEO REFERENCE
 CREF.     Datum Geocentric Datum of Austra:  CART REFERENCE
 LLGR.      Latitude/Longitude:  LLGROUP
 XYGR.     Australia/New Zealand Coordinate Systems:  XYGROUP
 API .                        :  API NUMBER
 CNTY.                        :  COUNTY
 UWI .                        :  UNIQUE WELL IDENTIFIER
 LOC .                        :  LOCATION
 LMF .             Drill Floor:  LOG MEASURED FROM
 TVDS.m             224.839988:  TVDSS CORRECTN
 LATI.deg           -29.398151:  LATITUDE
 LONG.deg           115.307694:  LONGITUDE
 WHNS.m               0.000000:  WELL HEAD N/S
 WHEW.m               0.000000:  WELL HEAD E/W
 UTMX.m          335792.640000:  UTM X
 UTMY.m         6746710.760000:  UTM Y
 DFWL.m               0.000000:  DISTANCE FWL
 DFSL.m               0.000000:  DISTANCE FSL
 SDEP.m              61.000002:  START DEPTH
 TDD .m            5015.000011:  TOTAL DEPTH (DRILLER)
 VSDR.deg             0.000000:  VERT SEC DIRECT
 GVFD.g               1.000000:  GRAVITY FIELD
 MFLD.nT          56933.789063:  MAGNETIC FIELD
 MDIP.deg           -63.343086:  MAGNETIC DIP
 MDEC.deg            -1.413625:  MAGNETIC DECL
 GRDC.deg             0.830898:  GRID CORRECTION
 AZTC.deg            -2.244523:  AZM TOTAL CORR
 EPD .m               0.000000:  ELEVATION
 EGL .m             217.679997:  GROUND ELEVATION
 WDMS.m               0.000000:  WD ELEV
 APD .m             224.839988:  DEPTH ABOVE PD
 AGAP.m               7.160000:  AIR GAP
 MMDE.m             -68.531232:  MAGUTM CALC DEP
 DEP .m               0.000000:  DEPTH
 CMER.deg           117.000000:  CENTRL MERIDIAN
 EKB .m               0.000000:  KB ELEVATION
 EDF .m             224.839988:  DF ELEVATION
 VSC .                       1:  VS TO CLOSURE
 MAGU.                 1375590:  MAGUTM CHECKSUM
~Parameter Information Block
#MNEM.UNIT       Value        Description
#---------     -----------    ---------------------------
 AV  .mps             2.583333:  Ann Velocity 
 AVMX.mps             2.933333:  Max Ann Veloc 
 AZIF.deg           193.410004:  Azm, Final 
 BHAT.                  Rotary:  BHA Type 
 BREV.krev          608.299988:  Rev Bit Total 
 BROT.°/30m           0.100000:  Build Rotating 
 BS  .mm            215.899994:  Bit Size 
 BTPL.kPag         3385.350342:  Bit Press Loss 
 CGEO.               Joe Emery:  Customer Geo 
 COMM.                     de~:  Run Comments 1 
 TCS .hr            130.012054:  Time Ciculation Ended 
 CV  .mps             4.100000:  Crit Velocity 
 CVMX.mps             4.100000:  Max Crit Veloc 
 DD1 .           Wayne Parsons:  Direct Drillr 1 
 DDSV.                   Other:  DD Service 
 DEFF.%              98.000000:  % Det Eff 
 DLRX.°/30m           0.680000:  Dogleg Rot Max 
 DLSO.°/30m           0.000000:  Dogleg Oriented 
 DLSX.°/30m           0.000000:  Dogleg Str Max 
 DRET.      22.50.00 17-Jun-21:  Drill End Time 
 DRST.      14.00.00 11-Jun-21:  Drill Start Tim 
 DTIM.hr            107.500000:  Time Drilling 
 EDEP.m            5015.000000:  End Depth 
 ENG1.           Liam ODonnell:  Engineer 1 
 ENG2.               Alan Rule:  Engineer 2 
 ENG3.        Vitaly Vasilenko:  Engineer 3 
 ETIM.      11.38.00 18-Jun-21:  End Time 
 FLOI.m3pm            2.100841:  Flow In 
 FLON.m3pm            2.044061:  Flow In Min 
 FLOS.mptm            3.000000:  Fluid Loss 
 FLOX.m3pm            2.380953:  Flow In Max 
 DFT .                 Polymer:  Mud Type 
 HFLO.                      No:  High Flow 
 HPRE.                      No:  High Pressure 
 HTEM.                      No:  High Temp 
 HYDO.m               2.500000:  Hydro Offset 
 IFIN.deg             5.220000:  Inc, Final 
 IMAX.deg             6.775680:  Inc Max 
 IMIN.deg             1.611614:  Inc Min 
 IMND.m            4310.580078:  Inc Min Depth 
 IMXD.m            4827.209961:  Inc Max Depth 
 JARR.                      No:  Jarring 
 LETM.      22.50.00 17-Jun-21:  Log End Time 
 LOST.hr                     0:  Lost Rig Time 
 LSTM.      14.00.00 11-Jun-21:  Log Start Time 
 MDCL.ppm         97000.000000:  Mud Chlorides 
 MDES.             Fresh Water:  Mud Desc 
 DFD .kg/m3        1222.229614:  Mud Density 
 MDMN.kg/m3        1210.247070:  Dens Mud Min 
 MDMX.kg/m3        1234.212280:  Dens Mud Max 
 PH  .pH              9.500000:  Mud pH 
 MOIL.                       0:  Run Mud Oil % 
 MOWR.                   0 100:  Run Mud OWR 
 MSND.                    0.10:  Run Mud Sand % 
 MSOL.                   12.40:  Run Mud Solids% 
 DFV .spl            62.362999:  Mud Viscosity 
 MWOD.mm            171.449997:  MWD Tool OD 
 MWSI.                      No:  Serv Intrp, MWD 
 OTIM.hr            176.676529:  Time Operating 
 PMAX.kPag        65859.195313:  Press Op, Max 
 PV  .mPsec          35.000000:  Mud PV 
 RMS .ohmm            0.080000:  Mud Resistivity 
 RMCS.ohmm            0.120000:  Mud Cake Resistivity 
 MCST.degC           21.999998:  Mud Cake Sample Temperature 
 RMFS.ohmm            0.060000:  Mud Filtrate Resistivity 
 RMFT.degC           21.999998:  Mud Filtrate Sample Temperature 
 RMMT.ohmm            0.023400:  Rm @ Max Temp 
 MST .degC           21.999998:  Mud Sample Temperature 
 RUN .                     500:  Run Number 
 ROPA.m/hr            6.800000:  ROP Avg 
 ROPN.m/hr            0.100000:  ROP Min 
 ROPX.m/hr           31.799999:  ROP Max 
 RPMA.rpm            98.000000:  RPM Surface Avg 
 RPMN.rpm            65.000000:  RPM Surface Min 
 RPMX.rpm           115.000008:  RPM Surface Max 
 RRUN.                       6:  Rig Run Number 
 RTIM.hr              0.000000:  Time Reaming 
 SAZI.deg           198.550003:  Azm, Start 
 SDEP.m            4283.000000:  Start Depth 
 SIDD.                      No:  Serv Intrp, DD 
 SINC.deg             2.000000:  Inc, Start 
 SPPA.kPag        21042.951172:  SPP Avg 
 SPPN.kPag        19677.779297:  SPP Min 
 SPPX.kPag        25117.783203:  SPP Max 
 STIM.      23.30.00 10-Jun-21:  Start Time 
 SVCS.                 DD, MWD:  Services 
 SVER.                9.200000:  Sperry Version 
 TDAT.m             732.000000:  Tot Depth Attmp 
 TDDF.                      No:  Trip for DD 
 TDLG.m             732.000000:  Tot Depth Loggd 
 TFF .                      No:  Trip for Fail 
 TQAA.kN-m            8.134908:  Torque Abs Avg 
 TQAN.kN-m            8.134908:  Torque Abs Min 
 TQAX.kN-m           14.507253:  Torque Abs Max 
 TRRT.°/30m           0.000000:  Turn Rotating 
 MRT .                    HCIM:  Maximum Recorded Temperature 
 TTMX.degC          127.000000:  Max Tool Temp 
 VS01.                90649920:  Virtual Str1 SN 
 VS02.                90649925:  Virtual Str2 SN 
 VS03.                90649923:  Virtual Str3 SN 
 WBMN.kdN            10.230908:  WOB Min 
 WITN.          Rick Dzivinski:  Customer Rep 2 
 WITN.           Mark Jachmann:  Customer Rep 
 WOBA.kdN            16.636347:  WOB Avg 
 WOBX.kdN            20.906639:  WOB Max 
 YP  .pa             15.321648:  Yield Point 
~Curve Information Block
#MNEM.UNIT                 API CODE     Curve Description
#---------               -----------    ---------------------------
 DEPT.M                 00 000 000 000:  Depth
 AFRSAC.ohmm            00 000 000 000:  AFR Shallow Avg Res BC
 AFRMAC.ohmm            00 000 000 000:  AFR Medium Avg Res BC
 AFRDAC.ohmm            00 000 000 000:  AFR Deep Avg Res BC
#Other Information
#
#WARRANTY: Halliburton will use its best efforts to furnish customers with 
#accurate information and interpretations that are part of, and incident to, the services 
#provided.  However, Halliburton cannot and does not warrant the accuracy 
#or correctness of such information and interpretations.  Under no circumstances should any 
#such information or interpretation be relied upon as the sole basis for any drilling, 
#completion, production, or financial decision or any procedure involving any risk to the 
#safety of any drilling venture, drilling rig or its crew or any other third party.  The 
#Customer has full responsibility for all drilling, completion and production operation.  
#Halliburton makes no representations or warranties, either expressed or 
#implied, including, but not limited to, the implied warranties of merchantability or fitness 
#for a particular purpose, with respect to the services rendered.  In no event will 
#Halliburton be liable for failure to obtain any particular results or for 
#any damages, including, but not limited to, indirect, special or consequential damages, 
#resulting from the use of any information or interpretation provided by Halliburton.
#
~A   DEPT      AFRSAC     AFRMAC     AFRDAC   
# ...
   4621.8000    22.9656    20.8305    21.5269
   4621.9000    22.7224    20.7720    20.9071
   4622.0000    21.3808    21.0670    19.2210
   4622.1000    19.8892    19.4418    17.6272
   4622.2000    19.5639    16.8225    17.3878
   4622.3000    20.8305    14.9592    18.9512
   4622.4000    23.5477    14.4152    22.3235
   4622.5000    25.5485    14.8187    26.0349
   4622.6000    26.8349    15.1777    29.0666
   4622.7000    26.0162    15.1699    28.8568
   4622.8000    23.3943    15.1220    25.1514
   4622.9000    21.4714    15.6790    21.8309
   4623.0000    19.7881    17.0913    19.3954
   4623.1000    19.6879    19.0450    19.1680
   4623.2000    20.7839    21.3032    20.6758
   4623.3000    23.4447    24.2784    23.9313
   4623.4000    25.3854    24.0724    26.3890
   4623.5000    27.7620    24.4197    28.0314
   4623.6000    26.1253    22.1791    25.0947
   4623.7000    20.8534    17.9371    18.6278
   4623.8000    16.9637    14.3742    13.9839
   4623.9000    15.6911    13.1662    12.6401
   4624.0000    17.3873    14.7647    14.1826
   4624.1000    21.7562    19.1907    18.6044
   4624.2000    24.1369    22.2421    21.4242
   4624.3000    24.2042    23.4193    21.9889
   4624.4000    24.8749    26.1783    23.4009
   4624.5000    27.1759    31.6363    26.8068
   4624.6000    32.1446    38.7018    33.1619
   4624.7000    37.0734    42.6464    39.0307
   4624.8000    39.1346    41.3471    40.4206
   4624.9000    37.3170    37.6778    37.8743
   4625.0000    35.3742    34.7589    35.5798
   4625.1000    35.3632    34.7269    35.5945
   4625.2000    32.1059    35.0353    32.2048
   4625.3000    27.5480    31.9113    26.0710
   4625.4000    26.1286    30.4892    24.1849
   4625.5000    26.2251    28.9359    24.1155
   4625.6000    30.7363    31.2627    28.9657
   4625.7000    32.2979    32.2964    30.7612
   4625.8000    32.3392    30.6954    29.8785
   4625.9000    32.4699    30.2692    28.9846
   4626.0000    32.8988    30.6132    29.1544
   4626.1000    34.0891    32.0667    30.4743
   4626.2000    36.3788    34.6410    33.4462
   4626.3000    38.5647    36.7271    35.6315
   4626.4000    41.0923    39.4283    37.8449
   4626.5000    43.8486    42.3972    40.5546
   4626.6000    46.1468    40.8546    43.2212
   4626.7000    45.5937    37.6764    42.5843
   4626.8000    44.2118    36.4205    40.9378
   4626.9000    40.4279    35.7612    37.0573
   4627.0000    37.9096    36.0645    34.1965
   4627.1000    36.8156    33.1367    33.3415
   4627.2000    38.4645    31.1642    35.2724
   4627.3000    42.5234    30.1129    40.0367
   4627.4000    44.5102    29.7456    42.8386
   4627.5000    40.5953    29.7412    38.4477
   4627.6000    34.3574    29.9097    31.6707
   4627.7000    30.9967    31.8450    27.8885
   4627.8000    31.0220    32.8523    27.7960
   4627.9000    32.7966    31.6495    29.4875
   4628.0000    33.4046    30.4141    30.0278
   4628.1000    32.5525    29.0924    28.9727
   4628.2000    30.8638    28.2058    27.2600
   4628.3000    29.8408    27.1172    26.4474
   4628.4000    29.5401    26.6062    26.4149
   4628.5000    30.2472    27.1483    27.3216
   4628.6000    31.6436    28.5510    28.7480
   4628.7000    32.6958    30.1232    29.8629
   4628.8000    32.3114    30.4250    29.3875
   4628.9000    30.2846    28.7790    27.1308
   4629.0000    28.3178    26.8797    24.9826
   4629.1000    27.4462    26.0792    24.0289
   4629.2000    28.5041    26.4342    24.9836
   4629.3000    29.6550    27.0723    26.0206
   4629.4000    29.1844    26.3863    25.5125
   4629.5000    27.5490    25.4038    23.9629
   4629.6000    26.1070    25.9056    23.0362
   4629.7000    27.0535    30.8222    24.7153
   4629.8000    31.9388    40.7094    30.9793
   4629.9000    39.6334    53.2314    41.5673
   4630.0000    48.9828    59.8496    54.4758
   4630.1000    45.4341    58.8178    50.2536
   4630.2000    34.4378    46.6660    36.1383
   4630.3000    30.3356    34.0395    30.9602
   4630.4000    31.2094    31.2029    32.2917
   4630.5000    38.6666    32.8165    42.0021
   4630.6000    42.6663    36.6002    47.9920
   4630.7000    35.5233    30.1752    39.3807
   4630.8000    29.5030    25.9046    31.6879
   4630.9000    27.2061    24.9158    28.8446
   4631.0000    27.2911    27.6395    29.2806
   4631.1000    29.0112    30.3021    32.2064
   4631.2000    29.2713    30.8633    33.5705
   4631.3000    28.5976    30.9420    33.5644
   4631.4000    26.9467    30.0704    31.8789
   4631.5000    25.0321    27.6097    29.4540
   4631.6000    24.7590    27.7448    28.7785
   4631.7000    23.8362    27.1258    27.2869
   4631.8000    22.7931    24.8837    24.9564
   4631.9000    22.3978    23.2488    23.6820
   4632.0000    24.2714    24.3104    25.1915
   4632.1000    29.3762    29.7670    31.3383
   4632.2000    31.0625    31.8319    34.6845
   4632.3000    27.7561    26.9873    29.4499
   4632.4000    23.8795    22.0947    22.9321
   4632.5000    23.4250    21.6636    20.3138
   4632.6000    27.1879    25.9011    21.8900
   4632.7000    32.8543    31.1536    26.1024
   4632.8000    37.5919    34.1691    29.9688
   4632.9000    38.1500    33.4286    31.5013
   4633.0000    36.7027    32.0720    31.0280
   4633.1000    36.3553    31.8305    31.2111
   4633.2000    36.1486    32.5022    31.8668
   4633.3000    35.6678    33.1345    32.3837
   4633.4000    35.8833    34.0410    33.5063
   4633.5000    35.8596    34.7481    34.2645
   4633.6000    35.5968    34.8401    34.4918
   4633.7000    34.7541    34.2919    33.7948
   4633.8000    33.5063    32.9569    32.5558
   4633.9000    32.3246    31.4358    31.3774
   4634.0000    30.9630    29.9755    30.0851
   4634.1000    29.6632    29.0297    28.8000
   4634.2000    28.1508    27.6027    27.2847
   4634.3000    26.9251    26.3776    26.1102
   4634.4000    26.0093    25.2524    25.3415
   4634.5000    25.3345    24.6331    24.9272
   4634.6000    24.7066    24.3855    24.6897
   4634.7000    24.2742    24.2123    24.6844
   4634.8000    24.4832    24.0709    25.2224
   4634.9000    24.8214    23.9415    25.8024
   4635.0000    24.4161    23.4373    25.6073
   4635.1000    23.2804    22.3094    24.5722
   4635.2000    21.5951    21.2420    22.7763
   4635.3000    20.4483    20.4012    21.4935
   4635.4000    20.1716    19.9504    21.1696
   4635.5000    20.6353    20.4101    21.7873
   4635.6000    21.7828    20.9427    23.0888
   4635.7000    21.6298    21.6091    22.7840
   4635.8000    20.6471    21.1112    21.5264
   4635.9000    20.5256    22.1411    21.1437
   4636.0000    22.2979    22.6807    22.9864
   4636.1000    23.6646    22.6159    24.2950
   4636.2000    24.7171    22.7687    25.1670
   4636.3000    23.0961    20.9168    23.1157
   4636.4000    21.3759    20.1415    21.2277
   4636.5000    21.7693    20.1751    22.0492
   4636.6000    24.5423    23.3535    25.9217
   4636.7000    29.6351    30.2242    33.2090
   4636.8000    34.3261    37.8434    40.2750
   4636.9000    31.4253    34.8946    36.8085
   4637.0000    28.1022    29.9811    32.0665
   4637.1000    27.2611    27.0537    29.7624
   4637.2000    27.5576    25.0562    28.5724
   4637.3000    26.1991    22.9667    26.1159
   4637.4000    24.2086    21.3075    23.7247
   4637.5000    22.5560    20.6079    22.0620
   4637.6000    22.1367    20.9351    21.7161
   4637.7000    23.4088    21.3327    22.8960
   4637.8000    24.3687    22.7209    23.7683
   4637.9000    24.8070    23.8945    24.1256
   4638.0000    24.4720    24.2942    23.6643
   4638.1000    23.8582    23.7886    22.9814
   4638.2000    23.7134    23.4158    22.7394
   4638.3000    24.2935    24.0224    23.4860
   4638.4000    24.3706    24.7659    23.8115
   4638.5000    24.5980    24.8340    24.5983
   4638.6000    24.7147    24.8326    24.8417
   4638.7000    24.8526    24.9822    24.9317
   4638.8000    25.5573    25.8492    25.5260
   4638.9000    26.8240    26.9269    26.6939
   4639.0000    28.1147    27.8660    27.9995
   4639.1000    29.1650    28.7634    29.0087
