~Version Information
 VERS.                  2.0:   CWLS log ASCII Standard -VERSION 2.0
 WRAP.                   NO:   One line per depth step
~Well Information Block
#MNEM.UNIT     VALUE/NAME     DESCRIPTION
#---------     -----------    ---------------------------
 STRT.M              3630.0000: START DEPTH
 STOP.M              5008.7000: STOP DEPTH
 STEP.M                 0.1000: STEP DEPTH
 NULL.               -999.2500: NULL VALUE
 DFWT.                        :  DIST FWL TEXT
 DFST.                        :  DIST FSL TEXT
 DMF .             Drill Floor:  DRILL MEAS FROM
 STIM.      10.30.00 08-May-21:  START TIME
 DATE.      11.38.00 18-Jun-21:  END TIME
 SPUD.               08-May-21:  SPUD DATE
 NREF.                    Grid:  NORTH REFERENCE
 HPTY.       Minimum Curvature:  HOLE POS TYPE
 DMOD.             Drill Model:  DRILL MOD DESC
 SVYD.                  Survey:  SURVEY DESC
 ILTD.               Lithology:  INTERP LTH DESC
 FTOP.          Formation Tops:  FORM TOPS DESC
 SON .        PA-XX-0907037989:  JOB NUMBER
 WTYP.                Deviated:  WELL TYPE
 COMP.     Strike West Pty Ltd:  COMPANY
 BASE.                   Perth:  LOGGING EQUIPMENT BASE LOCATION
 REGN.                      AP:  REGION
 CTRY.               Australia:  COUNTRY NAME
 FLD .          West Erregulla:  FIELD NAME
 SRVC.                  Ensign:  CONTRACTOR
 MWDS.                Jandakot:  MWD SHOP
 WELL.        West Erregulla 5:  WELL NAME
 JOBN.        PA-XX-0907037989:  JOB TICKET NUMB
 RIG .              Ensign 970:  RIG NAME
 DCON.     Sperry Drilling Services:  DIRECTNL CONTR
 UNIT.                11741669:  LOGGING EQUIPMENT ID
 PROV.       Western Australia:  PROVINCE
 STAT.       Western Australia:  STATE NAME
 PDAT.          Mean Sea Level:  PERMANENT DATUM
 MMDL.            bggm2021.dat:  MAGNETIC MODEL
 MMDD.            06 May, 2021:  MAG DATA DATE
 MDS .              Win MagUTM:  MAG DATA SOURCE
 GCDE.     Generic Lat/Long's, Degrees, -180 ==> +180:  GEO COORD DESC
 CCDE.     UTM Zone 50S on Geocentric Datum of Australia 1994, Meters:  CART COORD DESC
 GGSY.                      LL:  GEO GRID SYS
 CGSY.             SS GDA94-50:  CART GRID SYS
 GREF.     Ellipsoid World Geodetic System :  GEO REFERENCE
 CREF.     Datum Geocentric Datum of Austra:  CART REFERENCE
 LLGR.      Latitude/Longitude:  LLGROUP
 XYGR.     Australia/New Zealand Coordinate Systems:  XYGROUP
 API .                        :  API NUMBER
 CNTY.                        :  COUNTY
 UWI .                        :  UNIQUE WELL IDENTIFIER
 LOC .                        :  LOCATION
 LMF .             Drill Floor:  LOG MEASURED FROM
 TVDS.m             224.839988:  TVDSS CORRECTN
 LATI.deg           -29.398151:  LATITUDE
 LONG.deg           115.307694:  LONGITUDE
 WHNS.m               0.000000:  WELL HEAD N/S
 WHEW.m               0.000000:  WELL HEAD E/W
 UTMX.m          335792.640000:  UTM X
 UTMY.m         6746710.760000:  UTM Y
 DFWL.m               0.000000:  DISTANCE FWL
 DFSL.m               0.000000:  DISTANCE FSL
 SDEP.m              61.000002:  START DEPTH
 TDD .m            5015.000011:  TOTAL DEPTH (DRILLER)
 VSDR.deg             0.000000:  VERT SEC DIRECT
 GVFD.g               1.000000:  GRAVITY FIELD
 MFLD.nT          56933.789063:  MAGNETIC FIELD
 MDIP.deg           -63.343086:  MAGNETIC DIP
 MDEC.deg            -1.413625:  MAGNETIC DECL
 GRDC.deg             0.830898:  GRID CORRECTION
 AZTC.deg            -2.244523:  AZM TOTAL CORR
 EPD .m               0.000000:  ELEVATION
 EGL .m             217.679997:  GROUND ELEVATION
 WDMS.m               0.000000:  WD ELEV
 APD .m             224.839988:  DEPTH ABOVE PD
 AGAP.m               7.160000:  AIR GAP
 MMDE.m             -68.531232:  MAGUTM CALC DEP
 DEP .m               0.000000:  DEPTH
 CMER.deg           117.000000:  CENTRL MERIDIAN
 EKB .m               0.000000:  KB ELEVATION
 EDF .m             224.839988:  DF ELEVATION
 VSC .                       1:  VS TO CLOSURE
 MAGU.                 1375590:  MAGUTM CHECKSUM
~Parameter Information Block
#MNEM.UNIT       Value        Description
#---------     -----------    ---------------------------
 AV  .mps             2.583333:  Ann Velocity 
 AVMX.mps             2.933333:  Max Ann Veloc 
 AZIF.deg           193.410004:  Azm, Final 
 BHAT.                  Rotary:  BHA Type 
 BREV.krev          608.299988:  Rev Bit Total 
 BROT.°/30m           0.100000:  Build Rotating 
 BS  .mm            215.899994:  Bit Size 
 BTPL.kPag         3385.350342:  Bit Press Loss 
 CGEO.               Joe Emery:  Customer Geo 
 COMM.                     de~:  Run Comments 1 
 TCS .hr            130.012054:  Time Ciculation Ended 
 CV  .mps             4.100000:  Crit Velocity 
 CVMX.mps             4.100000:  Max Crit Veloc 
 DD1 .           Wayne Parsons:  Direct Drillr 1 
 DDSV.                   Other:  DD Service 
 DEFF.%              98.000000:  % Det Eff 
 DLRX.°/30m           0.680000:  Dogleg Rot Max 
 DLSO.°/30m           0.000000:  Dogleg Oriented 
 DLSX.°/30m           0.000000:  Dogleg Str Max 
 DRET.      22.50.00 17-Jun-21:  Drill End Time 
 DRST.      14.00.00 11-Jun-21:  Drill Start Tim 
 DTIM.hr            107.500000:  Time Drilling 
 EDEP.m            5015.000000:  End Depth 
 ENG1.           Liam ODonnell:  Engineer 1 
 ENG2.               Alan Rule:  Engineer 2 
 ENG3.        Vitaly Vasilenko:  Engineer 3 
 ETIM.      11.38.00 18-Jun-21:  End Time 
 FLOI.m3pm            2.100841:  Flow In 
 FLON.m3pm            2.044061:  Flow In Min 
 FLOS.mptm            3.000000:  Fluid Loss 
 FLOX.m3pm            2.380953:  Flow In Max 
 DFT .                 Polymer:  Mud Type 
 HFLO.                      No:  High Flow 
 HPRE.                      No:  High Pressure 
 HTEM.                      No:  High Temp 
 HYDO.m               2.500000:  Hydro Offset 
 IFIN.deg             5.220000:  Inc, Final 
 IMAX.deg             6.775680:  Inc Max 
 IMIN.deg             1.611614:  Inc Min 
 IMND.m            4310.580078:  Inc Min Depth 
 IMXD.m            4827.209961:  Inc Max Depth 
 JARR.                      No:  Jarring 
 LETM.      22.50.00 17-Jun-21:  Log End Time 
 LOST.hr                     0:  Lost Rig Time 
 LSTM.      14.00.00 11-Jun-21:  Log Start Time 
 MDCL.ppm         97000.000000:  Mud Chlorides 
 MDES.             Fresh Water:  Mud Desc 
 DFD .kg/m3        1222.229614:  Mud Density 
 MDMN.kg/m3        1210.247070:  Dens Mud Min 
 MDMX.kg/m3        1234.212280:  Dens Mud Max 
 PH  .pH              9.500000:  Mud pH 
 MOIL.                       0:  Run Mud Oil % 
 MOWR.                   0 100:  Run Mud OWR 
 MSND.                    0.10:  Run Mud Sand % 
 MSOL.                   12.40:  Run Mud Solids% 
 DFV .spl            62.362999:  Mud Viscosity 
 MWOD.mm            171.449997:  MWD Tool OD 
 MWSI.                      No:  Serv Intrp, MWD 
 OTIM.hr            176.676529:  Time Operating 
 PMAX.kPag        65859.195313:  Press Op, Max 
 PV  .mPsec          35.000000:  Mud PV 
 RMS .ohmm            0.080000:  Mud Resistivity 
 RMCS.ohmm            0.120000:  Mud Cake Resistivity 
 MCST.degC           21.999998:  Mud Cake Sample Temperature 
 RMFS.ohmm            0.060000:  Mud Filtrate Resistivity 
 RMFT.degC           21.999998:  Mud Filtrate Sample Temperature 
 RMMT.ohmm            0.023400:  Rm @ Max Temp 
 MST .degC           21.999998:  Mud Sample Temperature 
 RUN .                     500:  Run Number 
 ROPA.m/hr            6.800000:  ROP Avg 
 ROPN.m/hr            0.100000:  ROP Min 
 ROPX.m/hr           31.799999:  ROP Max 
 RPMA.rpm            98.000000:  RPM Surface Avg 
 RPMN.rpm            65.000000:  RPM Surface Min 
 RPMX.rpm           115.000008:  RPM Surface Max 
 RRUN.                       6:  Rig Run Number 
 RTIM.hr              0.000000:  Time Reaming 
 SAZI.deg           198.550003:  Azm, Start 
 SDEP.m            4283.000000:  Start Depth 
 SIDD.                      No:  Serv Intrp, DD 
 SINC.deg             2.000000:  Inc, Start 
 SPPA.kPag        21042.951172:  SPP Avg 
 SPPN.kPag        19677.779297:  SPP Min 
 SPPX.kPag        25117.783203:  SPP Max 
 STIM.      23.30.00 10-Jun-21:  Start Time 
 SVCS.                 DD, MWD:  Services 
 SVER.                9.200000:  Sperry Version 
 TDAT.m             732.000000:  Tot Depth Attmp 
 TDDF.                      No:  Trip for DD 
 TDLG.m             732.000000:  Tot Depth Loggd 
 TFF .                      No:  Trip for Fail 
 TQAA.kN-m            8.134908:  Torque Abs Avg 
 TQAN.kN-m            8.134908:  Torque Abs Min 
 TQAX.kN-m           14.507253:  Torque Abs Max 
 TRRT.°/30m           0.000000:  Turn Rotating 
 MRT .                    HCIM:  Maximum Recorded Temperature 
 TTMX.degC          127.000000:  Max Tool Temp 
 VS01.                90649920:  Virtual Str1 SN 
 VS02.                90649925:  Virtual Str2 SN 
 VS03.                90649923:  Virtual Str3 SN 
 WBMN.kdN            10.230908:  WOB Min 
 WITN.          Rick Dzivinski:  Customer Rep 2 
 WITN.           Mark Jachmann:  Customer Rep 
 WOBA.kdN            16.636347:  WOB Avg 
 WOBX.kdN            20.906639:  WOB Max 
 YP  .pa             15.321648:  Yield Point 
~Curve Information Block
#MNEM.UNIT                 API CODE     Curve Description
#---------               -----------    ---------------------------
 DEPT.M                 00 000 000 000:  Depth
 AFRSAC.ohmm            00 000 000 000:  AFR Shallow Avg Res BC
 AFRMAC.ohmm            00 000 000 000:  AFR Medium Avg Res BC
 AFRDAC.ohmm            00 000 000 000:  AFR Deep Avg Res BC
#Other Information
#
#WARRANTY: Halliburton will use its best efforts to furnish customers with 
#accurate information and interpretations that are part of, and incident to, the services 
#provided.  However, Halliburton cannot and does not warrant the accuracy 
#or correctness of such information and interpretations.  Under no circumstances should any 
#such information or interpretation be relied upon as the sole basis for any drilling, 
#completion, production, or financial decision or any procedure involving any risk to the 
#safety of any drilling venture, drilling rig or its crew or any other third party.  The 
#Customer has full responsibility for all drilling, completion and production operation.  
#Halliburton makes no representations or warranties, either expressed or 
#implied, including, but not limited to, the implied warranties of merchantability or fitness 
#for a particular purpose, with respect to the services rendered.  In no event will 
#Halliburton be liable for failure to obtain any particular results or for 
#any damages, including, but not limited to, indirect, special or consequential damages, 
#resulting from the use of any information or interpretation provided by Halliburton.
#
~A   DEPT      AFRSAC     AFRMAC     AFRDAC   
# ...
   3908.4000    27.1589    27.9657    24.2274
   3908.5000    26.9459    24.9720    23.7491
   3908.6000    29.1224    25.0740    25.7470
   3908.7000    33.0458    27.3895    29.4139
   3908.8000    36.7235    32.3002    33.0137
   3908.9000    40.0923    36.5952    36.3649
   3909.0000    40.8661    39.2479    37.1877
   3909.1000    39.3023    40.4398    35.7698
   3909.2000    35.8312    35.3964    32.3062
   3909.3000    34.8106    32.2863    31.1740
   3909.4000    34.0892    30.2917    30.8272
   3909.5000    34.3088    30.6021    31.7582
   3909.6000    33.1167    30.4619    31.5034
   3909.7000    30.9677    28.7326    30.0656
   3909.8000    28.5713    27.3101    28.1437
   3909.9000    27.0500    26.3980    26.8650
   3910.0000    25.9847    25.8359    25.7884
   3910.1000    25.4523    24.9473    24.5902
   3910.2000    24.9316    23.8687    23.2348
   3910.3000    23.4135    23.1378    21.1074
   3910.4000    21.3371    21.9655    18.8579
   3910.5000    21.0849    19.6661    18.7110
   3910.6000    22.3180    19.1002    20.0517
   3910.7000    26.1606    20.9311    23.9045
   3910.8000    28.6177    27.9642    25.9686
   3910.9000    28.4892    36.9161    25.2657
   3911.0000    27.9523    32.5077    24.4224
   3911.1000    29.4057    27.1086    25.6549
   3911.2000    32.4225    24.9033    28.8610
   3911.3000    34.4147    26.3182    31.1275
   3911.4000    32.0470    28.1860    29.0695
   3911.5000    27.7639    26.8671    25.1386
   3911.6000    25.9464    26.0086    23.3611
   3911.7000    26.3965    27.2073    23.9571
   3911.8000    27.0625    26.4135    24.5546
   3911.9000    25.5329    22.0415    22.7619
   3912.0000    23.1554    15.9504    20.0676
   3912.1000    21.9734    14.2196    18.7364
   3912.2000    24.3663    15.9617    20.9563
   3912.3000    27.7186    22.9458    24.2285
   3912.4000    27.8154    31.3998    24.2671
   3912.5000    24.2681    28.3927    20.8263
   3912.6000    22.0608    23.3794    18.6637
   3912.7000    22.3166    22.3428    18.8693
   3912.8000    25.9255    25.2638    22.2392
   3912.9000    29.4454    38.3346    25.7395
   3913.0000    33.0857    48.6199    29.6029
   3913.1000    36.0059    46.1813    32.6105
   3913.2000    36.2088    38.1138    33.2649
   3913.3000    35.0787    29.6441    32.2086
   3913.4000    31.3246    26.7233    28.2588
   3913.5000    28.4636    25.5452    25.0344
   3913.6000    27.1883    22.8894    23.6683
   3913.7000    27.3519    23.2449    24.3554
   3913.8000    29.2269    25.1153    26.9691
   3913.9000    30.4645    28.8826    28.8971
   3914.0000    28.7749    30.0772    27.2584
   3914.1000    26.5813    27.7218    24.7807
   3914.2000    24.7098    23.9460    22.6156
   3914.3000    23.8090    22.5836    21.6442
   3914.4000    23.4360    21.6404    21.3602
   3914.5000    23.0835    22.5650    21.1256
   3914.6000    23.0425    22.7125    21.1433
   3914.7000    23.1796    22.6238    21.2920
   3914.8000    24.8183    23.6392    22.8854
   3914.9000    27.5421    21.4283    25.4883
   3915.0000    27.4170    16.3151    25.2433
   3915.1000    23.8519    15.4856    21.8792
   3915.2000    21.9095    16.3457    20.0738
   3915.3000    21.1974    21.9324    19.4774
   3915.4000    23.9577    23.4136    22.3152
   3915.5000    23.0996    20.5112    21.5407
   3915.6000    22.9552    20.1986    21.6055
   3915.7000    24.4903    21.5212    23.2661
   3915.8000    26.7662    23.9416    25.8936
   3915.9000    29.1794    24.8229    28.6569
   3916.0000    31.4197    26.3261    30.9982
   3916.1000    32.5263    28.1758    32.0077
   3916.2000    36.1541    33.2805    35.7552
   3916.3000    35.4664    33.4154    35.1882
   3916.4000    34.5237    31.1075    33.9836
   3916.5000    30.3683    22.6032    28.7588
   3916.6000    23.8568    15.8174    21.4068
   3916.7000    19.9151    13.6072    17.2870
   3916.8000    19.3574    14.6127    16.7385
   3916.9000    23.3729    20.7491    20.7707
   3917.0000    29.8558    27.2902    27.3554
   3917.1000    29.6415    26.6974    26.6508
   3917.2000    24.5377    20.6165    20.8854
   3917.3000    19.7026    14.2998    15.9383
   3917.4000    18.4068    13.6553    14.5100
   3917.5000    22.6720    17.3653    18.0921
   3917.6000    31.0654    29.1783    26.3727
   3917.7000    42.9981    42.2671    39.8211
   3917.8000    46.5712    49.4735    45.2482
   3917.9000    49.6270    56.1923    49.8497
   3918.0000    45.0739    50.7924    44.9993
   3918.1000    39.8910    40.4084    38.6547
   3918.2000    30.5928    29.0700    28.2186
   3918.3000    27.4857    25.4491    24.4591
   3918.4000    25.8647    24.3962    22.7065
   3918.5000    26.0970    25.4726    22.8429
   3918.6000    27.2152    26.3948    23.6694
   3918.7000    28.1178    26.1699    24.0714
   3918.8000    31.1712    27.6382    26.4356
   3918.9000    35.4533    30.8450    29.9401
   3919.0000    36.8849    32.7382    31.1489
   3919.1000    39.5681    36.1058    33.7765
   3919.2000    40.4841    37.6913    35.1984
   3919.3000    43.0592    40.2461    38.5578
   3919.4000    49.0130    45.6054    44.7339
   3919.5000    43.9245    39.9898    39.3796
   3919.6000    35.4162    31.7279    30.6495
   3919.7000    30.1823    28.1316    26.1058
   3919.8000    28.8908    27.3364    25.3083
   3919.9000    32.8440    31.3729    30.0032
   3920.0000    34.9936    32.6556    33.1793
   3920.1000    34.3103    29.6217    34.0995
   3920.2000    32.2979    28.0609    32.7192
   3920.3000    26.6296    25.2400    26.4735
   3920.4000    23.3323    25.0337    22.3952
   3920.5000    22.5706    26.0047    21.4136
   3920.6000    20.8002    27.3882    19.6416
   3920.7000    23.2163    31.5965    22.2581
   3920.8000    23.6381    31.0583    22.7406
   3920.9000    25.0344    27.6689    24.2062
   3921.0000    25.4303    25.0552    24.3760
   3921.1000    20.5000    20.5008    18.6764
   3921.2000    16.4729    20.5552    14.5919
   3921.3000    14.9326    19.0860    13.0399
   3921.4000    15.2374    19.8102    13.5062
   3921.5000    18.0095    18.6829    16.1760
   3921.6000    22.3623    21.5204    20.4375
   3921.7000    18.5245    19.2483    16.5980
   3921.8000    17.6791    19.6670    15.6678
   3921.9000    18.3169    20.2955    16.3137
   3922.0000    23.7001    24.2642    22.0223
   3922.1000    33.6617    32.4515    33.1739
   3922.2000    31.7345    31.1235    32.0372
   3922.3000    31.3350    31.2612    31.8572
   3922.4000    30.9897    31.6722    31.0703
   3922.5000    26.7013    28.8923    25.9779
   3922.6000    27.3598    29.5414    26.5815
   3922.7000    29.4746    31.0006    29.0302
   3922.8000    37.3050    36.3431    37.4266
   3922.9000    43.1948    40.6818    42.9472
   3923.0000    36.7185    34.1796    34.6601
   3923.1000    22.6375    20.2029    18.9858
   3923.2000    19.4607    16.1838    15.5219
   3923.3000    19.6527    14.6341    15.7743
   3923.4000    24.8265    15.8075    20.9914
   3923.5000    29.3448    18.8585    25.7255
   3923.6000    28.4096    20.6952    25.2282
   3923.7000    21.6988    20.8381    19.0156
   3923.8000    20.4668    22.0119    17.7792
   3923.9000    19.3471    20.6162    16.6639
   3924.0000    27.3124    24.8771    23.1705
   3924.1000    38.7884    30.3717    32.8236
   3924.2000    49.3837    39.7461    42.2592
   3924.3000    45.6265    51.0236    40.7630
   3924.4000    40.1510    50.9690    36.3526
   3924.5000    37.7760    41.0893    34.4351
   3924.6000    45.7945    39.0333    42.1502
   3924.7000    49.1845    42.7583    45.6519
   3924.8000    46.1973    49.5933    41.4533
   3924.9000    47.4935    43.9345    41.7423
   3925.0000    47.8063    26.5976    40.9262
   3925.1000    46.9305    24.2550    40.9083
   3925.2000    30.7364    28.5223    27.6244
   3925.3000    27.8413    49.4377    25.8839
   3925.4000    29.3780    59.9500    28.0140
   3925.5000    40.7821    47.4377    39.9814
   3925.6000    46.3382    33.9401    44.8409
   3925.7000    41.7953    30.0484    39.9912
