~Version Information
 VERS.                  2.0:   CWLS log ASCII Standard -VERSION 2.0
 WRAP.                   NO:   One line per depth step
~Well Information Block
#MNEM.UNIT     VALUE/NAME     DESCRIPTION
#---------     -----------    ---------------------------
 STRT.M              3630.0000: START DEPTH
 STOP.M              5008.7000: STOP DEPTH
 STEP.M                 0.1000: STEP DEPTH
 NULL.               -999.2500: NULL VALUE
 DFWT.                        :  DIST FWL TEXT
 DFST.                        :  DIST FSL TEXT
 DMF .             Drill Floor:  DRILL MEAS FROM
 STIM.      10.30.00 08-May-21:  START TIME
 DATE.      11.38.00 18-Jun-21:  END TIME
 SPUD.               08-May-21:  SPUD DATE
 NREF.                    Grid:  NORTH REFERENCE
 HPTY.       Minimum Curvature:  HOLE POS TYPE
 DMOD.             Drill Model:  DRILL MOD DESC
 SVYD.                  Survey:  SURVEY DESC
 ILTD.               Lithology:  INTERP LTH DESC
 FTOP.          Formation Tops:  FORM TOPS DESC
 SON .        PA-XX-0907037989:  JOB NUMBER
 WTYP.                Deviated:  WELL TYPE
 COMP.     Strike West Pty Ltd:  COMPANY
 BASE.                   Perth:  LOGGING EQUIPMENT BASE LOCATION
 REGN.                      AP:  REGION
 CTRY.               Australia:  COUNTRY NAME
 FLD .          West Erregulla:  FIELD NAME
 SRVC.                  Ensign:  CONTRACTOR
 MWDS.                Jandakot:  MWD SHOP
 WELL.        West Erregulla 5:  WELL NAME
 JOBN.        PA-XX-0907037989:  JOB TICKET NUMB
 RIG .              Ensign 970:  RIG NAME
 DCON.     Sperry Drilling Services:  DIRECTNL CONTR
 UNIT.                11741669:  LOGGING EQUIPMENT ID
 PROV.       Western Australia:  PROVINCE
 STAT.       Western Australia:  STATE NAME
 PDAT.          Mean Sea Level:  PERMANENT DATUM
 MMDL.            bggm2021.dat:  MAGNETIC MODEL
 MMDD.            06 May, 2021:  MAG DATA DATE
 MDS .              Win MagUTM:  MAG DATA SOURCE
 GCDE.     Generic Lat/Long's, Degrees, -180 ==> +180:  GEO COORD DESC
 CCDE.     UTM Zone 50S on Geocentric Datum of Australia 1994, Meters:  CART COORD DESC
 GGSY.                      LL:  GEO GRID SYS
 CGSY.             SS GDA94-50:  CART GRID SYS
 GREF.     Ellipsoid World Geodetic System :  GEO REFERENCE
 CREF.     Datum Geocentric Datum of Austra:  CART REFERENCE
 LLGR.      Latitude/Longitude:  LLGROUP
 XYGR.     Australia/New Zealand Coordinate Systems:  XYGROUP
 API .                        :  API NUMBER
 CNTY.                        :  COUNTY
 UWI .                        :  UNIQUE WELL IDENTIFIER
 LOC .                        :  LOCATION
 LMF .             Drill Floor:  LOG MEASURED FROM
 TVDS.m             224.839988:  TVDSS CORRECTN
 LATI.deg           -29.398151:  LATITUDE
 LONG.deg           115.307694:  LONGITUDE
 WHNS.m               0.000000:  WELL HEAD N/S
 WHEW.m               0.000000:  WELL HEAD E/W
 UTMX.m          335792.640000:  UTM X
 UTMY.m         6746710.760000:  UTM Y
 DFWL.m               0.000000:  DISTANCE FWL
 DFSL.m               0.000000:  DISTANCE FSL
 SDEP.m              61.000002:  START DEPTH
 TDD .m            5015.000011:  TOTAL DEPTH (DRILLER)
 VSDR.deg             0.000000:  VERT SEC DIRECT
 GVFD.g               1.000000:  GRAVITY FIELD
 MFLD.nT          56933.789063:  MAGNETIC FIELD
 MDIP.deg           -63.343086:  MAGNETIC DIP
 MDEC.deg            -1.413625:  MAGNETIC DECL
 GRDC.deg             0.830898:  GRID CORRECTION
 AZTC.deg            -2.244523:  AZM TOTAL CORR
 EPD .m               0.000000:  ELEVATION
 EGL .m             217.679997:  GROUND ELEVATION
 WDMS.m               0.000000:  WD ELEV
 APD .m             224.839988:  DEPTH ABOVE PD
 AGAP.m               7.160000:  AIR GAP
 MMDE.m             -68.531232:  MAGUTM CALC DEP
 DEP .m               0.000000:  DEPTH
 CMER.deg           117.000000:  CENTRL MERIDIAN
 EKB .m               0.000000:  KB ELEVATION
 EDF .m             224.839988:  DF ELEVATION
 VSC .                       1:  VS TO CLOSURE
 MAGU.                 1375590:  MAGUTM CHECKSUM
~Parameter Information Block
#MNEM.UNIT       Value        Description
#---------     -----------    ---------------------------
 AV  .mps             2.583333:  Ann Velocity 
 AVMX.mps             2.933333:  Max Ann Veloc 
 AZIF.deg           193.410004:  Azm, Final 
 BHAT.                  Rotary:  BHA Type 
 BREV.krev          608.299988:  Rev Bit Total 
 BROT.°/30m           0.100000:  Build Rotating 
 BS  .mm            215.899994:  Bit Size 
 BTPL.kPag         3385.350342:  Bit Press Loss 
 CGEO.               Joe Emery:  Customer Geo 
 COMM.                     de~:  Run Comments 1 
 TCS .hr            130.012054:  Time Ciculation Ended 
 CV  .mps             4.100000:  Crit Velocity 
 CVMX.mps             4.100000:  Max Crit Veloc 
 DD1 .           Wayne Parsons:  Direct Drillr 1 
 DDSV.                   Other:  DD Service 
 DEFF.%              98.000000:  % Det Eff 
 DLRX.°/30m           0.680000:  Dogleg Rot Max 
 DLSO.°/30m           0.000000:  Dogleg Oriented 
 DLSX.°/30m           0.000000:  Dogleg Str Max 
 DRET.      22.50.00 17-Jun-21:  Drill End Time 
 DRST.      14.00.00 11-Jun-21:  Drill Start Tim 
 DTIM.hr            107.500000:  Time Drilling 
 EDEP.m            5015.000000:  End Depth 
 ENG1.           Liam ODonnell:  Engineer 1 
 ENG2.               Alan Rule:  Engineer 2 
 ENG3.        Vitaly Vasilenko:  Engineer 3 
 ETIM.      11.38.00 18-Jun-21:  End Time 
 FLOI.m3pm            2.100841:  Flow In 
 FLON.m3pm            2.044061:  Flow In Min 
 FLOS.mptm            3.000000:  Fluid Loss 
 FLOX.m3pm            2.380953:  Flow In Max 
 DFT .                 Polymer:  Mud Type 
 HFLO.                      No:  High Flow 
 HPRE.                      No:  High Pressure 
 HTEM.                      No:  High Temp 
 HYDO.m               2.500000:  Hydro Offset 
 IFIN.deg             5.220000:  Inc, Final 
 IMAX.deg             6.775680:  Inc Max 
 IMIN.deg             1.611614:  Inc Min 
 IMND.m            4310.580078:  Inc Min Depth 
 IMXD.m            4827.209961:  Inc Max Depth 
 JARR.                      No:  Jarring 
 LETM.      22.50.00 17-Jun-21:  Log End Time 
 LOST.hr                     0:  Lost Rig Time 
 LSTM.      14.00.00 11-Jun-21:  Log Start Time 
 MDCL.ppm         97000.000000:  Mud Chlorides 
 MDES.             Fresh Water:  Mud Desc 
 DFD .kg/m3        1222.229614:  Mud Density 
 MDMN.kg/m3        1210.247070:  Dens Mud Min 
 MDMX.kg/m3        1234.212280:  Dens Mud Max 
 PH  .pH              9.500000:  Mud pH 
 MOIL.                       0:  Run Mud Oil % 
 MOWR.                   0 100:  Run Mud OWR 
 MSND.                    0.10:  Run Mud Sand % 
 MSOL.                   12.40:  Run Mud Solids% 
 DFV .spl            62.362999:  Mud Viscosity 
 MWOD.mm            171.449997:  MWD Tool OD 
 MWSI.                      No:  Serv Intrp, MWD 
 OTIM.hr            176.676529:  Time Operating 
 PMAX.kPag        65859.195313:  Press Op, Max 
 PV  .mPsec          35.000000:  Mud PV 
 RMS .ohmm            0.080000:  Mud Resistivity 
 RMCS.ohmm            0.120000:  Mud Cake Resistivity 
 MCST.degC           21.999998:  Mud Cake Sample Temperature 
 RMFS.ohmm            0.060000:  Mud Filtrate Resistivity 
 RMFT.degC           21.999998:  Mud Filtrate Sample Temperature 
 RMMT.ohmm            0.023400:  Rm @ Max Temp 
 MST .degC           21.999998:  Mud Sample Temperature 
 RUN .                     500:  Run Number 
 ROPA.m/hr            6.800000:  ROP Avg 
 ROPN.m/hr            0.100000:  ROP Min 
 ROPX.m/hr           31.799999:  ROP Max 
 RPMA.rpm            98.000000:  RPM Surface Avg 
 RPMN.rpm            65.000000:  RPM Surface Min 
 RPMX.rpm           115.000008:  RPM Surface Max 
 RRUN.                       6:  Rig Run Number 
 RTIM.hr              0.000000:  Time Reaming 
 SAZI.deg           198.550003:  Azm, Start 
 SDEP.m            4283.000000:  Start Depth 
 SIDD.                      No:  Serv Intrp, DD 
 SINC.deg             2.000000:  Inc, Start 
 SPPA.kPag        21042.951172:  SPP Avg 
 SPPN.kPag        19677.779297:  SPP Min 
 SPPX.kPag        25117.783203:  SPP Max 
 STIM.      23.30.00 10-Jun-21:  Start Time 
 SVCS.                 DD, MWD:  Services 
 SVER.                9.200000:  Sperry Version 
 TDAT.m             732.000000:  Tot Depth Attmp 
 TDDF.                      No:  Trip for DD 
 TDLG.m             732.000000:  Tot Depth Loggd 
 TFF .                      No:  Trip for Fail 
 TQAA.kN-m            8.134908:  Torque Abs Avg 
 TQAN.kN-m            8.134908:  Torque Abs Min 
 TQAX.kN-m           14.507253:  Torque Abs Max 
 TRRT.°/30m           0.000000:  Turn Rotating 
 MRT .                    HCIM:  Maximum Recorded Temperature 
 TTMX.degC          127.000000:  Max Tool Temp 
 VS01.                90649920:  Virtual Str1 SN 
 VS02.                90649925:  Virtual Str2 SN 
 VS03.                90649923:  Virtual Str3 SN 
 WBMN.kdN            10.230908:  WOB Min 
 WITN.          Rick Dzivinski:  Customer Rep 2 
 WITN.           Mark Jachmann:  Customer Rep 
 WOBA.kdN            16.636347:  WOB Avg 
 WOBX.kdN            20.906639:  WOB Max 
 YP  .pa             15.321648:  Yield Point 
~Curve Information Block
#MNEM.UNIT                 API CODE     Curve Description
#---------               -----------    ---------------------------
 DEPT.M                 00 000 000 000:  Depth
 AFRSAC.ohmm            00 000 000 000:  AFR Shallow Avg Res BC
 AFRMAC.ohmm            00 000 000 000:  AFR Medium Avg Res BC
 AFRDAC.ohmm            00 000 000 000:  AFR Deep Avg Res BC
#Other Information
#
#WARRANTY: Halliburton will use its best efforts to furnish customers with 
#accurate information and interpretations that are part of, and incident to, the services 
#provided.  However, Halliburton cannot and does not warrant the accuracy 
#or correctness of such information and interpretations.  Under no circumstances should any 
#such information or interpretation be relied upon as the sole basis for any drilling, 
#completion, production, or financial decision or any procedure involving any risk to the 
#safety of any drilling venture, drilling rig or its crew or any other third party.  The 
#Customer has full responsibility for all drilling, completion and production operation.  
#Halliburton makes no representations or warranties, either expressed or 
#implied, including, but not limited to, the implied warranties of merchantability or fitness 
#for a particular purpose, with respect to the services rendered.  In no event will 
#Halliburton be liable for failure to obtain any particular results or for 
#any damages, including, but not limited to, indirect, special or consequential damages, 
#resulting from the use of any information or interpretation provided by Halliburton.
#
~A   DEPT      AFRSAC     AFRMAC     AFRDAC   
# ...
   4169.4000    64.0382   113.3357   130.2038
   4169.5000    64.4029   124.2433   141.9455
   4169.6000    59.3941   118.2075   130.0988
   4169.7000    52.2985   100.1656   106.9609
   4169.8000    45.9744    81.3938    86.3354
   4169.9000    43.1057    72.3572    77.2560
   4170.0000    41.3090    69.8437    73.9377
   4170.1000    38.3057    70.7412    70.1526
   4170.2000    38.7468    81.7779    77.9570
   4170.3000    40.4101    99.7602    94.7559
   4170.4000    45.3540   148.7870   152.9673
   4170.5000    48.5071   209.8139   235.1853
   4170.6000    49.1857   251.1758   295.1020
   4170.7000    49.5334   251.3594   302.6318
   4170.8000    52.9470   239.1973   295.4075
   4170.9000    55.1403   213.1727   264.3665
   4171.0000    56.0227   177.1399   216.8669
   4171.1000    56.5059   143.5640   171.0149
   4171.2000    55.6367   117.3251   134.9331
   4171.3000    55.0009   105.2935   116.2137
   4171.4000    54.1051   102.7895   110.8316
   4171.5000    56.4347   115.1601   121.6297
   4171.6000    59.1639   130.4482   138.6430
   4171.7000    61.0098   139.0105   150.1204
   4171.8000    64.1115   144.5394   159.7717
   4171.9000    62.2313   136.2733   154.7627
   4172.0000    61.9677   132.8436   152.9111
   4172.1000    61.2303   134.9160   154.6848
   4172.2000    64.5874   137.3117   158.4681
   4172.3000    72.9653   151.7432   174.1884
   4172.4000    84.3298   165.1576   190.6977
   4172.5000    91.6699   173.8607   193.7700
   4172.6000    94.3298   172.5601   183.4090
   4172.7000    95.4317   163.9643   170.8062
   4172.8000    94.0622   153.9417   161.2418
   4172.9000    90.2213   146.7800   152.3359
   4173.0000    87.3628   140.4319   145.7307
   4173.1000    88.6550   137.5705   149.9350
   4173.2000    95.5874   142.5141   162.7058
   4173.3000    94.4320   143.9636   170.4668
   4173.4000    90.5453   156.9970   172.2476
   4173.5000    84.7909   167.4820   175.8605
   4173.6000    84.9046   197.3933   204.4548
   4173.7000    89.5354   234.1570   258.5130
   4173.8000    89.3717   252.8222   301.2446
   4173.9000    83.8121   245.4870   312.0772
   4174.0000    77.2865   234.9354   304.0247
   4174.1000    75.6804   249.5060   321.3257
   4174.2000    75.8557   289.9242   369.8484
   4174.3000    76.5584   353.1216   452.5268
   4174.4000    73.5702   361.8586   465.8917
   4174.5000    68.2690   305.5259   391.0417
   4174.6000    61.6104   225.8297   286.5757
   4174.7000    56.9225   174.9340   220.8024
   4174.8000    55.9458   157.3463   199.5402
   4174.9000    54.9225   155.2910   198.9185
   4175.0000    56.2341   171.0746   224.0949
   4175.1000    54.2439   187.1395   246.3756
   4175.2000    51.5929   202.5203   270.5751
   4175.3000    47.6767   211.4370   281.8336
   4175.4000    41.8411   206.6451   270.9519
   4175.5000    37.9625   203.0811   264.1955
   4175.6000    36.7680   198.6363   268.1394
   4175.7000    37.1318   195.1187   274.8821
   4175.8000    37.3077   183.6226   262.2315
   4175.9000    36.1401   164.3922   229.1068
   4176.0000    34.9954   138.7579   204.7490
   4176.1000    36.4920   127.6705   204.2729
   4176.2000    40.0954   133.8854   226.2835
   4176.3000    44.8302   164.1819   259.7842
   4176.4000    46.2279   202.1684   278.8707
   4176.5000    45.4769   227.3012   285.4159
   4176.6000    44.1878   231.0217   283.2863
   4176.7000    45.8120   238.1582   298.4798
   4176.8000    50.4138   255.9843   323.1056
   4176.9000    57.4041   276.7977   347.8845
   4177.0000    64.3708   285.9582   352.4622
   4177.1000    68.1839   274.0853   329.6704
   4177.2000    73.3647   265.5897   311.9857
   4177.3000    80.7699   256.4648   296.6439
   4177.4000    90.2156   240.6283   277.8723
   4177.5000    94.7831   213.7757   246.9431
   4177.6000    91.9193   179.2413   208.2193
   4177.7000    94.1185   165.1069   191.6821
   4177.8000   101.5713   164.3474   191.4741
   4177.9000   115.4726   182.3813   215.2582
   4178.0000   120.5683   196.3297   233.1841
   4178.1000   122.7956   206.2531   246.8989
   4178.2000   121.1585   205.8431   246.9006
   4178.3000   110.5426   185.3059   218.3522
   4178.4000    91.0404   143.4373   166.7814
   4178.5000    74.4150   108.6959   127.7370
   4178.6000    61.7183    86.6611   102.7497
   4178.7000    54.7826    77.1209    92.1312
   4178.8000    51.4620    76.1301    89.6453
   4178.9000    49.4991    78.1416    90.1720
   4179.0000    48.5691    85.2265    95.3897
   4179.1000    45.0146    87.9710    96.9701
   4179.2000    43.7021    97.4469   106.4653
   4179.3000    44.5829   112.7715   123.4491
   4179.4000    46.4727   126.7221   139.9710
   4179.5000    45.0159   115.8261   129.8157
   4179.6000    39.8932    85.5702    98.3225
   4179.7000    39.8610    75.8002    89.6400
   4179.8000    42.9210    78.0551    96.2461
   4179.9000    45.5327    90.1313   117.5825
   4180.0000    47.3869   111.4501   148.6913
   4180.1000    48.8704   134.9867   185.6805
   4180.2000    52.7462   185.2431   264.6483
   4180.3000    57.1079   235.5916   378.6052
   4180.4000    53.0103   219.5249   391.0516
   4180.5000    48.4407   188.3538   356.1322
   4180.6000    45.5164   169.3376   319.8719
   4180.7000    42.8500   168.4600   298.9764
   4180.8000    41.1738   182.2700   298.9610
   4180.9000    38.4905   193.8122   297.5317
   4181.0000    35.8502   193.4272   285.7440
   4181.1000    32.4581   174.6946   252.1000
   4181.2000    29.9179   156.3503   221.7697
   4181.3000    27.7973   141.2156   197.1371
   4181.4000    26.0660   132.3711   186.1639
   4181.5000    25.4417   140.6773   204.0319
   4181.6000    25.4276   157.8857   239.9594
   4181.7000    25.6452   183.0579   289.0109
   4181.8000    24.4430   180.1029   282.8250
   4181.9000    23.4762   169.1709   268.1003
   4182.0000    23.2269   160.6180   259.3603
   4182.1000    23.4442   156.2786   256.4326
   4182.2000    24.1380   156.9897   257.5938
   4182.3000    25.1476   162.2116   262.1369
   4182.4000    27.3562   177.3002   288.5750
   4182.5000    30.8216   201.9943   333.4881
   4182.6000    34.4783   217.3787   363.7682
   4182.7000    37.4932   212.1602   353.6650
   4182.8000    39.6849   181.2468   297.3516
   4182.9000    41.6393   151.9410   248.9153
   4183.0000    45.0743   141.6796   230.4261
   4183.1000    49.3246   145.2752   232.7589
   4183.2000    52.7692   162.2493   255.5618
   4183.3000    51.6964   172.8384   271.2523
   4183.4000    49.8886   184.3158   283.6701
   4183.5000    51.6321   203.9781   294.2148
   4183.6000    55.6542   231.0729   275.4460
   4183.7000    55.1319   215.9704   182.9595
   4183.8000    59.9274   146.3334   155.5677
   4183.9000    51.1218    84.2358   105.6520
   4184.0000    43.8147    67.5454    75.0653
   4184.1000    40.6338    72.0948    69.9227
   4184.2000    42.1768   101.0251    79.8877
   4184.3000    55.3323   141.0471   121.8996
   4184.4000    57.6295   143.5726   121.6308
   4184.5000    60.7736   140.2058   125.0979
   4184.6000    63.3338   130.7897   128.7122
   4184.7000    70.6659   130.5204   146.2311
   4184.8000    79.1736   137.0741   166.0557
   4184.9000    88.1886   150.5372   188.7851
   4185.0000    93.3390   154.3801   198.9390
   4185.1000    89.2643   143.8118   183.1020
   4185.2000    81.8623   129.8029   163.3461
   4185.3000    73.5586   116.5989   143.3905
   4185.4000    72.0370   114.6125   139.1651
   4185.5000    70.0408   112.9238   136.5250
   4185.6000    67.7207   117.7830   140.2475
   4185.7000    66.1016   130.0773   153.1158
   4185.8000    68.2271   152.9856   177.0398
   4185.9000    65.2100   163.3453   188.5714
   4186.0000    51.7645   132.4596   151.5493
   4186.1000    41.7677   106.2347   121.7677
   4186.2000    36.5332    93.7307   108.0455
   4186.3000    34.8381    94.3281   109.1163
   4186.4000    34.0061   104.2664   120.8074
   4186.5000    32.9434   116.4806   133.5716
   4186.6000    32.7302   132.5007   148.4138
   4186.7000    33.2001   143.2288   155.0256
