~Version Information
 VERS.                  2.0:   CWLS log ASCII Standard -VERSION 2.0
 WRAP.                   NO:   One line per depth step
~Well Information Block
#MNEM.UNIT     VALUE/NAME     DESCRIPTION
#---------     -----------    ---------------------------
 STRT.M              3630.0000: START DEPTH
 STOP.M              5008.7000: STOP DEPTH
 STEP.M                 0.1000: STEP DEPTH
 NULL.               -999.2500: NULL VALUE
 DFWT.                        :  DIST FWL TEXT
 DFST.                        :  DIST FSL TEXT
 DMF .             Drill Floor:  DRILL MEAS FROM
 STIM.      10.30.00 08-May-21:  START TIME
 DATE.      11.38.00 18-Jun-21:  END TIME
 SPUD.               08-May-21:  SPUD DATE
 NREF.                    Grid:  NORTH REFERENCE
 HPTY.       Minimum Curvature:  HOLE POS TYPE
 DMOD.             Drill Model:  DRILL MOD DESC
 SVYD.                  Survey:  SURVEY DESC
 ILTD.               Lithology:  INTERP LTH DESC
 FTOP.          Formation Tops:  FORM TOPS DESC
 SON .        PA-XX-0907037989:  JOB NUMBER
 WTYP.                Deviated:  WELL TYPE
 COMP.     Strike West Pty Ltd:  COMPANY
 BASE.                   Perth:  LOGGING EQUIPMENT BASE LOCATION
 REGN.                      AP:  REGION
 CTRY.               Australia:  COUNTRY NAME
 FLD .          West Erregulla:  FIELD NAME
 SRVC.                  Ensign:  CONTRACTOR
 MWDS.                Jandakot:  MWD SHOP
 WELL.        West Erregulla 5:  WELL NAME
 JOBN.        PA-XX-0907037989:  JOB TICKET NUMB
 RIG .              Ensign 970:  RIG NAME
 DCON.     Sperry Drilling Services:  DIRECTNL CONTR
 UNIT.                11741669:  LOGGING EQUIPMENT ID
 PROV.       Western Australia:  PROVINCE
 STAT.       Western Australia:  STATE NAME
 PDAT.          Mean Sea Level:  PERMANENT DATUM
 MMDL.            bggm2021.dat:  MAGNETIC MODEL
 MMDD.            06 May, 2021:  MAG DATA DATE
 MDS .              Win MagUTM:  MAG DATA SOURCE
 GCDE.     Generic Lat/Long's, Degrees, -180 ==> +180:  GEO COORD DESC
 CCDE.     UTM Zone 50S on Geocentric Datum of Australia 1994, Meters:  CART COORD DESC
 GGSY.                      LL:  GEO GRID SYS
 CGSY.             SS GDA94-50:  CART GRID SYS
 GREF.     Ellipsoid World Geodetic System :  GEO REFERENCE
 CREF.     Datum Geocentric Datum of Austra:  CART REFERENCE
 LLGR.      Latitude/Longitude:  LLGROUP
 XYGR.     Australia/New Zealand Coordinate Systems:  XYGROUP
 API .                        :  API NUMBER
 CNTY.                        :  COUNTY
 UWI .                        :  UNIQUE WELL IDENTIFIER
 LOC .                        :  LOCATION
 LMF .             Drill Floor:  LOG MEASURED FROM
 TVDS.m             224.839988:  TVDSS CORRECTN
 LATI.deg           -29.398151:  LATITUDE
 LONG.deg           115.307694:  LONGITUDE
 WHNS.m               0.000000:  WELL HEAD N/S
 WHEW.m               0.000000:  WELL HEAD E/W
 UTMX.m          335792.640000:  UTM X
 UTMY.m         6746710.760000:  UTM Y
 DFWL.m               0.000000:  DISTANCE FWL
 DFSL.m               0.000000:  DISTANCE FSL
 SDEP.m              61.000002:  START DEPTH
 TDD .m            5015.000011:  TOTAL DEPTH (DRILLER)
 VSDR.deg             0.000000:  VERT SEC DIRECT
 GVFD.g               1.000000:  GRAVITY FIELD
 MFLD.nT          56933.789063:  MAGNETIC FIELD
 MDIP.deg           -63.343086:  MAGNETIC DIP
 MDEC.deg            -1.413625:  MAGNETIC DECL
 GRDC.deg             0.830898:  GRID CORRECTION
 AZTC.deg            -2.244523:  AZM TOTAL CORR
 EPD .m               0.000000:  ELEVATION
 EGL .m             217.679997:  GROUND ELEVATION
 WDMS.m               0.000000:  WD ELEV
 APD .m             224.839988:  DEPTH ABOVE PD
 AGAP.m               7.160000:  AIR GAP
 MMDE.m             -68.531232:  MAGUTM CALC DEP
 DEP .m               0.000000:  DEPTH
 CMER.deg           117.000000:  CENTRL MERIDIAN
 EKB .m               0.000000:  KB ELEVATION
 EDF .m             224.839988:  DF ELEVATION
 VSC .                       1:  VS TO CLOSURE
 MAGU.                 1375590:  MAGUTM CHECKSUM
~Parameter Information Block
#MNEM.UNIT       Value        Description
#---------     -----------    ---------------------------
 AV  .mps             2.583333:  Ann Velocity 
 AVMX.mps             2.933333:  Max Ann Veloc 
 AZIF.deg           193.410004:  Azm, Final 
 BHAT.                  Rotary:  BHA Type 
 BREV.krev          608.299988:  Rev Bit Total 
 BROT.°/30m           0.100000:  Build Rotating 
 BS  .mm            215.899994:  Bit Size 
 BTPL.kPag         3385.350342:  Bit Press Loss 
 CGEO.               Joe Emery:  Customer Geo 
 COMM.                     de~:  Run Comments 1 
 TCS .hr            130.012054:  Time Ciculation Ended 
 CV  .mps             4.100000:  Crit Velocity 
 CVMX.mps             4.100000:  Max Crit Veloc 
 DD1 .           Wayne Parsons:  Direct Drillr 1 
 DDSV.                   Other:  DD Service 
 DEFF.%              98.000000:  % Det Eff 
 DLRX.°/30m           0.680000:  Dogleg Rot Max 
 DLSO.°/30m           0.000000:  Dogleg Oriented 
 DLSX.°/30m           0.000000:  Dogleg Str Max 
 DRET.      22.50.00 17-Jun-21:  Drill End Time 
 DRST.      14.00.00 11-Jun-21:  Drill Start Tim 
 DTIM.hr            107.500000:  Time Drilling 
 EDEP.m            5015.000000:  End Depth 
 ENG1.           Liam ODonnell:  Engineer 1 
 ENG2.               Alan Rule:  Engineer 2 
 ENG3.        Vitaly Vasilenko:  Engineer 3 
 ETIM.      11.38.00 18-Jun-21:  End Time 
 FLOI.m3pm            2.100841:  Flow In 
 FLON.m3pm            2.044061:  Flow In Min 
 FLOS.mptm            3.000000:  Fluid Loss 
 FLOX.m3pm            2.380953:  Flow In Max 
 DFT .                 Polymer:  Mud Type 
 HFLO.                      No:  High Flow 
 HPRE.                      No:  High Pressure 
 HTEM.                      No:  High Temp 
 HYDO.m               2.500000:  Hydro Offset 
 IFIN.deg             5.220000:  Inc, Final 
 IMAX.deg             6.775680:  Inc Max 
 IMIN.deg             1.611614:  Inc Min 
 IMND.m            4310.580078:  Inc Min Depth 
 IMXD.m            4827.209961:  Inc Max Depth 
 JARR.                      No:  Jarring 
 LETM.      22.50.00 17-Jun-21:  Log End Time 
 LOST.hr                     0:  Lost Rig Time 
 LSTM.      14.00.00 11-Jun-21:  Log Start Time 
 MDCL.ppm         97000.000000:  Mud Chlorides 
 MDES.             Fresh Water:  Mud Desc 
 DFD .kg/m3        1222.229614:  Mud Density 
 MDMN.kg/m3        1210.247070:  Dens Mud Min 
 MDMX.kg/m3        1234.212280:  Dens Mud Max 
 PH  .pH              9.500000:  Mud pH 
 MOIL.                       0:  Run Mud Oil % 
 MOWR.                   0 100:  Run Mud OWR 
 MSND.                    0.10:  Run Mud Sand % 
 MSOL.                   12.40:  Run Mud Solids% 
 DFV .spl            62.362999:  Mud Viscosity 
 MWOD.mm            171.449997:  MWD Tool OD 
 MWSI.                      No:  Serv Intrp, MWD 
 OTIM.hr            176.676529:  Time Operating 
 PMAX.kPag        65859.195313:  Press Op, Max 
 PV  .mPsec          35.000000:  Mud PV 
 RMS .ohmm            0.080000:  Mud Resistivity 
 RMCS.ohmm            0.120000:  Mud Cake Resistivity 
 MCST.degC           21.999998:  Mud Cake Sample Temperature 
 RMFS.ohmm            0.060000:  Mud Filtrate Resistivity 
 RMFT.degC           21.999998:  Mud Filtrate Sample Temperature 
 RMMT.ohmm            0.023400:  Rm @ Max Temp 
 MST .degC           21.999998:  Mud Sample Temperature 
 RUN .                     500:  Run Number 
 ROPA.m/hr            6.800000:  ROP Avg 
 ROPN.m/hr            0.100000:  ROP Min 
 ROPX.m/hr           31.799999:  ROP Max 
 RPMA.rpm            98.000000:  RPM Surface Avg 
 RPMN.rpm            65.000000:  RPM Surface Min 
 RPMX.rpm           115.000008:  RPM Surface Max 
 RRUN.                       6:  Rig Run Number 
 RTIM.hr              0.000000:  Time Reaming 
 SAZI.deg           198.550003:  Azm, Start 
 SDEP.m            4283.000000:  Start Depth 
 SIDD.                      No:  Serv Intrp, DD 
 SINC.deg             2.000000:  Inc, Start 
 SPPA.kPag        21042.951172:  SPP Avg 
 SPPN.kPag        19677.779297:  SPP Min 
 SPPX.kPag        25117.783203:  SPP Max 
 STIM.      23.30.00 10-Jun-21:  Start Time 
 SVCS.                 DD, MWD:  Services 
 SVER.                9.200000:  Sperry Version 
 TDAT.m             732.000000:  Tot Depth Attmp 
 TDDF.                      No:  Trip for DD 
 TDLG.m             732.000000:  Tot Depth Loggd 
 TFF .                      No:  Trip for Fail 
 TQAA.kN-m            8.134908:  Torque Abs Avg 
 TQAN.kN-m            8.134908:  Torque Abs Min 
 TQAX.kN-m           14.507253:  Torque Abs Max 
 TRRT.°/30m           0.000000:  Turn Rotating 
 MRT .                    HCIM:  Maximum Recorded Temperature 
 TTMX.degC          127.000000:  Max Tool Temp 
 VS01.                90649920:  Virtual Str1 SN 
 VS02.                90649925:  Virtual Str2 SN 
 VS03.                90649923:  Virtual Str3 SN 
 WBMN.kdN            10.230908:  WOB Min 
 WITN.          Rick Dzivinski:  Customer Rep 2 
 WITN.           Mark Jachmann:  Customer Rep 
 WOBA.kdN            16.636347:  WOB Avg 
 WOBX.kdN            20.906639:  WOB Max 
 YP  .pa             15.321648:  Yield Point 
~Curve Information Block
#MNEM.UNIT                 API CODE     Curve Description
#---------               -----------    ---------------------------
 DEPT.M                 00 000 000 000:  Depth
 AFRSAC.ohmm            00 000 000 000:  AFR Shallow Avg Res BC
 AFRMAC.ohmm            00 000 000 000:  AFR Medium Avg Res BC
 AFRDAC.ohmm            00 000 000 000:  AFR Deep Avg Res BC
#Other Information
#
#WARRANTY: Halliburton will use its best efforts to furnish customers with 
#accurate information and interpretations that are part of, and incident to, the services 
#provided.  However, Halliburton cannot and does not warrant the accuracy 
#or correctness of such information and interpretations.  Under no circumstances should any 
#such information or interpretation be relied upon as the sole basis for any drilling, 
#completion, production, or financial decision or any procedure involving any risk to the 
#safety of any drilling venture, drilling rig or its crew or any other third party.  The 
#Customer has full responsibility for all drilling, completion and production operation.  
#Halliburton makes no representations or warranties, either expressed or 
#implied, including, but not limited to, the implied warranties of merchantability or fitness 
#for a particular purpose, with respect to the services rendered.  In no event will 
#Halliburton be liable for failure to obtain any particular results or for 
#any damages, including, but not limited to, indirect, special or consequential damages, 
#resulting from the use of any information or interpretation provided by Halliburton.
#
~A   DEPT      AFRSAC     AFRMAC     AFRDAC   
# ...
   3995.4000    15.9434    16.4225    16.6794
   3995.5000    17.2201    17.5399    18.1840
   3995.6000    18.3605    19.1359    19.4943
   3995.7000    18.3082    19.6210    19.3952
   3995.8000    15.7072    15.9904    16.3680
   3995.9000    14.0776    13.6589    14.4912
   3996.0000    14.1908    13.6544    14.6060
   3996.1000    15.3473    15.1807    15.9717
   3996.2000    17.0776    17.8713    18.0107
   3996.3000    16.9591    17.9809    18.0731
   3996.4000    17.4249    18.8699    18.7602
   3996.5000    19.2123    21.2474    20.9864
   3996.6000    21.8666    24.2286    24.2239
   3996.7000    21.6158    23.0851    23.6327
   3996.8000    19.7584    20.1641    20.9745
   3996.9000    17.7368    17.6224    18.2108
   3997.0000    16.4717    16.7052    16.5836
   3997.1000    16.4357    16.5674    16.3885
   3997.2000    16.4383    16.5611    16.3121
   3997.3000    16.6572    16.6786    16.4869
   3997.4000    16.6280    16.6807    16.4252
   3997.5000    16.6464    16.4783    16.4126
   3997.6000    17.1147    16.6107    16.8810
   3997.7000    17.7727    17.0454    17.5834
   3997.8000    18.2712    17.7374    18.1945
   3997.9000    18.0132    17.6627    18.0686
   3998.0000    17.4144    17.1269    17.5442
   3998.1000    16.8552    16.6653    16.9958
   3998.2000    16.7737    16.5447    16.9348
   3998.3000    16.7295    16.6402    16.8466
   3998.4000    16.7090    16.5940    16.6334
   3998.5000    16.6501    16.5574    16.4372
   3998.6000    16.6537    16.6923    16.4480
   3998.7000    16.8443    16.6952    16.8894
   3998.8000    16.9429    16.5900    17.3556
   3998.9000    16.7956    16.4815    17.4733
   3999.0000    16.7086    16.9768    17.5116
   3999.1000    17.0022    18.0706    17.9194
   3999.2000    17.3722    18.9623    18.4568
   3999.3000    17.4239    19.3455    18.6361
   3999.4000    17.3656    19.3320    18.6262
   3999.5000    16.8848    18.4559    17.9450
   3999.6000    16.5517    17.1937    17.3690
   3999.7000    16.3158    14.9508    16.8617
   3999.8000    16.0490    12.9769    16.2760
   3999.9000    15.7546    12.6424    15.6499
   4000.0000    15.1554    13.3291    14.8284
   4000.1000    14.6304    15.3638    14.2548
   4000.2000    14.6186    16.2307    14.3080
   4000.3000    15.0867    16.8536    14.8900
   4000.4000    14.8234    17.1842    14.6508
   4000.5000    14.8060    17.3034    14.7573
   4000.6000    14.8068    17.0761    14.9029
   4000.7000    15.5847    16.8621    15.9298
   4000.8000    16.3334    16.9783    16.8496
   4000.9000    16.8163    17.1344    17.3688
   4001.0000    17.0147    17.1188    17.5724
   4001.1000    17.3143    17.6691    17.8005
   4001.2000    18.0459    18.7363    18.7221
   4001.3000    18.6476    19.7564    19.5586
   4001.4000    18.6399    19.4243    19.6434
   4001.5000    18.4026    18.7272    19.2390
   4001.6000    18.6059    18.8078    19.1650
   4001.7000    19.4165    19.4850    19.8747
   4001.8000    20.0663    19.8897    20.5994
   4001.9000    19.9118    19.7585    20.4944
   4002.0000    19.2508    19.1387    19.7950
   4002.1000    18.7951    18.9821    19.3261
   4002.2000    18.8785    19.0638    19.3467
   4002.3000    18.7198    19.3310    19.1163
   4002.4000    18.3195    19.2248    18.7529
   4002.5000    17.5336    18.7721    18.0598
   4002.6000    17.2138    17.7918    17.9899
   4002.7000    17.7849    17.6303    18.8709
   4002.8000    18.5829    18.5567    19.7758
   4002.9000    18.5444    19.1948    19.8044
   4003.0000    17.2593    18.8086    18.3399
   4003.1000    15.9434    17.1844    16.8814
   4003.2000    15.1558    16.0536    15.9598
   4003.3000    15.0455    15.7186    15.7995
   4003.4000    14.8731    15.5623    15.6420
   4003.5000    14.5427    15.3838    15.4383
   4003.6000    14.6243    15.7292    15.7471
   4003.7000    15.0966    16.3934    16.4481
   4003.8000    15.8466    17.4288    17.4765
   4003.9000    16.2136    17.7075    18.0116
   4004.0000    16.0766    17.3536    18.1082
   4004.1000    16.6674    17.7708    19.0123
   4004.2000    17.4211    18.3102    19.9712
   4004.3000    17.7641    18.7200    20.2379
   4004.4000    16.8896    18.1296    19.1055
   4004.5000    17.0199    18.6648    19.2753
   4004.6000    18.8071    20.9851    21.4997
   4004.7000    20.9670    23.3830    24.0891
   4004.8000    21.0666    23.6401    23.9437
   4004.9000    19.9403    22.4988    22.3212
   4005.0000    19.9369    22.7324    22.0636
   4005.1000    21.9845    24.9175    23.9004
   4005.2000    22.5816    24.8943    23.5826
   4005.3000    20.9606    22.0109    20.6061
   4005.4000    19.3871    19.4399    18.1277
   4005.5000    19.3711    18.8862    17.8237
   4005.6000    23.7167    23.1443    22.3709
   4005.7000    33.5786    33.4130    33.4283
   4005.8000    52.6118    54.2500    56.0896
   4005.9000    80.9932    85.5960    90.5914
   4006.0000   108.7500   119.4803   128.2002
   4006.1000   123.0030   136.7350   149.4691
   4006.2000   135.1398   150.6169   166.9611
   4006.3000   139.0224   153.3224   170.0653
   4006.4000   132.5218   142.9322   159.2835
   4006.5000   110.2508   116.5059   127.5185
   4006.6000    91.1177    95.9575   102.1739
   4006.7000    80.9915    86.7323    89.7859
   4006.8000    79.3264    87.0758    88.5051
   4006.9000    78.7209    89.3033    89.3641
   4007.0000    70.9676    81.8921    80.6434
   4007.1000    64.0130    73.6599    71.1395
   4007.2000    57.7503    65.2915    61.7040
   4007.3000    53.0073    59.0028    54.6975
   4007.4000    51.9738    57.3300    53.2224
   4007.5000    52.9332    59.2410    55.2486
   4007.6000    61.3588    70.2990    66.7989
   4007.7000    68.8890    80.2939    78.3897
   4007.8000    74.9723    89.5298    88.5258
   4007.9000    73.8108    87.8878    86.6046
   4008.0000    67.1087    75.5846    75.3674
   4008.1000    59.7404    63.2226    63.7324
   4008.2000    54.6005    54.2555    56.5328
   4008.3000    56.6461    55.8892    59.0956
   4008.4000    69.4054    70.9777    75.4564
   4008.5000    94.2064   104.1406   109.2994
   4008.6000   114.3453   131.5665   136.1318
   4008.7000   112.5642   129.2253   129.8324
   4008.8000    73.7824    76.7971    77.1029
   4008.9000    57.1653    56.7935    56.3273
   4009.0000    55.9969    56.3085    55.1550
   4009.1000    67.1237    69.8965    69.4458
   4009.2000    69.9731    74.6370    75.1894
   4009.3000    58.2950    60.1517    61.4798
   4009.4000    45.9328    44.5582    46.1487
   4009.5000    41.9713    40.4017    41.0740
   4009.6000    46.5031    44.6526    46.2483
   4009.7000    57.1887    58.4822    60.1984
   4009.8000    72.6632    80.0993    82.9111
   4009.9000    84.9869    98.9123   101.6927
   4010.0000    83.4288    96.5613    97.7546
   4010.1000    67.6270    77.0940    71.9564
   4010.2000    44.2116    46.7434    41.2738
   4010.3000    35.5855    32.8993    31.2242
   4010.4000    36.2009    31.7333    31.9310
   4010.5000    48.1330    41.9239    45.7266
   4010.6000    63.0740    58.8393    65.2030
   4010.7000    65.7541    63.3305    70.8352
   4010.8000    60.9329    57.7063    65.3886
   4010.9000    61.2942    55.2691    64.5855
   4011.0000    61.7741    58.4827    65.0735
   4011.1000    58.5467    60.1245    63.1330
   4011.2000    54.7027    60.5747    60.7890
   4011.3000    48.3368    56.2459    53.9775
   4011.4000    43.3825    51.8737    47.2444
   4011.5000    39.8961    43.4330    41.7980
   4011.6000    40.0908    44.3306    41.0505
   4011.7000    42.2328    50.8581    43.6285
   4011.8000    47.6682    67.2089    50.9833
   4011.9000    52.1022    78.5035    58.0867
   4012.0000    54.2355    68.8633    62.1863
   4012.1000    55.1082    56.7896    64.0098
   4012.2000    52.8281    50.7967    61.8086
   4012.3000    52.1985    52.0236    61.9223
   4012.4000    52.4199    56.6117    62.7032
   4012.5000    51.3416    60.1498    61.0782
   4012.6000    43.5772    51.6178    50.3137
   4012.7000    37.9145    42.5137    42.2041
