~Version Information
 VERS.                  2.0:   CWLS log ASCII Standard -VERSION 2.0
 WRAP.                   NO:   One line per depth step
~Well Information Block
#MNEM.UNIT     VALUE/NAME     DESCRIPTION
#---------     -----------    ---------------------------
 STRT.M              3630.0000: START DEPTH
 STOP.M              5008.7000: STOP DEPTH
 STEP.M                 0.1000: STEP DEPTH
 NULL.               -999.2500: NULL VALUE
 DFWT.                        :  DIST FWL TEXT
 DFST.                        :  DIST FSL TEXT
 DMF .             Drill Floor:  DRILL MEAS FROM
 STIM.      10.30.00 08-May-21:  START TIME
 DATE.      11.38.00 18-Jun-21:  END TIME
 SPUD.               08-May-21:  SPUD DATE
 NREF.                    Grid:  NORTH REFERENCE
 HPTY.       Minimum Curvature:  HOLE POS TYPE
 DMOD.             Drill Model:  DRILL MOD DESC
 SVYD.                  Survey:  SURVEY DESC
 ILTD.               Lithology:  INTERP LTH DESC
 FTOP.          Formation Tops:  FORM TOPS DESC
 SON .        PA-XX-0907037989:  JOB NUMBER
 WTYP.                Deviated:  WELL TYPE
 COMP.     Strike West Pty Ltd:  COMPANY
 BASE.                   Perth:  LOGGING EQUIPMENT BASE LOCATION
 REGN.                      AP:  REGION
 CTRY.               Australia:  COUNTRY NAME
 FLD .          West Erregulla:  FIELD NAME
 SRVC.                  Ensign:  CONTRACTOR
 MWDS.                Jandakot:  MWD SHOP
 WELL.        West Erregulla 5:  WELL NAME
 JOBN.        PA-XX-0907037989:  JOB TICKET NUMB
 RIG .              Ensign 970:  RIG NAME
 DCON.     Sperry Drilling Services:  DIRECTNL CONTR
 UNIT.                11741669:  LOGGING EQUIPMENT ID
 PROV.       Western Australia:  PROVINCE
 STAT.       Western Australia:  STATE NAME
 PDAT.          Mean Sea Level:  PERMANENT DATUM
 MMDL.            bggm2021.dat:  MAGNETIC MODEL
 MMDD.            06 May, 2021:  MAG DATA DATE
 MDS .              Win MagUTM:  MAG DATA SOURCE
 GCDE.     Generic Lat/Long's, Degrees, -180 ==> +180:  GEO COORD DESC
 CCDE.     UTM Zone 50S on Geocentric Datum of Australia 1994, Meters:  CART COORD DESC
 GGSY.                      LL:  GEO GRID SYS
 CGSY.             SS GDA94-50:  CART GRID SYS
 GREF.     Ellipsoid World Geodetic System :  GEO REFERENCE
 CREF.     Datum Geocentric Datum of Austra:  CART REFERENCE
 LLGR.      Latitude/Longitude:  LLGROUP
 XYGR.     Australia/New Zealand Coordinate Systems:  XYGROUP
 API .                        :  API NUMBER
 CNTY.                        :  COUNTY
 UWI .                        :  UNIQUE WELL IDENTIFIER
 LOC .                        :  LOCATION
 LMF .             Drill Floor:  LOG MEASURED FROM
 TVDS.m             224.839988:  TVDSS CORRECTN
 LATI.deg           -29.398151:  LATITUDE
 LONG.deg           115.307694:  LONGITUDE
 WHNS.m               0.000000:  WELL HEAD N/S
 WHEW.m               0.000000:  WELL HEAD E/W
 UTMX.m          335792.640000:  UTM X
 UTMY.m         6746710.760000:  UTM Y
 DFWL.m               0.000000:  DISTANCE FWL
 DFSL.m               0.000000:  DISTANCE FSL
 SDEP.m              61.000002:  START DEPTH
 TDD .m            5015.000011:  TOTAL DEPTH (DRILLER)
 VSDR.deg             0.000000:  VERT SEC DIRECT
 GVFD.g               1.000000:  GRAVITY FIELD
 MFLD.nT          56933.789063:  MAGNETIC FIELD
 MDIP.deg           -63.343086:  MAGNETIC DIP
 MDEC.deg            -1.413625:  MAGNETIC DECL
 GRDC.deg             0.830898:  GRID CORRECTION
 AZTC.deg            -2.244523:  AZM TOTAL CORR
 EPD .m               0.000000:  ELEVATION
 EGL .m             217.679997:  GROUND ELEVATION
 WDMS.m               0.000000:  WD ELEV
 APD .m             224.839988:  DEPTH ABOVE PD
 AGAP.m               7.160000:  AIR GAP
 MMDE.m             -68.531232:  MAGUTM CALC DEP
 DEP .m               0.000000:  DEPTH
 CMER.deg           117.000000:  CENTRL MERIDIAN
 EKB .m               0.000000:  KB ELEVATION
 EDF .m             224.839988:  DF ELEVATION
 VSC .                       1:  VS TO CLOSURE
 MAGU.                 1375590:  MAGUTM CHECKSUM
~Parameter Information Block
#MNEM.UNIT       Value        Description
#---------     -----------    ---------------------------
 AV  .mps             2.583333:  Ann Velocity 
 AVMX.mps             2.933333:  Max Ann Veloc 
 AZIF.deg           193.410004:  Azm, Final 
 BHAT.                  Rotary:  BHA Type 
 BREV.krev          608.299988:  Rev Bit Total 
 BROT.°/30m           0.100000:  Build Rotating 
 BS  .mm            215.899994:  Bit Size 
 BTPL.kPag         3385.350342:  Bit Press Loss 
 CGEO.               Joe Emery:  Customer Geo 
 COMM.                     de~:  Run Comments 1 
 TCS .hr            130.012054:  Time Ciculation Ended 
 CV  .mps             4.100000:  Crit Velocity 
 CVMX.mps             4.100000:  Max Crit Veloc 
 DD1 .           Wayne Parsons:  Direct Drillr 1 
 DDSV.                   Other:  DD Service 
 DEFF.%              98.000000:  % Det Eff 
 DLRX.°/30m           0.680000:  Dogleg Rot Max 
 DLSO.°/30m           0.000000:  Dogleg Oriented 
 DLSX.°/30m           0.000000:  Dogleg Str Max 
 DRET.      22.50.00 17-Jun-21:  Drill End Time 
 DRST.      14.00.00 11-Jun-21:  Drill Start Tim 
 DTIM.hr            107.500000:  Time Drilling 
 EDEP.m            5015.000000:  End Depth 
 ENG1.           Liam ODonnell:  Engineer 1 
 ENG2.               Alan Rule:  Engineer 2 
 ENG3.        Vitaly Vasilenko:  Engineer 3 
 ETIM.      11.38.00 18-Jun-21:  End Time 
 FLOI.m3pm            2.100841:  Flow In 
 FLON.m3pm            2.044061:  Flow In Min 
 FLOS.mptm            3.000000:  Fluid Loss 
 FLOX.m3pm            2.380953:  Flow In Max 
 DFT .                 Polymer:  Mud Type 
 HFLO.                      No:  High Flow 
 HPRE.                      No:  High Pressure 
 HTEM.                      No:  High Temp 
 HYDO.m               2.500000:  Hydro Offset 
 IFIN.deg             5.220000:  Inc, Final 
 IMAX.deg             6.775680:  Inc Max 
 IMIN.deg             1.611614:  Inc Min 
 IMND.m            4310.580078:  Inc Min Depth 
 IMXD.m            4827.209961:  Inc Max Depth 
 JARR.                      No:  Jarring 
 LETM.      22.50.00 17-Jun-21:  Log End Time 
 LOST.hr                     0:  Lost Rig Time 
 LSTM.      14.00.00 11-Jun-21:  Log Start Time 
 MDCL.ppm         97000.000000:  Mud Chlorides 
 MDES.             Fresh Water:  Mud Desc 
 DFD .kg/m3        1222.229614:  Mud Density 
 MDMN.kg/m3        1210.247070:  Dens Mud Min 
 MDMX.kg/m3        1234.212280:  Dens Mud Max 
 PH  .pH              9.500000:  Mud pH 
 MOIL.                       0:  Run Mud Oil % 
 MOWR.                   0 100:  Run Mud OWR 
 MSND.                    0.10:  Run Mud Sand % 
 MSOL.                   12.40:  Run Mud Solids% 
 DFV .spl            62.362999:  Mud Viscosity 
 MWOD.mm            171.449997:  MWD Tool OD 
 MWSI.                      No:  Serv Intrp, MWD 
 OTIM.hr            176.676529:  Time Operating 
 PMAX.kPag        65859.195313:  Press Op, Max 
 PV  .mPsec          35.000000:  Mud PV 
 RMS .ohmm            0.080000:  Mud Resistivity 
 RMCS.ohmm            0.120000:  Mud Cake Resistivity 
 MCST.degC           21.999998:  Mud Cake Sample Temperature 
 RMFS.ohmm            0.060000:  Mud Filtrate Resistivity 
 RMFT.degC           21.999998:  Mud Filtrate Sample Temperature 
 RMMT.ohmm            0.023400:  Rm @ Max Temp 
 MST .degC           21.999998:  Mud Sample Temperature 
 RUN .                     500:  Run Number 
 ROPA.m/hr            6.800000:  ROP Avg 
 ROPN.m/hr            0.100000:  ROP Min 
 ROPX.m/hr           31.799999:  ROP Max 
 RPMA.rpm            98.000000:  RPM Surface Avg 
 RPMN.rpm            65.000000:  RPM Surface Min 
 RPMX.rpm           115.000008:  RPM Surface Max 
 RRUN.                       6:  Rig Run Number 
 RTIM.hr              0.000000:  Time Reaming 
 SAZI.deg           198.550003:  Azm, Start 
 SDEP.m            4283.000000:  Start Depth 
 SIDD.                      No:  Serv Intrp, DD 
 SINC.deg             2.000000:  Inc, Start 
 SPPA.kPag        21042.951172:  SPP Avg 
 SPPN.kPag        19677.779297:  SPP Min 
 SPPX.kPag        25117.783203:  SPP Max 
 STIM.      23.30.00 10-Jun-21:  Start Time 
 SVCS.                 DD, MWD:  Services 
 SVER.                9.200000:  Sperry Version 
 TDAT.m             732.000000:  Tot Depth Attmp 
 TDDF.                      No:  Trip for DD 
 TDLG.m             732.000000:  Tot Depth Loggd 
 TFF .                      No:  Trip for Fail 
 TQAA.kN-m            8.134908:  Torque Abs Avg 
 TQAN.kN-m            8.134908:  Torque Abs Min 
 TQAX.kN-m           14.507253:  Torque Abs Max 
 TRRT.°/30m           0.000000:  Turn Rotating 
 MRT .                    HCIM:  Maximum Recorded Temperature 
 TTMX.degC          127.000000:  Max Tool Temp 
 VS01.                90649920:  Virtual Str1 SN 
 VS02.                90649925:  Virtual Str2 SN 
 VS03.                90649923:  Virtual Str3 SN 
 WBMN.kdN            10.230908:  WOB Min 
 WITN.          Rick Dzivinski:  Customer Rep 2 
 WITN.           Mark Jachmann:  Customer Rep 
 WOBA.kdN            16.636347:  WOB Avg 
 WOBX.kdN            20.906639:  WOB Max 
 YP  .pa             15.321648:  Yield Point 
~Curve Information Block
#MNEM.UNIT                 API CODE     Curve Description
#---------               -----------    ---------------------------
 DEPT.M                 00 000 000 000:  Depth
 AFRSAC.ohmm            00 000 000 000:  AFR Shallow Avg Res BC
 AFRMAC.ohmm            00 000 000 000:  AFR Medium Avg Res BC
 AFRDAC.ohmm            00 000 000 000:  AFR Deep Avg Res BC
#Other Information
#
#WARRANTY: Halliburton will use its best efforts to furnish customers with 
#accurate information and interpretations that are part of, and incident to, the services 
#provided.  However, Halliburton cannot and does not warrant the accuracy 
#or correctness of such information and interpretations.  Under no circumstances should any 
#such information or interpretation be relied upon as the sole basis for any drilling, 
#completion, production, or financial decision or any procedure involving any risk to the 
#safety of any drilling venture, drilling rig or its crew or any other third party.  The 
#Customer has full responsibility for all drilling, completion and production operation.  
#Halliburton makes no representations or warranties, either expressed or 
#implied, including, but not limited to, the implied warranties of merchantability or fitness 
#for a particular purpose, with respect to the services rendered.  In no event will 
#Halliburton be liable for failure to obtain any particular results or for 
#any damages, including, but not limited to, indirect, special or consequential damages, 
#resulting from the use of any information or interpretation provided by Halliburton.
#
~A   DEPT      AFRSAC     AFRMAC     AFRDAC   
   3630.0000  -999.2500  -999.2500  -999.2500
   3630.1000     0.0089  -999.2500  -999.2500
   3630.2000     0.0112  -999.2500  -999.2500
   3630.3000     0.0193  -999.2500  -999.2500
   3630.4000     0.0506  -999.2500  -999.2500
   3630.5000     0.1377  -999.2500  -999.2500
   3630.6000     0.2439    79.3424  -999.2500
   3630.7000     0.4494    42.7719  -999.2500
   3630.8000     2.4970    30.3675  -999.2500
   3630.9000    11.4444    41.5076   171.2076
   3631.0000    19.3924    50.0506    92.1071
   3631.1000    21.0288    48.3848    73.8096
   3631.2000    20.9030    43.8853    66.7905
   3631.3000    19.8761    38.4729    56.8660
   3631.4000    18.3323    33.3795    45.8823
   3631.5000    17.3689    31.1585    38.5792
   3631.6000    16.0221    30.3563    32.5153
   3631.7000    13.0813    31.5146    28.7346
   3631.8000     7.6993    33.2436    25.9955
   3631.9000     3.7458    34.0917    23.3793
   3632.0000     2.1428    34.8339    22.0859
   3632.1000     1.5121    38.3461    23.8632
   3632.2000     1.2247    44.4445    28.1470
   3632.3000     1.0581    48.6322    31.6274
   3632.4000     0.9586    44.7493    29.0008
   3632.5000     0.9223    37.5003    24.1447
   3632.6000     0.9130    34.6597    22.2811
   3632.7000     0.9059    36.1373    23.2907
   3632.8000     0.9001    40.9098    26.4032
   3632.9000     0.8912    44.9683    28.8957
   3633.0000     0.8809    44.6054    28.6250
   3633.1000     0.8656    40.0847    25.6861
   3633.2000     0.8473    34.5402    21.9598
   3633.3000     0.8332    30.5847    19.3873
   3633.4000     0.8271    28.7184    18.2404
   3633.5000     0.8283    29.0570    18.5561
   3633.6000     0.8338    30.0850    19.2412
   3633.7000     0.8419    31.9981    20.3833
   3633.8000     0.8536    33.0325    20.9858
   3633.9000     0.8633    32.8945    20.8889
   3634.0000     0.8677    32.0677    20.3739
   3634.1000     0.8648    30.0190    19.0512
   3634.2000     0.8592    28.7398    18.2616
   3634.3000     0.8573    28.4386    18.1075
   3634.4000     0.8634    29.3075    18.7168
   3634.5000     0.8750    31.3178    20.0486
   3634.6000     0.8876    32.6231    20.8813
   3634.7000     0.8977    32.2189    20.5239
   3634.8000     0.8741    30.3201    19.0651
   3634.9000     0.7512    27.7095    16.8665
   3635.0000     0.7351    27.4460    16.5572
   3635.1000     0.7505    27.8530    16.8089
   3635.2000     0.7660    28.2660    17.0333
   3635.3000     0.7786    28.6981    17.4109
   3635.4000     0.7878    28.7135    17.6561
   3635.5000     0.7911    27.9686    17.3493
   3635.6000     0.7942    27.8382    17.3249
   3635.7000     0.7974    29.4679    18.3658
   3635.8000     0.8061    33.8067    21.4065
   3635.9000     0.8223    41.0458    26.5772
   3636.0000     0.8448    47.8915    31.1557
   3636.1000     0.8684    49.2979    31.5590
   3636.2000     0.8826    43.0530    26.7802
   3636.3000     0.8940    37.7035    23.1602
   3636.4000     0.9099    34.6688    21.0784
   3636.5000     0.9382    33.8749    20.3949
   3636.6000     0.9892    33.9189    20.0760
   3636.7000     1.0515    31.8961    18.4988
   3636.8000     1.1136    30.5639    17.5153
   3636.9000     1.1734    30.3412    17.2496
   3637.0000     1.2712    31.6133    18.1836
   3637.1000     1.4900    34.5016    20.1983
   3637.2000     1.8282    35.7947    21.6404
   3637.3000     2.3381    34.4873    20.4926
   3637.4000     3.3194    32.3365    19.5559
   3637.5000     5.4246    29.9254    19.0371
   3637.6000    11.5474    27.4601    19.5465
   3637.7000    20.6037    27.0896    20.8713
   3637.8000    22.6469    27.2140    21.3393
   3637.9000    23.4453    28.8094    22.0873
   3638.0000    23.4811    29.1101    22.2642
   3638.1000    23.9895    29.0738    23.0596
   3638.2000    24.5934    29.9727    23.8543
   3638.3000    25.4228    31.3816    24.6556
   3638.4000    24.6090    30.8807    23.4517
   3638.5000    21.7249    27.8223    20.1783
   3638.6000    19.8174    25.1519    18.0706
   3638.7000    18.8387    24.0704    17.0660
   3638.8000    19.8843    25.5437    18.1662
   3638.9000    21.1340    27.0565    19.5564
   3639.0000    21.9488    27.3517    20.4827
   3639.1000    21.4525    26.1239    19.9133
   3639.2000    20.3188    24.4384    18.5453
   3639.3000    19.3318    23.0845    17.3372
   3639.4000    18.6332    22.0376    16.4718
   3639.5000    19.3513    22.7367    17.0936
   3639.6000    21.0345    24.5332    18.7704
   3639.7000    21.6249    25.3851    19.4874
   3639.8000    21.3470    25.2753    19.3081
   3639.9000    20.1728    24.2049    18.1713
   3640.0000    19.6694    24.1571    17.8310
   3640.1000    19.9726    24.9910    18.3861
   3640.2000    19.9311    25.2871    18.4870
   3640.3000    19.5860    24.2471    18.1861
   3640.4000    19.4293    23.2332    18.0193
   3640.5000    20.3235    23.1774    18.9293
   3640.6000    21.6444    24.2431    20.2952
   3640.7000    21.8596    24.6636    20.4959
   3640.8000    21.2165    24.1936    19.7938
   3640.9000    20.1009    22.9121    18.6168
   3641.0000    20.0925    22.8426    18.5015
   3641.1000    20.3511    23.2653    18.6371
   3641.2000    20.9032    24.0926    19.1395
   3641.3000    21.4397    25.1573    19.7129
   3641.4000    23.2427    27.1604    21.5601
   3641.5000    23.2838    27.0178    21.6013
   3641.6000    23.1799    26.2083    21.4605
   3641.7000    21.7572    24.3918    20.0842
   3641.8000    21.9667    24.6898    20.4160
   3641.9000    23.0097    25.8872    21.6074
   3642.0000    22.1493    25.4199    20.7688
   3642.1000    20.5516    23.8056    19.0746
   3642.2000    19.2956    22.4579    17.7108
   3642.3000    19.6766    22.7424    18.0259
   3642.4000    21.3595    24.0596    19.7300
   3642.5000    22.3635    25.0259    20.8376
   3642.6000    22.5433    25.1253    21.1268
   3642.7000    22.3271    25.2460    20.9352
   3642.8000    22.1730    24.6062    20.7113
   3642.9000    21.9028    23.7091    20.3471
   3643.0000    21.2809    22.6650    19.6440
   3643.1000    21.3147    22.6352    19.6612
   3643.2000    21.8024    23.6462    20.1874
   3643.3000    22.0539    24.1197    20.5331
   3643.4000    22.0606    24.2819    20.6135
   3643.5000    22.1829    24.6312    20.6854
   3643.6000    21.9811    24.7288    20.3922
   3643.7000    20.8541    23.6928    19.1222
   3643.8000    19.8577    22.9116    18.0404
   3643.9000    19.6786    22.4258    17.8059
   3644.0000    20.7236    23.3141    18.8680
   3644.1000    21.8672    24.1525    20.2672
   3644.2000    24.0142    26.6894    22.7638
   3644.3000    25.6427    28.7433    24.6664
   3644.4000    25.4318    28.7129    24.3231
   3644.5000    23.4183    26.2218    21.9047
   3644.6000    20.7469    22.8542    18.9600
   3644.7000    20.3899    22.2874    18.4870
   3644.8000    21.8384    23.5230    19.9406
   3644.9000    23.6065    25.4985    21.8242
   3645.0000    23.6256    25.4094    21.8138
   3645.1000    22.5669    23.8792    20.4563
   3645.2000    21.8215    22.7671    19.4106
   3645.3000    21.5873    22.0600    18.9457
   3645.4000    23.9795    23.9309    21.1130
   3645.5000    24.7244    24.8581    22.0319
   3645.6000    26.6471    26.8185    24.1344
   3645.7000    26.6598    27.6617    24.4470
   3645.8000    24.7008    27.2241    22.8633
   3645.9000    24.2631    27.3900    22.7199
   3646.0000    22.3236    25.8465    21.0213
   3646.1000    21.1704    24.6213    20.0079
   3646.2000    19.7729    23.3940    18.6419
   3646.3000    19.7275    23.6830    18.6231
   3646.4000    19.7618    23.9635    18.7403
   3646.5000    20.6312    24.8197    19.7034
   3646.6000    21.0032    24.9161    20.0234
   3646.7000    20.6516    23.2714    19.4480
   3646.8000    20.1859    21.7223    18.6329
   3646.9000    19.8240    20.5585    17.9031
   3647.0000    20.2523    20.9247    18.0728
   3647.1000    21.4307    21.9515    19.1481
   3647.2000    25.3970    25.8954    23.0993
   3647.3000    31.0029    32.1862    29.1495
