~Version Information
 VERS.                  2.0:   CWLS log ASCII Standard -VERSION 2.0
 WRAP.                   NO:   One line per depth step
~Well Information Block
#MNEM.UNIT     VALUE/NAME     DESCRIPTION
#---------     -----------    ---------------------------
 STRT.M              3630.0000: START DEPTH
 STOP.M              5008.7000: STOP DEPTH
 STEP.M                 0.1000: STEP DEPTH
 NULL.               -999.2500: NULL VALUE
 DFWT.                        :  DIST FWL TEXT
 DFST.                        :  DIST FSL TEXT
 DMF .             Drill Floor:  DRILL MEAS FROM
 STIM.      10.30.00 08-May-21:  START TIME
 DATE.      11.38.00 18-Jun-21:  END TIME
 SPUD.               08-May-21:  SPUD DATE
 NREF.                    Grid:  NORTH REFERENCE
 HPTY.       Minimum Curvature:  HOLE POS TYPE
 DMOD.             Drill Model:  DRILL MOD DESC
 SVYD.                  Survey:  SURVEY DESC
 ILTD.               Lithology:  INTERP LTH DESC
 FTOP.          Formation Tops:  FORM TOPS DESC
 SON .        PA-XX-0907037989:  JOB NUMBER
 WTYP.                Deviated:  WELL TYPE
 COMP.     Strike West Pty Ltd:  COMPANY
 BASE.                   Perth:  LOGGING EQUIPMENT BASE LOCATION
 REGN.                      AP:  REGION
 CTRY.               Australia:  COUNTRY NAME
 FLD .          West Erregulla:  FIELD NAME
 SRVC.                  Ensign:  CONTRACTOR
 MWDS.                Jandakot:  MWD SHOP
 WELL.        West Erregulla 5:  WELL NAME
 JOBN.        PA-XX-0907037989:  JOB TICKET NUMB
 RIG .              Ensign 970:  RIG NAME
 DCON.     Sperry Drilling Services:  DIRECTNL CONTR
 UNIT.                11741669:  LOGGING EQUIPMENT ID
 PROV.       Western Australia:  PROVINCE
 STAT.       Western Australia:  STATE NAME
 PDAT.          Mean Sea Level:  PERMANENT DATUM
 MMDL.            bggm2021.dat:  MAGNETIC MODEL
 MMDD.            06 May, 2021:  MAG DATA DATE
 MDS .              Win MagUTM:  MAG DATA SOURCE
 GCDE.     Generic Lat/Long's, Degrees, -180 ==> +180:  GEO COORD DESC
 CCDE.     UTM Zone 50S on Geocentric Datum of Australia 1994, Meters:  CART COORD DESC
 GGSY.                      LL:  GEO GRID SYS
 CGSY.             SS GDA94-50:  CART GRID SYS
 GREF.     Ellipsoid World Geodetic System :  GEO REFERENCE
 CREF.     Datum Geocentric Datum of Austra:  CART REFERENCE
 LLGR.      Latitude/Longitude:  LLGROUP
 XYGR.     Australia/New Zealand Coordinate Systems:  XYGROUP
 API .                        :  API NUMBER
 CNTY.                        :  COUNTY
 UWI .                        :  UNIQUE WELL IDENTIFIER
 LOC .                        :  LOCATION
 LMF .             Drill Floor:  LOG MEASURED FROM
 TVDS.m             224.839988:  TVDSS CORRECTN
 LATI.deg           -29.398151:  LATITUDE
 LONG.deg           115.307694:  LONGITUDE
 WHNS.m               0.000000:  WELL HEAD N/S
 WHEW.m               0.000000:  WELL HEAD E/W
 UTMX.m          335792.640000:  UTM X
 UTMY.m         6746710.760000:  UTM Y
 DFWL.m               0.000000:  DISTANCE FWL
 DFSL.m               0.000000:  DISTANCE FSL
 SDEP.m              61.000002:  START DEPTH
 TDD .m            5015.000011:  TOTAL DEPTH (DRILLER)
 VSDR.deg             0.000000:  VERT SEC DIRECT
 GVFD.g               1.000000:  GRAVITY FIELD
 MFLD.nT          56933.789063:  MAGNETIC FIELD
 MDIP.deg           -63.343086:  MAGNETIC DIP
 MDEC.deg            -1.413625:  MAGNETIC DECL
 GRDC.deg             0.830898:  GRID CORRECTION
 AZTC.deg            -2.244523:  AZM TOTAL CORR
 EPD .m               0.000000:  ELEVATION
 EGL .m             217.679997:  GROUND ELEVATION
 WDMS.m               0.000000:  WD ELEV
 APD .m             224.839988:  DEPTH ABOVE PD
 AGAP.m               7.160000:  AIR GAP
 MMDE.m             -68.531232:  MAGUTM CALC DEP
 DEP .m               0.000000:  DEPTH
 CMER.deg           117.000000:  CENTRL MERIDIAN
 EKB .m               0.000000:  KB ELEVATION
 EDF .m             224.839988:  DF ELEVATION
 VSC .                       1:  VS TO CLOSURE
 MAGU.                 1375590:  MAGUTM CHECKSUM
~Parameter Information Block
#MNEM.UNIT       Value        Description
#---------     -----------    ---------------------------
 AV  .mps             2.583333:  Ann Velocity 
 AVMX.mps             2.933333:  Max Ann Veloc 
 AZIF.deg           193.410004:  Azm, Final 
 BHAT.                  Rotary:  BHA Type 
 BREV.krev          608.299988:  Rev Bit Total 
 BROT.°/30m           0.100000:  Build Rotating 
 BS  .mm            215.899994:  Bit Size 
 BTPL.kPag         3385.350342:  Bit Press Loss 
 CGEO.               Joe Emery:  Customer Geo 
 COMM.                     de~:  Run Comments 1 
 TCS .hr            130.012054:  Time Ciculation Ended 
 CV  .mps             4.100000:  Crit Velocity 
 CVMX.mps             4.100000:  Max Crit Veloc 
 DD1 .           Wayne Parsons:  Direct Drillr 1 
 DDSV.                   Other:  DD Service 
 DEFF.%              98.000000:  % Det Eff 
 DLRX.°/30m           0.680000:  Dogleg Rot Max 
 DLSO.°/30m           0.000000:  Dogleg Oriented 
 DLSX.°/30m           0.000000:  Dogleg Str Max 
 DRET.      22.50.00 17-Jun-21:  Drill End Time 
 DRST.      14.00.00 11-Jun-21:  Drill Start Tim 
 DTIM.hr            107.500000:  Time Drilling 
 EDEP.m            5015.000000:  End Depth 
 ENG1.           Liam ODonnell:  Engineer 1 
 ENG2.               Alan Rule:  Engineer 2 
 ENG3.        Vitaly Vasilenko:  Engineer 3 
 ETIM.      11.38.00 18-Jun-21:  End Time 
 FLOI.m3pm            2.100841:  Flow In 
 FLON.m3pm            2.044061:  Flow In Min 
 FLOS.mptm            3.000000:  Fluid Loss 
 FLOX.m3pm            2.380953:  Flow In Max 
 DFT .                 Polymer:  Mud Type 
 HFLO.                      No:  High Flow 
 HPRE.                      No:  High Pressure 
 HTEM.                      No:  High Temp 
 HYDO.m               2.500000:  Hydro Offset 
 IFIN.deg             5.220000:  Inc, Final 
 IMAX.deg             6.775680:  Inc Max 
 IMIN.deg             1.611614:  Inc Min 
 IMND.m            4310.580078:  Inc Min Depth 
 IMXD.m            4827.209961:  Inc Max Depth 
 JARR.                      No:  Jarring 
 LETM.      22.50.00 17-Jun-21:  Log End Time 
 LOST.hr                     0:  Lost Rig Time 
 LSTM.      14.00.00 11-Jun-21:  Log Start Time 
 MDCL.ppm         97000.000000:  Mud Chlorides 
 MDES.             Fresh Water:  Mud Desc 
 DFD .kg/m3        1222.229614:  Mud Density 
 MDMN.kg/m3        1210.247070:  Dens Mud Min 
 MDMX.kg/m3        1234.212280:  Dens Mud Max 
 PH  .pH              9.500000:  Mud pH 
 MOIL.                       0:  Run Mud Oil % 
 MOWR.                   0 100:  Run Mud OWR 
 MSND.                    0.10:  Run Mud Sand % 
 MSOL.                   12.40:  Run Mud Solids% 
 DFV .spl            62.362999:  Mud Viscosity 
 MWOD.mm            171.449997:  MWD Tool OD 
 MWSI.                      No:  Serv Intrp, MWD 
 OTIM.hr            176.676529:  Time Operating 
 PMAX.kPag        65859.195313:  Press Op, Max 
 PV  .mPsec          35.000000:  Mud PV 
 RMS .ohmm            0.080000:  Mud Resistivity 
 RMCS.ohmm            0.120000:  Mud Cake Resistivity 
 MCST.degC           21.999998:  Mud Cake Sample Temperature 
 RMFS.ohmm            0.060000:  Mud Filtrate Resistivity 
 RMFT.degC           21.999998:  Mud Filtrate Sample Temperature 
 RMMT.ohmm            0.023400:  Rm @ Max Temp 
 MST .degC           21.999998:  Mud Sample Temperature 
 RUN .                     500:  Run Number 
 ROPA.m/hr            6.800000:  ROP Avg 
 ROPN.m/hr            0.100000:  ROP Min 
 ROPX.m/hr           31.799999:  ROP Max 
 RPMA.rpm            98.000000:  RPM Surface Avg 
 RPMN.rpm            65.000000:  RPM Surface Min 
 RPMX.rpm           115.000008:  RPM Surface Max 
 RRUN.                       6:  Rig Run Number 
 RTIM.hr              0.000000:  Time Reaming 
 SAZI.deg           198.550003:  Azm, Start 
 SDEP.m            4283.000000:  Start Depth 
 SIDD.                      No:  Serv Intrp, DD 
 SINC.deg             2.000000:  Inc, Start 
 SPPA.kPag        21042.951172:  SPP Avg 
 SPPN.kPag        19677.779297:  SPP Min 
 SPPX.kPag        25117.783203:  SPP Max 
 STIM.      23.30.00 10-Jun-21:  Start Time 
 SVCS.                 DD, MWD:  Services 
 SVER.                9.200000:  Sperry Version 
 TDAT.m             732.000000:  Tot Depth Attmp 
 TDDF.                      No:  Trip for DD 
 TDLG.m             732.000000:  Tot Depth Loggd 
 TFF .                      No:  Trip for Fail 
 TQAA.kN-m            8.134908:  Torque Abs Avg 
 TQAN.kN-m            8.134908:  Torque Abs Min 
 TQAX.kN-m           14.507253:  Torque Abs Max 
 TRRT.°/30m           0.000000:  Turn Rotating 
 MRT .                    HCIM:  Maximum Recorded Temperature 
 TTMX.degC          127.000000:  Max Tool Temp 
 VS01.                90649920:  Virtual Str1 SN 
 VS02.                90649925:  Virtual Str2 SN 
 VS03.                90649923:  Virtual Str3 SN 
 WBMN.kdN            10.230908:  WOB Min 
 WITN.          Rick Dzivinski:  Customer Rep 2 
 WITN.           Mark Jachmann:  Customer Rep 
 WOBA.kdN            16.636347:  WOB Avg 
 WOBX.kdN            20.906639:  WOB Max 
 YP  .pa             15.321648:  Yield Point 
~Curve Information Block
#MNEM.UNIT                 API CODE     Curve Description
#---------               -----------    ---------------------------
 DEPT.M                 00 000 000 000:  Depth
 AFRSAC.ohmm            00 000 000 000:  AFR Shallow Avg Res BC
 AFRMAC.ohmm            00 000 000 000:  AFR Medium Avg Res BC
 AFRDAC.ohmm            00 000 000 000:  AFR Deep Avg Res BC
#Other Information
#
#WARRANTY: Halliburton will use its best efforts to furnish customers with 
#accurate information and interpretations that are part of, and incident to, the services 
#provided.  However, Halliburton cannot and does not warrant the accuracy 
#or correctness of such information and interpretations.  Under no circumstances should any 
#such information or interpretation be relied upon as the sole basis for any drilling, 
#completion, production, or financial decision or any procedure involving any risk to the 
#safety of any drilling venture, drilling rig or its crew or any other third party.  The 
#Customer has full responsibility for all drilling, completion and production operation.  
#Halliburton makes no representations or warranties, either expressed or 
#implied, including, but not limited to, the implied warranties of merchantability or fitness 
#for a particular purpose, with respect to the services rendered.  In no event will 
#Halliburton be liable for failure to obtain any particular results or for 
#any damages, including, but not limited to, indirect, special or consequential damages, 
#resulting from the use of any information or interpretation provided by Halliburton.
#
~A   DEPT      AFRSAC     AFRMAC     AFRDAC   
# ...
   4813.2000    64.5176    81.0283    77.3480
   4813.3000   664.6299   101.4225   113.9953
   4813.4000  8980.1875   126.4530   151.9954
   4813.5000 18455.0254   160.8775   180.2168
   4813.6000 13657.4902   138.3965   130.7502
   4813.7000  1480.4885    81.9129    79.5880
   4813.8000    31.2730    50.7220    50.2180
   4813.9000    22.2925    35.3113    36.3644
   4814.0000    19.8503    29.2139    29.4731
   4814.1000    21.3019    29.1423    28.3342
   4814.2000    28.2679    31.4860    30.4514
   4814.3000    30.6221    33.2620    32.0053
   4814.4000    30.2066    32.7742    32.5980
   4814.5000    29.6144    32.2833    32.6349
   4814.6000    31.5897    34.7996    35.7599
   4814.7000    34.1860    38.0553    40.3865
   4814.8000    35.0093    39.4823    43.0352
   4814.9000    36.2840    41.2136    45.3627
   4815.0000    38.9217    45.0721    49.4268
   4815.1000    39.5682    46.1700    50.3335
   4815.2000    37.3526    43.1259    46.0902
   4815.3000    34.2175    38.6714    40.5622
   4815.4000    33.9168    37.2295    38.4556
   4815.5000    36.4284    40.0788    41.0122
   4815.6000    39.8521    44.7840    46.1956
   4815.7000    44.3244    49.5480    53.2847
   4815.8000    46.8741    51.3249    57.6758
   4815.9000    49.6030    52.4323    60.0160
   4816.0000    50.4545    53.2083    59.7593
   4816.1000    54.2728    57.3684    62.6101
   4816.2000    63.7124    67.5527    73.9454
   4816.3000    73.2714    77.2426    87.4405
   4816.4000    85.1067    91.4965   105.2945
   4816.5000    80.4973    87.1981   100.7463
   4816.6000    65.0305    70.5911    80.1735
   4816.7000    52.7243    57.3781    64.4201
   4816.8000    45.5372    50.3348    55.1006
   4816.9000    44.1202    50.5904    53.2836
   4817.0000    40.7538    47.7866    49.8238
   4817.1000    40.0723    48.1990    50.6914
   4817.2000    41.4352    50.5518    54.3926
   4817.3000    45.7851    57.7834    62.5477
   4817.4000    51.3419    67.4990    72.5685
   4817.5000    53.7726    71.1658    77.6697
   4817.6000    56.0722    73.7906    82.1862
   4817.7000    57.5201    74.0041    83.6960
   4817.8000    56.8456    70.4660    81.0314
   4817.9000    54.4261    64.4433    74.4722
   4818.0000    54.9207    63.0779    73.0781
   4818.1000    56.0000    63.7767    73.7627
   4818.2000    57.6595    66.2104    76.5859
   4818.3000    58.9807    68.6861    79.9940
   4818.4000    59.1612    69.8593    81.8200
   4818.5000    59.1325    69.8031    80.4145
   4818.6000    58.3742    69.8398    78.5982
   4818.7000    56.5309    68.0163    74.4420
   4818.8000    58.7568    71.8512    77.5773
   4818.9000    61.5192    76.4908    82.6127
   4819.0000    64.2533    80.4337    87.2662
   4819.1000    65.2386    82.2641    89.8157
   4819.2000    66.5548    83.4327    91.8793
   4819.3000    68.2538    83.4487    92.3359
   4819.4000    71.2084    83.5295    92.7168
   4819.5000    69.8321    79.6319    86.9652
   4819.6000    68.6800    75.6359    83.0643
   4819.7000    68.6525    75.7623    83.3769
   4819.8000    69.1438    75.0128    85.4890
   4819.9000    77.7808    85.4974    98.7948
   4820.0000    87.9991   101.8485   116.9849
   4820.1000    99.2016   127.0703   141.4832
   4820.2000    98.2043   140.1173   152.5170
   4820.3000    81.6865   122.6533   130.6950
   4820.4000    71.1330   105.3468   112.1119
   4820.5000    66.4115    96.1099   101.9772
   4820.6000    64.7212    88.9298    96.6408
   4820.7000    64.4851    83.6485    91.8147
   4820.8000    63.7070    79.1470    85.6754
   4820.9000    66.8958    81.3994    84.9324
   4821.0000    76.2652    96.2720    96.5732
   4821.1000    97.2947   130.8182   132.9606
   4821.2000   133.2125   201.7627   221.2019
   4821.3000   179.1875   299.7878   376.8454
   4821.4000   218.1416   376.3696   515.5160
   4821.5000   221.4314   363.8531   486.3096
   4821.6000   191.0853   284.7080   367.1686
   4821.7000   152.8150   220.6095   258.6190
   4821.8000   123.6581   181.0895   198.4685
   4821.9000   104.2411   154.0811   161.6600
   4822.0000    92.1486   136.3871   139.6590
   4822.1000    79.3710   114.7701   116.0906
   4822.2000    72.4928   101.0675   102.5507
   4822.3000    68.5775    90.3327    93.4782
   4822.4000    65.8136    81.5742    87.4557
   4822.5000    61.1399    72.7796    80.1550
   4822.6000    57.7163    69.8285    77.0022
   4822.7000    57.4011    76.2987    82.8740
   4822.8000    59.0569    92.4198    96.6279
   4822.9000    62.2211   112.9166   116.5536
   4823.0000    61.3975   109.1495   119.9872
   4823.1000    59.8140    97.6055   113.6776
   4823.2000    57.3543    83.3209   101.0261
   4823.3000    55.2294    76.0367    91.7772
   4823.4000    54.5303    72.4671    86.3629
   4823.5000    53.3152    69.5063    82.5562
   4823.6000    51.5519    66.2328    79.6847
   4823.7000    49.4058    64.1017    79.2358
   4823.8000    49.6204    63.1469    82.7871
   4823.9000    52.1363    68.4224    91.5471
   4824.0000    56.0840    78.2405   102.7673
   4824.1000    59.1807    93.8978   115.4127
   4824.2000    59.1018   105.8462   126.0824
   4824.3000    57.8000   113.5171   133.0729
   4824.4000    57.5495   116.4193   139.5537
   4824.5000    56.9793   116.6511   142.2038
   4824.6000    56.5733   117.9100   147.0789
   4824.7000    55.1845   117.7767   148.0092
   4824.8000    54.9707   123.1053   149.0410
   4824.9000    54.7529   126.7566   144.7337
   4825.0000    54.1851   123.1367   133.7362
   4825.1000    53.8932   113.9266   120.7249
   4825.2000    54.8298   105.1893   110.9623
   4825.3000    58.5553   101.9113   106.0785
   4825.4000    64.5905   100.5311   104.2598
   4825.5000    74.8908   104.3353   107.3837
   4825.6000    80.2811   101.5861   101.8469
   4825.7000    79.0424    88.7360    90.8724
   4825.8000    76.0973    81.9293    83.9667
   4825.9000    79.4649    84.4286    87.8374
   4826.0000    97.0718   109.8236   112.1338
   4826.1000   124.1352   151.4635   154.6503
   4826.2000   151.0017   197.5649   201.3154
   4826.3000   165.5056   215.0589   227.5042
   4826.4000   165.8921   208.5074   220.5157
   4826.5000   158.0676   190.6001   199.3900
   4826.6000   150.6868   169.2550   184.1121
   4826.7000   145.6046   156.2015   175.3100
   4826.8000   146.5248   151.6446   176.4231
   4826.9000   147.1529   157.6762   181.7508
   4827.0000   143.7050   165.4968   184.6640
   4827.1000   136.8067   172.6031   185.5028
   4827.2000   130.4752   183.0776   184.8264
   4827.3000   123.7044   191.0941   182.7603
   4827.4000   116.7328   187.8017   176.0219
   4827.5000   111.6726   170.1191   164.0543
   4827.6000   115.7458   148.5432   153.3777
   4827.7000   134.3712   145.1308   156.2829
   4827.8000   168.2888   170.9318   189.8698
   4827.9000   206.3768   225.1862   247.2002
   4828.0000   232.4014   318.4922   335.0562
   4828.1000   242.6855   399.4848   403.7894
   4828.2000   238.3048   469.3253   471.1396
   4828.3000   229.8300   549.2136   542.6905
   4828.4000   219.3977   583.4246   586.8271
   4828.5000   210.6876   594.5085   550.4554
   4828.6000   190.4587   504.1563   351.3802
   4828.7000   151.6520   254.2999   227.8053
   4828.8000   124.7548   170.7175   169.3426
   4828.9000   115.1459   152.8273   158.9598
   4829.0000   111.8339   168.6801   166.2076
   4829.1000   109.0218   177.7748   170.9363
   4829.2000    99.2355   152.1337   157.7252
   4829.3000    91.2055   131.2942   143.4115
   4829.4000    89.4414   127.9445   146.4298
   4829.5000    90.4248   139.9499   166.1229
   4829.6000    96.9276   168.3819   204.3302
   4829.7000   107.0191   208.9271   240.9766
   4829.8000   119.8884   240.0046   253.2038
   4829.9000   126.0958   235.2997   239.9098
   4830.0000   127.5643   213.6846   217.7944
   4830.1000   124.7914   185.7220   192.5620
   4830.2000   119.6812   161.0275   169.2422
   4830.3000   111.9860   142.1239   150.5914
   4830.4000   105.1952   130.4871   139.0441
   4830.5000   102.6697   132.9873   140.1547
