~Version Information
 VERS.                  2.0:   CWLS log ASCII Standard -VERSION 2.0
 WRAP.                   NO:   One line per depth step
~Well Information Block
#MNEM.UNIT     VALUE/NAME     DESCRIPTION
#---------     -----------    ---------------------------
 STRT.M              3630.0000: START DEPTH
 STOP.M              5008.7000: STOP DEPTH
 STEP.M                 0.1000: STEP DEPTH
 NULL.               -999.2500: NULL VALUE
 DFWT.                        :  DIST FWL TEXT
 DFST.                        :  DIST FSL TEXT
 DMF .             Drill Floor:  DRILL MEAS FROM
 STIM.      10.30.00 08-May-21:  START TIME
 DATE.      11.38.00 18-Jun-21:  END TIME
 SPUD.               08-May-21:  SPUD DATE
 NREF.                    Grid:  NORTH REFERENCE
 HPTY.       Minimum Curvature:  HOLE POS TYPE
 DMOD.             Drill Model:  DRILL MOD DESC
 SVYD.                  Survey:  SURVEY DESC
 ILTD.               Lithology:  INTERP LTH DESC
 FTOP.          Formation Tops:  FORM TOPS DESC
 SON .        PA-XX-0907037989:  JOB NUMBER
 WTYP.                Deviated:  WELL TYPE
 COMP.     Strike West Pty Ltd:  COMPANY
 BASE.                   Perth:  LOGGING EQUIPMENT BASE LOCATION
 REGN.                      AP:  REGION
 CTRY.               Australia:  COUNTRY NAME
 FLD .          West Erregulla:  FIELD NAME
 SRVC.                  Ensign:  CONTRACTOR
 MWDS.                Jandakot:  MWD SHOP
 WELL.        West Erregulla 5:  WELL NAME
 JOBN.        PA-XX-0907037989:  JOB TICKET NUMB
 RIG .              Ensign 970:  RIG NAME
 DCON.     Sperry Drilling Services:  DIRECTNL CONTR
 UNIT.                11741669:  LOGGING EQUIPMENT ID
 PROV.       Western Australia:  PROVINCE
 STAT.       Western Australia:  STATE NAME
 PDAT.          Mean Sea Level:  PERMANENT DATUM
 MMDL.            bggm2021.dat:  MAGNETIC MODEL
 MMDD.            06 May, 2021:  MAG DATA DATE
 MDS .              Win MagUTM:  MAG DATA SOURCE
 GCDE.     Generic Lat/Long's, Degrees, -180 ==> +180:  GEO COORD DESC
 CCDE.     UTM Zone 50S on Geocentric Datum of Australia 1994, Meters:  CART COORD DESC
 GGSY.                      LL:  GEO GRID SYS
 CGSY.             SS GDA94-50:  CART GRID SYS
 GREF.     Ellipsoid World Geodetic System :  GEO REFERENCE
 CREF.     Datum Geocentric Datum of Austra:  CART REFERENCE
 LLGR.      Latitude/Longitude:  LLGROUP
 XYGR.     Australia/New Zealand Coordinate Systems:  XYGROUP
 API .                        :  API NUMBER
 CNTY.                        :  COUNTY
 UWI .                        :  UNIQUE WELL IDENTIFIER
 LOC .                        :  LOCATION
 LMF .             Drill Floor:  LOG MEASURED FROM
 TVDS.m             224.839988:  TVDSS CORRECTN
 LATI.deg           -29.398151:  LATITUDE
 LONG.deg           115.307694:  LONGITUDE
 WHNS.m               0.000000:  WELL HEAD N/S
 WHEW.m               0.000000:  WELL HEAD E/W
 UTMX.m          335792.640000:  UTM X
 UTMY.m         6746710.760000:  UTM Y
 DFWL.m               0.000000:  DISTANCE FWL
 DFSL.m               0.000000:  DISTANCE FSL
 SDEP.m              61.000002:  START DEPTH
 TDD .m            5015.000011:  TOTAL DEPTH (DRILLER)
 VSDR.deg             0.000000:  VERT SEC DIRECT
 GVFD.g               1.000000:  GRAVITY FIELD
 MFLD.nT          56933.789063:  MAGNETIC FIELD
 MDIP.deg           -63.343086:  MAGNETIC DIP
 MDEC.deg            -1.413625:  MAGNETIC DECL
 GRDC.deg             0.830898:  GRID CORRECTION
 AZTC.deg            -2.244523:  AZM TOTAL CORR
 EPD .m               0.000000:  ELEVATION
 EGL .m             217.679997:  GROUND ELEVATION
 WDMS.m               0.000000:  WD ELEV
 APD .m             224.839988:  DEPTH ABOVE PD
 AGAP.m               7.160000:  AIR GAP
 MMDE.m             -68.531232:  MAGUTM CALC DEP
 DEP .m               0.000000:  DEPTH
 CMER.deg           117.000000:  CENTRL MERIDIAN
 EKB .m               0.000000:  KB ELEVATION
 EDF .m             224.839988:  DF ELEVATION
 VSC .                       1:  VS TO CLOSURE
 MAGU.                 1375590:  MAGUTM CHECKSUM
~Parameter Information Block
#MNEM.UNIT       Value        Description
#---------     -----------    ---------------------------
 AV  .mps             2.583333:  Ann Velocity 
 AVMX.mps             2.933333:  Max Ann Veloc 
 AZIF.deg           193.410004:  Azm, Final 
 BHAT.                  Rotary:  BHA Type 
 BREV.krev          608.299988:  Rev Bit Total 
 BROT.°/30m           0.100000:  Build Rotating 
 BS  .mm            215.899994:  Bit Size 
 BTPL.kPag         3385.350342:  Bit Press Loss 
 CGEO.               Joe Emery:  Customer Geo 
 COMM.                     de~:  Run Comments 1 
 TCS .hr            130.012054:  Time Ciculation Ended 
 CV  .mps             4.100000:  Crit Velocity 
 CVMX.mps             4.100000:  Max Crit Veloc 
 DD1 .           Wayne Parsons:  Direct Drillr 1 
 DDSV.                   Other:  DD Service 
 DEFF.%              98.000000:  % Det Eff 
 DLRX.°/30m           0.680000:  Dogleg Rot Max 
 DLSO.°/30m           0.000000:  Dogleg Oriented 
 DLSX.°/30m           0.000000:  Dogleg Str Max 
 DRET.      22.50.00 17-Jun-21:  Drill End Time 
 DRST.      14.00.00 11-Jun-21:  Drill Start Tim 
 DTIM.hr            107.500000:  Time Drilling 
 EDEP.m            5015.000000:  End Depth 
 ENG1.           Liam ODonnell:  Engineer 1 
 ENG2.               Alan Rule:  Engineer 2 
 ENG3.        Vitaly Vasilenko:  Engineer 3 
 ETIM.      11.38.00 18-Jun-21:  End Time 
 FLOI.m3pm            2.100841:  Flow In 
 FLON.m3pm            2.044061:  Flow In Min 
 FLOS.mptm            3.000000:  Fluid Loss 
 FLOX.m3pm            2.380953:  Flow In Max 
 DFT .                 Polymer:  Mud Type 
 HFLO.                      No:  High Flow 
 HPRE.                      No:  High Pressure 
 HTEM.                      No:  High Temp 
 HYDO.m               2.500000:  Hydro Offset 
 IFIN.deg             5.220000:  Inc, Final 
 IMAX.deg             6.775680:  Inc Max 
 IMIN.deg             1.611614:  Inc Min 
 IMND.m            4310.580078:  Inc Min Depth 
 IMXD.m            4827.209961:  Inc Max Depth 
 JARR.                      No:  Jarring 
 LETM.      22.50.00 17-Jun-21:  Log End Time 
 LOST.hr                     0:  Lost Rig Time 
 LSTM.      14.00.00 11-Jun-21:  Log Start Time 
 MDCL.ppm         97000.000000:  Mud Chlorides 
 MDES.             Fresh Water:  Mud Desc 
 DFD .kg/m3        1222.229614:  Mud Density 
 MDMN.kg/m3        1210.247070:  Dens Mud Min 
 MDMX.kg/m3        1234.212280:  Dens Mud Max 
 PH  .pH              9.500000:  Mud pH 
 MOIL.                       0:  Run Mud Oil % 
 MOWR.                   0 100:  Run Mud OWR 
 MSND.                    0.10:  Run Mud Sand % 
 MSOL.                   12.40:  Run Mud Solids% 
 DFV .spl            62.362999:  Mud Viscosity 
 MWOD.mm            171.449997:  MWD Tool OD 
 MWSI.                      No:  Serv Intrp, MWD 
 OTIM.hr            176.676529:  Time Operating 
 PMAX.kPag        65859.195313:  Press Op, Max 
 PV  .mPsec          35.000000:  Mud PV 
 RMS .ohmm            0.080000:  Mud Resistivity 
 RMCS.ohmm            0.120000:  Mud Cake Resistivity 
 MCST.degC           21.999998:  Mud Cake Sample Temperature 
 RMFS.ohmm            0.060000:  Mud Filtrate Resistivity 
 RMFT.degC           21.999998:  Mud Filtrate Sample Temperature 
 RMMT.ohmm            0.023400:  Rm @ Max Temp 
 MST .degC           21.999998:  Mud Sample Temperature 
 RUN .                     500:  Run Number 
 ROPA.m/hr            6.800000:  ROP Avg 
 ROPN.m/hr            0.100000:  ROP Min 
 ROPX.m/hr           31.799999:  ROP Max 
 RPMA.rpm            98.000000:  RPM Surface Avg 
 RPMN.rpm            65.000000:  RPM Surface Min 
 RPMX.rpm           115.000008:  RPM Surface Max 
 RRUN.                       6:  Rig Run Number 
 RTIM.hr              0.000000:  Time Reaming 
 SAZI.deg           198.550003:  Azm, Start 
 SDEP.m            4283.000000:  Start Depth 
 SIDD.                      No:  Serv Intrp, DD 
 SINC.deg             2.000000:  Inc, Start 
 SPPA.kPag        21042.951172:  SPP Avg 
 SPPN.kPag        19677.779297:  SPP Min 
 SPPX.kPag        25117.783203:  SPP Max 
 STIM.      23.30.00 10-Jun-21:  Start Time 
 SVCS.                 DD, MWD:  Services 
 SVER.                9.200000:  Sperry Version 
 TDAT.m             732.000000:  Tot Depth Attmp 
 TDDF.                      No:  Trip for DD 
 TDLG.m             732.000000:  Tot Depth Loggd 
 TFF .                      No:  Trip for Fail 
 TQAA.kN-m            8.134908:  Torque Abs Avg 
 TQAN.kN-m            8.134908:  Torque Abs Min 
 TQAX.kN-m           14.507253:  Torque Abs Max 
 TRRT.°/30m           0.000000:  Turn Rotating 
 MRT .                    HCIM:  Maximum Recorded Temperature 
 TTMX.degC          127.000000:  Max Tool Temp 
 VS01.                90649920:  Virtual Str1 SN 
 VS02.                90649925:  Virtual Str2 SN 
 VS03.                90649923:  Virtual Str3 SN 
 WBMN.kdN            10.230908:  WOB Min 
 WITN.          Rick Dzivinski:  Customer Rep 2 
 WITN.           Mark Jachmann:  Customer Rep 
 WOBA.kdN            16.636347:  WOB Avg 
 WOBX.kdN            20.906639:  WOB Max 
 YP  .pa             15.321648:  Yield Point 
~Curve Information Block
#MNEM.UNIT                 API CODE     Curve Description
#---------               -----------    ---------------------------
 DEPT.M                 00 000 000 000:  Depth
 AFRSAC.ohmm            00 000 000 000:  AFR Shallow Avg Res BC
 AFRMAC.ohmm            00 000 000 000:  AFR Medium Avg Res BC
 AFRDAC.ohmm            00 000 000 000:  AFR Deep Avg Res BC
#Other Information
#
#WARRANTY: Halliburton will use its best efforts to furnish customers with 
#accurate information and interpretations that are part of, and incident to, the services 
#provided.  However, Halliburton cannot and does not warrant the accuracy 
#or correctness of such information and interpretations.  Under no circumstances should any 
#such information or interpretation be relied upon as the sole basis for any drilling, 
#completion, production, or financial decision or any procedure involving any risk to the 
#safety of any drilling venture, drilling rig or its crew or any other third party.  The 
#Customer has full responsibility for all drilling, completion and production operation.  
#Halliburton makes no representations or warranties, either expressed or 
#implied, including, but not limited to, the implied warranties of merchantability or fitness 
#for a particular purpose, with respect to the services rendered.  In no event will 
#Halliburton be liable for failure to obtain any particular results or for 
#any damages, including, but not limited to, indirect, special or consequential damages, 
#resulting from the use of any information or interpretation provided by Halliburton.
#
~A   DEPT      AFRSAC     AFRMAC     AFRDAC   
# ...
   4987.2000    29.5861    30.0334    29.3064
   4987.3000    29.2745    29.7215    28.9514
   4987.4000    29.1768    29.4798    28.9251
   4987.5000    29.8436    29.9220    29.6866
   4987.6000    30.4354    30.3337    30.4241
   4987.7000    30.6140    30.3551    30.6742
   4987.8000    30.9133    30.3730    31.0233
   4987.9000    30.7643    30.1130    30.7413
   4988.0000    30.7885    29.9729    30.6239
   4988.1000    30.8020    29.9134    30.5609
   4988.2000    30.8165    30.1049    30.5625
   4988.3000    30.8008    30.2693    30.5570
   4988.4000    30.9739    30.6299    30.7619
   4988.5000    31.4352    31.0892    31.3777
   4988.6000    32.0591    31.6288    32.0401
   4988.7000    32.3311    31.7765    32.2617
   4988.8000    31.9568    31.2959    31.6182
   4988.9000    31.6221    30.9247    31.0701
   4989.0000    31.2395    30.7434    30.6595
   4989.1000    30.9682    30.9030    30.5090
   4989.2000    31.1449    31.3668    30.8113
   4989.3000    31.4311    31.7827    31.2479
   4989.4000    31.7557    31.5612    31.4793
   4989.5000    32.1420    31.4627    31.8678
   4989.6000    32.3812    31.4806    32.0917
   4989.7000    32.7016    31.8954    32.3420
   4989.8000    32.7489    32.4147    32.2801
   4989.9000    32.7603    32.7920    32.1694
   4990.0000    32.5972    32.6164    31.8510
   4990.1000    32.6120    32.4637    31.7793
   4990.2000    32.9426    32.2715    32.0891
   4990.3000    33.2334    32.1276    32.4609
   4990.4000    33.2154    31.7093    32.3467
   4990.5000    33.0076    31.4995    31.8151
   4990.6000    32.6994    31.3678    31.1218
   4990.7000    32.2989    31.3302    30.6062
   4990.8000    32.5952    32.2085    31.3110
   4990.9000    35.5347    35.1135    34.9302
   4991.0000    38.2912    37.1286    38.5566
   4991.1000    38.7312    36.9777    39.1999
   4991.2000    36.1715    34.4502    35.8588
   4991.3000    32.5147    31.2485    31.3779
   4991.4000    31.9811    30.6568    30.5022
   4991.5000    31.8737    30.7726    30.6566
   4991.6000    32.1524    31.3695    31.4295
   4991.7000    32.4790    32.0724    31.9936
   4991.8000    32.8443    32.6843    32.3923
   4991.9000    32.7439    32.7515    32.2678
   4992.0000    32.6898    32.6287    32.0947
   4992.1000    32.7231    32.5594    32.1332
   4992.2000    32.9103    32.8096    32.3294
   4992.3000    33.3389    33.2981    32.8388
   4992.4000    33.4076    33.2581    33.0014
   4992.5000    33.5647    32.8832    33.0034
   4992.6000    33.8665    32.6765    33.1766
   4992.7000    33.7466    32.4594    32.8015
   4992.8000    33.6747    32.4732    32.6819
   4992.9000    33.6357    32.4168    32.6546
   4993.0000    33.7895    32.4588    32.8636
   4993.1000    34.3350    32.8964    33.4146
   4993.2000    34.5383    33.1387    33.6010
   4993.3000    34.4843    33.0768    33.4188
   4993.4000    34.1214    32.7213    32.9924
   4993.5000    33.7208    32.3551    32.5372
   4993.6000    33.6694    32.2145    32.4754
   4993.7000    33.2062    32.1732    32.0399
   4993.8000    33.3865    32.7904    32.2729
   4993.9000    33.3153    33.2507    32.2285
   4994.0000    33.7123    33.7395    32.8491
   4994.1000    33.8123    33.5895    33.1489
   4994.2000    33.5272    33.2781    32.9587
   4994.3000    33.2360    33.0745    32.6442
   4994.4000    32.5090    32.6772    31.8386
   4994.5000    32.4281    32.3858    31.8629
   4994.6000    33.1502    32.9495    32.9188
   4994.7000    34.1865    33.7773    34.2801
   4994.8000    35.1560    34.9876    35.4753
   4994.9000    35.4933    35.8330    35.7429
   4995.0000    35.6778    35.9447    35.6294
   4995.1000    35.8916    35.5939    35.4566
   4995.2000    35.5509    34.4682    34.7144
   4995.3000    35.7796    33.9523    34.6665
   4995.4000    35.8053    33.6670    34.5881
   4995.5000    35.9665    33.8102    34.8747
   4995.6000    35.8718    33.7687    35.1743
   4995.7000    35.4764    33.6357    35.0091
   4995.8000    35.7377    33.3088    35.4751
   4995.9000    35.7157    32.9609    35.4087
   4996.0000    35.6079    32.6567    35.5315
   4996.1000    35.3010    33.1310    35.3034
   4996.2000    35.3840    33.9376    35.3711
   4996.3000    35.7478    34.8665    35.6323
   4996.4000    36.3504    35.4450    35.9344
   4996.5000    36.5312    35.6490    35.8669
   4996.6000    36.5024    35.7262    35.6362
   4996.7000    36.4598    35.7868    35.3955
   4996.8000    36.0224    35.8019    34.9551
   4996.9000    35.1240    35.2569    33.9589
   4997.0000    34.2029    34.5324    32.7530
   4997.1000    33.7472    34.0773    32.2708
   4997.2000    34.1900    34.2009    32.8037
   4997.3000    34.5664    34.5450    33.4734
   4997.4000    34.9870    34.6847    34.0532
   4997.5000    35.0844    34.5938    34.0450
   4997.6000    35.0832    34.2667    33.9654
   4997.7000    34.8292    33.7763    33.7239
   4997.8000    34.3263    32.9961    33.3519
   4997.9000    33.9818    32.6625    33.1447
   4998.0000    33.5540    31.9961    32.7936
   4998.1000    33.5023    31.0686    32.7074
   4998.2000    33.4938    30.9993    32.6546
   4998.3000    33.7680    31.4360    32.8461
   4998.4000    34.4334    33.1107    33.4994
   4998.5000    34.5113    33.5377    33.6182
   4998.6000    34.4690    33.4278    33.7299
   4998.7000    34.2396    33.0156    33.6867
   4998.8000    34.4205    32.9785    33.9525
   4998.9000    34.2268    33.0398    33.5671
   4999.0000    33.3089    32.2100    32.2897
   4999.1000    33.3239    31.2360    32.2049
   4999.2000    34.5163    31.8646    33.6879
   4999.3000    36.5705    33.4752    36.4790
   4999.4000    37.2907    35.1189    37.7787
   4999.5000    35.5881    34.4622    35.8340
   4999.6000    33.2127    32.2894    32.9476
   4999.7000    32.0496    30.8478    31.2958
   4999.8000    32.1097    31.0289    31.1824
   4999.9000    32.7043    31.4669    31.7417
   5000.0000    33.1105    31.9849    32.2477
   5000.1000    32.7446    31.8643    32.0359
   5000.2000    32.2249    31.2965    31.6355
   5000.3000    32.1241    31.3790    31.5854
   5000.4000    32.2549    31.7411    31.7115
   5000.5000    32.1853    31.7853    31.6926
   5000.6000    31.9274    31.4333    31.4617
   5000.7000    31.4274    30.6532    30.9746
   5000.8000    31.1562    30.2825    30.7647
   5000.9000    31.1695    30.1659    30.8223
   5001.0000    31.3741    30.5531    30.9305
   5001.1000    31.5122    30.8728    30.8735
   5001.2000    31.2548    30.7061    30.4676
   5001.3000    30.8936    30.3354    30.0597
   5001.4000    30.6886    29.7787    29.8349
   5001.5000    30.5402    29.6966    29.6757
   5001.6000    30.5363    29.8250    29.7340
   5001.7000    30.4362    29.8867    29.8379
   5001.8000    30.3189    29.6656    29.8935
   5001.9000    30.4375    29.5021    30.0044
   5002.0000    30.3298    29.4594    29.7964
   5002.1000    30.2464    29.3637    29.6556
   5002.2000    30.0355    29.2274    29.4325
   5002.3000    30.0271    29.0573    29.4921
   5002.4000    29.8751    28.9402    29.3690
   5002.5000    29.4805    28.6760    28.9599
   5002.6000    29.1934    28.5734    28.6391
   5002.7000    28.8366    28.1978    28.2085
   5002.8000    28.4725    27.9077    27.7966
   5002.9000    27.9606    27.4641    27.3896
   5003.0000    27.0749    26.7618    26.5784
   5003.1000    26.9278    26.7305    26.5704
   5003.2000    26.2288    26.1771    25.8291
   5003.3000    25.6129    25.7306    25.2693
   5003.4000    24.7733    25.4008    24.4734
   5003.5000    24.6357    25.4594    24.5257
   5003.6000    24.4568    25.4744    24.5389
   5003.7000    24.6914    25.4132    24.9807
   5003.8000    24.5657    24.8040    25.0198
   5003.9000    23.7616    23.9958    24.5448
   5004.0000    23.1871    23.4592    24.4242
   5004.1000    22.7008    23.3813    24.3601
   5004.2000    22.8342    23.8048    24.8511
   5004.3000    22.8609    24.0669    25.0362
   5004.4000    22.2732    24.1840    24.5440
   5004.5000    21.9946    24.2345    24.3401
