~Version Information
 VERS.                  2.0:   CWLS log ASCII Standard -VERSION 2.0
 WRAP.                   NO:   One line per depth step
~Well Information Block
#MNEM.UNIT     VALUE/NAME     DESCRIPTION
#---------     -----------    ---------------------------
 STRT.M              3630.0000: START DEPTH
 STOP.M              5008.7000: STOP DEPTH
 STEP.M                 0.1000: STEP DEPTH
 NULL.               -999.2500: NULL VALUE
 DFWT.                        :  DIST FWL TEXT
 DFST.                        :  DIST FSL TEXT
 DMF .             Drill Floor:  DRILL MEAS FROM
 STIM.      10.30.00 08-May-21:  START TIME
 DATE.      11.38.00 18-Jun-21:  END TIME
 SPUD.               08-May-21:  SPUD DATE
 NREF.                    Grid:  NORTH REFERENCE
 HPTY.       Minimum Curvature:  HOLE POS TYPE
 DMOD.             Drill Model:  DRILL MOD DESC
 SVYD.                  Survey:  SURVEY DESC
 ILTD.               Lithology:  INTERP LTH DESC
 FTOP.          Formation Tops:  FORM TOPS DESC
 SON .        PA-XX-0907037989:  JOB NUMBER
 WTYP.                Deviated:  WELL TYPE
 COMP.     Strike West Pty Ltd:  COMPANY
 BASE.                   Perth:  LOGGING EQUIPMENT BASE LOCATION
 REGN.                      AP:  REGION
 CTRY.               Australia:  COUNTRY NAME
 FLD .          West Erregulla:  FIELD NAME
 SRVC.                  Ensign:  CONTRACTOR
 MWDS.                Jandakot:  MWD SHOP
 WELL.        West Erregulla 5:  WELL NAME
 JOBN.        PA-XX-0907037989:  JOB TICKET NUMB
 RIG .              Ensign 970:  RIG NAME
 DCON.     Sperry Drilling Services:  DIRECTNL CONTR
 UNIT.                11741669:  LOGGING EQUIPMENT ID
 PROV.       Western Australia:  PROVINCE
 STAT.       Western Australia:  STATE NAME
 PDAT.          Mean Sea Level:  PERMANENT DATUM
 MMDL.            bggm2021.dat:  MAGNETIC MODEL
 MMDD.            06 May, 2021:  MAG DATA DATE
 MDS .              Win MagUTM:  MAG DATA SOURCE
 GCDE.     Generic Lat/Long's, Degrees, -180 ==> +180:  GEO COORD DESC
 CCDE.     UTM Zone 50S on Geocentric Datum of Australia 1994, Meters:  CART COORD DESC
 GGSY.                      LL:  GEO GRID SYS
 CGSY.             SS GDA94-50:  CART GRID SYS
 GREF.     Ellipsoid World Geodetic System :  GEO REFERENCE
 CREF.     Datum Geocentric Datum of Austra:  CART REFERENCE
 LLGR.      Latitude/Longitude:  LLGROUP
 XYGR.     Australia/New Zealand Coordinate Systems:  XYGROUP
 API .                        :  API NUMBER
 CNTY.                        :  COUNTY
 UWI .                        :  UNIQUE WELL IDENTIFIER
 LOC .                        :  LOCATION
 LMF .             Drill Floor:  LOG MEASURED FROM
 TVDS.m             224.839988:  TVDSS CORRECTN
 LATI.deg           -29.398151:  LATITUDE
 LONG.deg           115.307694:  LONGITUDE
 WHNS.m               0.000000:  WELL HEAD N/S
 WHEW.m               0.000000:  WELL HEAD E/W
 UTMX.m          335792.640000:  UTM X
 UTMY.m         6746710.760000:  UTM Y
 DFWL.m               0.000000:  DISTANCE FWL
 DFSL.m               0.000000:  DISTANCE FSL
 SDEP.m              61.000002:  START DEPTH
 TDD .m            5015.000011:  TOTAL DEPTH (DRILLER)
 VSDR.deg             0.000000:  VERT SEC DIRECT
 GVFD.g               1.000000:  GRAVITY FIELD
 MFLD.nT          56933.789063:  MAGNETIC FIELD
 MDIP.deg           -63.343086:  MAGNETIC DIP
 MDEC.deg            -1.413625:  MAGNETIC DECL
 GRDC.deg             0.830898:  GRID CORRECTION
 AZTC.deg            -2.244523:  AZM TOTAL CORR
 EPD .m               0.000000:  ELEVATION
 EGL .m             217.679997:  GROUND ELEVATION
 WDMS.m               0.000000:  WD ELEV
 APD .m             224.839988:  DEPTH ABOVE PD
 AGAP.m               7.160000:  AIR GAP
 MMDE.m             -68.531232:  MAGUTM CALC DEP
 DEP .m               0.000000:  DEPTH
 CMER.deg           117.000000:  CENTRL MERIDIAN
 EKB .m               0.000000:  KB ELEVATION
 EDF .m             224.839988:  DF ELEVATION
 VSC .                       1:  VS TO CLOSURE
 MAGU.                 1375590:  MAGUTM CHECKSUM
~Parameter Information Block
#MNEM.UNIT       Value        Description
#---------     -----------    ---------------------------
 AV  .mps             2.583333:  Ann Velocity 
 AVMX.mps             2.933333:  Max Ann Veloc 
 AZIF.deg           193.410004:  Azm, Final 
 BHAT.                  Rotary:  BHA Type 
 BREV.krev          608.299988:  Rev Bit Total 
 BROT.°/30m           0.100000:  Build Rotating 
 BS  .mm            215.899994:  Bit Size 
 BTPL.kPag         3385.350342:  Bit Press Loss 
 CGEO.               Joe Emery:  Customer Geo 
 COMM.                     de~:  Run Comments 1 
 TCS .hr            130.012054:  Time Ciculation Ended 
 CV  .mps             4.100000:  Crit Velocity 
 CVMX.mps             4.100000:  Max Crit Veloc 
 DD1 .           Wayne Parsons:  Direct Drillr 1 
 DDSV.                   Other:  DD Service 
 DEFF.%              98.000000:  % Det Eff 
 DLRX.°/30m           0.680000:  Dogleg Rot Max 
 DLSO.°/30m           0.000000:  Dogleg Oriented 
 DLSX.°/30m           0.000000:  Dogleg Str Max 
 DRET.      22.50.00 17-Jun-21:  Drill End Time 
 DRST.      14.00.00 11-Jun-21:  Drill Start Tim 
 DTIM.hr            107.500000:  Time Drilling 
 EDEP.m            5015.000000:  End Depth 
 ENG1.           Liam ODonnell:  Engineer 1 
 ENG2.               Alan Rule:  Engineer 2 
 ENG3.        Vitaly Vasilenko:  Engineer 3 
 ETIM.      11.38.00 18-Jun-21:  End Time 
 FLOI.m3pm            2.100841:  Flow In 
 FLON.m3pm            2.044061:  Flow In Min 
 FLOS.mptm            3.000000:  Fluid Loss 
 FLOX.m3pm            2.380953:  Flow In Max 
 DFT .                 Polymer:  Mud Type 
 HFLO.                      No:  High Flow 
 HPRE.                      No:  High Pressure 
 HTEM.                      No:  High Temp 
 HYDO.m               2.500000:  Hydro Offset 
 IFIN.deg             5.220000:  Inc, Final 
 IMAX.deg             6.775680:  Inc Max 
 IMIN.deg             1.611614:  Inc Min 
 IMND.m            4310.580078:  Inc Min Depth 
 IMXD.m            4827.209961:  Inc Max Depth 
 JARR.                      No:  Jarring 
 LETM.      22.50.00 17-Jun-21:  Log End Time 
 LOST.hr                     0:  Lost Rig Time 
 LSTM.      14.00.00 11-Jun-21:  Log Start Time 
 MDCL.ppm         97000.000000:  Mud Chlorides 
 MDES.             Fresh Water:  Mud Desc 
 DFD .kg/m3        1222.229614:  Mud Density 
 MDMN.kg/m3        1210.247070:  Dens Mud Min 
 MDMX.kg/m3        1234.212280:  Dens Mud Max 
 PH  .pH              9.500000:  Mud pH 
 MOIL.                       0:  Run Mud Oil % 
 MOWR.                   0 100:  Run Mud OWR 
 MSND.                    0.10:  Run Mud Sand % 
 MSOL.                   12.40:  Run Mud Solids% 
 DFV .spl            62.362999:  Mud Viscosity 
 MWOD.mm            171.449997:  MWD Tool OD 
 MWSI.                      No:  Serv Intrp, MWD 
 OTIM.hr            176.676529:  Time Operating 
 PMAX.kPag        65859.195313:  Press Op, Max 
 PV  .mPsec          35.000000:  Mud PV 
 RMS .ohmm            0.080000:  Mud Resistivity 
 RMCS.ohmm            0.120000:  Mud Cake Resistivity 
 MCST.degC           21.999998:  Mud Cake Sample Temperature 
 RMFS.ohmm            0.060000:  Mud Filtrate Resistivity 
 RMFT.degC           21.999998:  Mud Filtrate Sample Temperature 
 RMMT.ohmm            0.023400:  Rm @ Max Temp 
 MST .degC           21.999998:  Mud Sample Temperature 
 RUN .                     500:  Run Number 
 ROPA.m/hr            6.800000:  ROP Avg 
 ROPN.m/hr            0.100000:  ROP Min 
 ROPX.m/hr           31.799999:  ROP Max 
 RPMA.rpm            98.000000:  RPM Surface Avg 
 RPMN.rpm            65.000000:  RPM Surface Min 
 RPMX.rpm           115.000008:  RPM Surface Max 
 RRUN.                       6:  Rig Run Number 
 RTIM.hr              0.000000:  Time Reaming 
 SAZI.deg           198.550003:  Azm, Start 
 SDEP.m            4283.000000:  Start Depth 
 SIDD.                      No:  Serv Intrp, DD 
 SINC.deg             2.000000:  Inc, Start 
 SPPA.kPag        21042.951172:  SPP Avg 
 SPPN.kPag        19677.779297:  SPP Min 
 SPPX.kPag        25117.783203:  SPP Max 
 STIM.      23.30.00 10-Jun-21:  Start Time 
 SVCS.                 DD, MWD:  Services 
 SVER.                9.200000:  Sperry Version 
 TDAT.m             732.000000:  Tot Depth Attmp 
 TDDF.                      No:  Trip for DD 
 TDLG.m             732.000000:  Tot Depth Loggd 
 TFF .                      No:  Trip for Fail 
 TQAA.kN-m            8.134908:  Torque Abs Avg 
 TQAN.kN-m            8.134908:  Torque Abs Min 
 TQAX.kN-m           14.507253:  Torque Abs Max 
 TRRT.°/30m           0.000000:  Turn Rotating 
 MRT .                    HCIM:  Maximum Recorded Temperature 
 TTMX.degC          127.000000:  Max Tool Temp 
 VS01.                90649920:  Virtual Str1 SN 
 VS02.                90649925:  Virtual Str2 SN 
 VS03.                90649923:  Virtual Str3 SN 
 WBMN.kdN            10.230908:  WOB Min 
 WITN.          Rick Dzivinski:  Customer Rep 2 
 WITN.           Mark Jachmann:  Customer Rep 
 WOBA.kdN            16.636347:  WOB Avg 
 WOBX.kdN            20.906639:  WOB Max 
 YP  .pa             15.321648:  Yield Point 
~Curve Information Block
#MNEM.UNIT                 API CODE     Curve Description
#---------               -----------    ---------------------------
 DEPT.M                 00 000 000 000:  Depth
 AFRSAC.ohmm            00 000 000 000:  AFR Shallow Avg Res BC
 AFRMAC.ohmm            00 000 000 000:  AFR Medium Avg Res BC
 AFRDAC.ohmm            00 000 000 000:  AFR Deep Avg Res BC
#Other Information
#
#WARRANTY: Halliburton will use its best efforts to furnish customers with 
#accurate information and interpretations that are part of, and incident to, the services 
#provided.  However, Halliburton cannot and does not warrant the accuracy 
#or correctness of such information and interpretations.  Under no circumstances should any 
#such information or interpretation be relied upon as the sole basis for any drilling, 
#completion, production, or financial decision or any procedure involving any risk to the 
#safety of any drilling venture, drilling rig or its crew or any other third party.  The 
#Customer has full responsibility for all drilling, completion and production operation.  
#Halliburton makes no representations or warranties, either expressed or 
#implied, including, but not limited to, the implied warranties of merchantability or fitness 
#for a particular purpose, with respect to the services rendered.  In no event will 
#Halliburton be liable for failure to obtain any particular results or for 
#any damages, including, but not limited to, indirect, special or consequential damages, 
#resulting from the use of any information or interpretation provided by Halliburton.
#
~A   DEPT      AFRSAC     AFRMAC     AFRDAC   
# ...
   4082.4000   423.4827   529.2460   582.1633
   4082.5000   454.7223   591.1121   653.1694
   4082.6000   481.0501   641.8296   716.0139
   4082.7000   509.8739   680.0941   780.6343
   4082.8000   532.7292   706.0594   832.9706
   4082.9000   526.8737   688.4858   826.1602
   4083.0000   485.3291   607.5048   721.3467
   4083.1000   427.7461   501.5319   586.3683
   4083.2000   400.4028   457.5785   528.4808
   4083.3000   401.3748   466.2249   538.8760
   4083.4000   422.2402   522.0892   609.7632
   4083.5000   439.1055   583.1492   697.1691
   4083.6000   440.9857   620.6107   760.8706
   4083.7000   444.1939   656.4102   841.6222
   4083.8000   442.7718   684.7928   912.2397
   4083.9000   412.4847   661.7475   889.2489
   4084.0000   368.1010   605.2560   791.8313
   4084.1000   324.5352   545.7234   682.3710
   4084.2000   260.4948   428.2965   518.5789
   4084.3000   188.8720   295.6657   337.8068
   4084.4000   162.6920   245.6211   266.6222
   4084.5000   138.2549   206.9434   214.1085
   4084.6000   116.1392   171.6502   169.6274
   4084.7000   109.7127   160.0873   160.5556
   4084.8000   100.3380   148.0840   151.2798
   4084.9000   119.5196   184.6256   197.4376
   4085.0000   144.8871   244.2116   262.0687
   4085.1000   178.3591   322.2227   364.7345
   4085.2000   205.1142   374.7779   437.7629
   4085.3000   204.2887   347.4966   417.8336
   4085.4000   205.1618   326.5677   399.7357
   4085.5000   228.8010   340.1493   428.6732
   4085.6000   245.7058   348.4494   446.4247
   4085.7000   251.5566   340.3587   432.8582
   4085.8000   255.1895   323.8878   405.7234
   4085.9000   252.1970   300.2358   366.5044
   4086.0000   259.4420   299.7579   353.5025
   4086.1000   296.6397   350.8267   404.5275
   4086.2000   385.6405   491.4563   572.2075
   4086.3000   590.3497   852.7205  1104.6466
   4086.4000   913.9936  1471.6278  2481.4143
   4086.5000  1232.7126  2144.6389  5046.5498
   4086.6000  1474.6364  2653.1379  7941.0566
   4086.7000  1526.3872  2656.6934  7667.6895
   4086.8000  1442.9749  2349.4224  5685.9810
   4086.9000  1329.6541  2043.8588  4559.6904
   4087.0000  1126.4532  1638.7086  3269.6606
   4087.1000   908.0248  1316.0536  2315.6003
   4087.2000   731.4345  1072.5524  1671.7456
   4087.3000   563.6004   843.8865  1131.4542
   4087.4000   386.9544   569.2533   662.6971
   4087.5000   274.3722   380.8927   425.6735
   4087.6000   205.7725   278.8121   303.9240
   4087.7000   177.4813   243.9829   260.8047
   4087.8000   166.0828   232.3976   246.0226
   4087.9000   149.7144   209.4941   221.8157
   4088.0000   134.4139   185.6845   198.5782
   4088.1000   123.7404   171.0837   182.8553
   4088.2000   122.4879   172.1731   183.4801
   4088.3000   127.8727   181.4825   195.1465
   4088.4000   130.3502   182.8781   200.3122
   4088.5000   131.8805   181.9108   202.4501
   4088.6000   134.8615   184.3185   207.3718
   4088.7000   146.8492   203.0219   230.1811
   4088.8000   170.0586   240.0596   274.2892
   4088.9000   190.7610   265.0837   305.4012
   4089.0000   185.0178   242.0557   274.2313
   4089.1000   162.1161   197.7190   218.4184
   4089.2000   153.6662   181.4254   196.4325
   4089.3000   163.7756   191.1957   207.7064
   4089.4000   184.2334   218.0849   240.5099
   4089.5000   199.7000   238.2078   268.6646
   4089.6000   212.7256   256.4625   294.4758
   4089.7000   225.0929   276.0353   317.8122
   4089.8000   232.6098   286.2668   329.4981
   4089.9000   222.7398   271.0918   310.1427
   4090.0000   200.5314   241.7336   273.3773
   4090.1000   192.6450   230.2755   260.3010
   4090.2000   183.1190   221.8950   247.0536
   4090.3000   169.0729   209.4019   227.6976
   4090.4000   141.8575   176.7370   187.2845
   4090.5000   109.4692   131.2836   138.0359
   4090.6000    89.7500   102.0317   108.3100
   4090.7000    78.4167    85.4093    91.2151
   4090.8000    73.0074    79.1454    83.8003
   4090.9000    66.4323    73.8868    77.0650
   4091.0000    66.6344    77.3430    79.6619
   4091.1000    72.8828    87.6932    91.0502
   4091.2000    83.4795   102.1271   110.9185
   4091.3000    85.9261   104.7398   119.7597
   4091.4000    78.8076    93.5174   111.0549
   4091.5000    71.2315    83.0152   100.0495
   4091.6000    65.4933    74.9961    90.8646
   4091.7000    63.2353    71.7797    87.6500
   4091.8000    60.4684    68.9528    83.9489
   4091.9000    63.0816    73.9894    88.9005
   4092.0000    68.4423    84.0139    99.0316
   4092.1000    73.9124    95.2157   109.3265
   4092.2000    72.8717    94.8462   105.8746
   4092.3000    61.4093    75.5317    83.6273
   4092.4000    43.7656    49.0197    54.6010
   4092.5000    36.7042    39.0636    43.0898
   4092.6000    35.3885    37.0317    40.6612
   4092.7000    39.7186    42.4705    46.4939
   4092.8000    46.9480    53.0885    57.7517
   4092.9000    55.1586    65.8932    71.8688
   4093.0000    68.3907    86.8569    93.4466
   4093.1000    83.0373   106.7976   115.6539
   4093.2000    90.1202   110.0715   123.8600
   4093.3000    88.5088   102.3446   117.5317
   4093.4000    79.7501    87.1782   102.0920
   4093.5000    75.2254    80.3268    94.1175
   4093.6000    75.4360    80.9265    94.2793
   4093.7000    77.2983    85.5466    97.0347
   4093.8000    84.2969    95.3535   105.9883
   4093.9000    80.4061    91.6852    98.1330
   4094.0000    73.6722    81.8922    85.8529
   4094.1000    66.6171    71.8733    74.7435
   4094.2000    63.9318    68.6877    71.3296
   4094.3000    73.6434    80.6981    84.9889
   4094.4000    95.3480   109.0749   117.7278
   4094.5000   125.2527   148.9571   167.0813
   4094.6000   131.6978   155.9183   179.2278
   4094.7000   124.7102   148.0176   167.4608
   4094.8000   118.5499   142.2413   159.2881
   4094.9000   112.7186   137.7567   156.0203
   4095.0000   110.6103   135.3855   156.3168
   4095.1000   101.4819   120.6014   140.0233
   4095.2000    71.7641    79.6721    91.3171
   4095.3000    48.3011    51.1880    56.9515
   4095.4000    43.2949    45.4947    50.3637
   4095.5000    49.8390    54.8984    60.6838
   4095.6000    72.9696    89.3299    99.4764
   4095.7000    80.3223   110.5120   117.8690
   4095.8000    72.4080   102.3157   106.9285
   4095.9000    56.0709    74.2006    77.6787
   4096.0000    52.4494    65.8379    69.4799
   4096.1000    52.6703    64.1152    67.9820
   4096.2000    53.9572    64.9194    66.9046
   4096.3000    51.6279    62.1877    61.0564
   4096.4000    47.8787    54.9911    54.0923
   4096.5000    54.4192    59.5717    60.4776
   4096.6000    76.3626    79.9235    86.1200
   4096.7000   114.7589   122.3646   138.6113
   4096.8000   170.2578   189.7918   216.7191
   4096.9000   183.2325   194.4536   225.2395
   4097.0000   227.1043   219.0116   267.6523
   4097.1000   328.6596   290.3544   384.7931
   4097.2000   538.8099   414.1736   692.1149
   4097.3000   776.3487   588.5558  1177.6145
   4097.4000   709.6208   562.0742  1113.7821
   4097.5000   453.7713   275.3631   655.1096
   4097.6000   234.6296   138.8854   305.7766
   4097.7000   136.6801    89.4718   162.6684
   4097.8000    93.6895    65.9047   103.5830
   4097.9000    64.0209    46.9246    66.2756
   4098.0000    53.3838    41.4871    54.2091
   4098.1000    54.7607    45.8053    58.0807
   4098.2000    67.3859    68.4973    80.5885
   4098.3000    88.7446   106.9252   123.8151
   4098.4000    96.3626   139.0529   147.6340
   4098.5000    92.3422   150.3363   146.3616
   4098.6000    88.2212   141.2794   136.6528
   4098.7000    79.9971   113.1051   112.9813
   4098.8000    67.4066    77.7708    81.6512
   4098.9000    55.2970    54.7045    58.9300
   4099.0000    43.5815    39.0502    41.6178
   4099.1000    44.0760    37.4080    40.3680
   4099.2000    57.8768    49.2874    53.6837
   4099.3000   103.9602    95.0005   105.3164
   4099.4000   179.9627   189.3291   202.5607
   4099.5000   178.6519   223.6466   204.7061
   4099.6000   154.7868   218.8488   167.6713
   4099.7000   164.1676   234.3897   172.7215
