~Version Information
 VERS.                  2.0:   CWLS log ASCII Standard -VERSION 2.0
 WRAP.                   NO:   One line per depth step
~Well Information Block
#MNEM.UNIT     VALUE/NAME     DESCRIPTION
#---------     -----------    ---------------------------
 STRT.M              3630.0000: START DEPTH
 STOP.M              5008.7000: STOP DEPTH
 STEP.M                 0.1000: STEP DEPTH
 NULL.               -999.2500: NULL VALUE
 DFWT.                        :  DIST FWL TEXT
 DFST.                        :  DIST FSL TEXT
 DMF .             Drill Floor:  DRILL MEAS FROM
 STIM.      10.30.00 08-May-21:  START TIME
 DATE.      11.38.00 18-Jun-21:  END TIME
 SPUD.               08-May-21:  SPUD DATE
 NREF.                    Grid:  NORTH REFERENCE
 HPTY.       Minimum Curvature:  HOLE POS TYPE
 DMOD.             Drill Model:  DRILL MOD DESC
 SVYD.                  Survey:  SURVEY DESC
 ILTD.               Lithology:  INTERP LTH DESC
 FTOP.          Formation Tops:  FORM TOPS DESC
 SON .        PA-XX-0907037989:  JOB NUMBER
 WTYP.                Deviated:  WELL TYPE
 COMP.     Strike West Pty Ltd:  COMPANY
 BASE.                   Perth:  LOGGING EQUIPMENT BASE LOCATION
 REGN.                      AP:  REGION
 CTRY.               Australia:  COUNTRY NAME
 FLD .          West Erregulla:  FIELD NAME
 SRVC.                  Ensign:  CONTRACTOR
 MWDS.                Jandakot:  MWD SHOP
 WELL.        West Erregulla 5:  WELL NAME
 JOBN.        PA-XX-0907037989:  JOB TICKET NUMB
 RIG .              Ensign 970:  RIG NAME
 DCON.     Sperry Drilling Services:  DIRECTNL CONTR
 UNIT.                11741669:  LOGGING EQUIPMENT ID
 PROV.       Western Australia:  PROVINCE
 STAT.       Western Australia:  STATE NAME
 PDAT.          Mean Sea Level:  PERMANENT DATUM
 MMDL.            bggm2021.dat:  MAGNETIC MODEL
 MMDD.            06 May, 2021:  MAG DATA DATE
 MDS .              Win MagUTM:  MAG DATA SOURCE
 GCDE.     Generic Lat/Long's, Degrees, -180 ==> +180:  GEO COORD DESC
 CCDE.     UTM Zone 50S on Geocentric Datum of Australia 1994, Meters:  CART COORD DESC
 GGSY.                      LL:  GEO GRID SYS
 CGSY.             SS GDA94-50:  CART GRID SYS
 GREF.     Ellipsoid World Geodetic System :  GEO REFERENCE
 CREF.     Datum Geocentric Datum of Austra:  CART REFERENCE
 LLGR.      Latitude/Longitude:  LLGROUP
 XYGR.     Australia/New Zealand Coordinate Systems:  XYGROUP
 API .                        :  API NUMBER
 CNTY.                        :  COUNTY
 UWI .                        :  UNIQUE WELL IDENTIFIER
 LOC .                        :  LOCATION
 LMF .             Drill Floor:  LOG MEASURED FROM
 TVDS.m             224.839988:  TVDSS CORRECTN
 LATI.deg           -29.398151:  LATITUDE
 LONG.deg           115.307694:  LONGITUDE
 WHNS.m               0.000000:  WELL HEAD N/S
 WHEW.m               0.000000:  WELL HEAD E/W
 UTMX.m          335792.640000:  UTM X
 UTMY.m         6746710.760000:  UTM Y
 DFWL.m               0.000000:  DISTANCE FWL
 DFSL.m               0.000000:  DISTANCE FSL
 SDEP.m              61.000002:  START DEPTH
 TDD .m            5015.000011:  TOTAL DEPTH (DRILLER)
 VSDR.deg             0.000000:  VERT SEC DIRECT
 GVFD.g               1.000000:  GRAVITY FIELD
 MFLD.nT          56933.789063:  MAGNETIC FIELD
 MDIP.deg           -63.343086:  MAGNETIC DIP
 MDEC.deg            -1.413625:  MAGNETIC DECL
 GRDC.deg             0.830898:  GRID CORRECTION
 AZTC.deg            -2.244523:  AZM TOTAL CORR
 EPD .m               0.000000:  ELEVATION
 EGL .m             217.679997:  GROUND ELEVATION
 WDMS.m               0.000000:  WD ELEV
 APD .m             224.839988:  DEPTH ABOVE PD
 AGAP.m               7.160000:  AIR GAP
 MMDE.m             -68.531232:  MAGUTM CALC DEP
 DEP .m               0.000000:  DEPTH
 CMER.deg           117.000000:  CENTRL MERIDIAN
 EKB .m               0.000000:  KB ELEVATION
 EDF .m             224.839988:  DF ELEVATION
 VSC .                       1:  VS TO CLOSURE
 MAGU.                 1375590:  MAGUTM CHECKSUM
~Parameter Information Block
#MNEM.UNIT       Value        Description
#---------     -----------    ---------------------------
 AV  .mps             2.583333:  Ann Velocity 
 AVMX.mps             2.933333:  Max Ann Veloc 
 AZIF.deg           193.410004:  Azm, Final 
 BHAT.                  Rotary:  BHA Type 
 BREV.krev          608.299988:  Rev Bit Total 
 BROT.°/30m           0.100000:  Build Rotating 
 BS  .mm            215.899994:  Bit Size 
 BTPL.kPag         3385.350342:  Bit Press Loss 
 CGEO.               Joe Emery:  Customer Geo 
 COMM.                     de~:  Run Comments 1 
 TCS .hr            130.012054:  Time Ciculation Ended 
 CV  .mps             4.100000:  Crit Velocity 
 CVMX.mps             4.100000:  Max Crit Veloc 
 DD1 .           Wayne Parsons:  Direct Drillr 1 
 DDSV.                   Other:  DD Service 
 DEFF.%              98.000000:  % Det Eff 
 DLRX.°/30m           0.680000:  Dogleg Rot Max 
 DLSO.°/30m           0.000000:  Dogleg Oriented 
 DLSX.°/30m           0.000000:  Dogleg Str Max 
 DRET.      22.50.00 17-Jun-21:  Drill End Time 
 DRST.      14.00.00 11-Jun-21:  Drill Start Tim 
 DTIM.hr            107.500000:  Time Drilling 
 EDEP.m            5015.000000:  End Depth 
 ENG1.           Liam ODonnell:  Engineer 1 
 ENG2.               Alan Rule:  Engineer 2 
 ENG3.        Vitaly Vasilenko:  Engineer 3 
 ETIM.      11.38.00 18-Jun-21:  End Time 
 FLOI.m3pm            2.100841:  Flow In 
 FLON.m3pm            2.044061:  Flow In Min 
 FLOS.mptm            3.000000:  Fluid Loss 
 FLOX.m3pm            2.380953:  Flow In Max 
 DFT .                 Polymer:  Mud Type 
 HFLO.                      No:  High Flow 
 HPRE.                      No:  High Pressure 
 HTEM.                      No:  High Temp 
 HYDO.m               2.500000:  Hydro Offset 
 IFIN.deg             5.220000:  Inc, Final 
 IMAX.deg             6.775680:  Inc Max 
 IMIN.deg             1.611614:  Inc Min 
 IMND.m            4310.580078:  Inc Min Depth 
 IMXD.m            4827.209961:  Inc Max Depth 
 JARR.                      No:  Jarring 
 LETM.      22.50.00 17-Jun-21:  Log End Time 
 LOST.hr                     0:  Lost Rig Time 
 LSTM.      14.00.00 11-Jun-21:  Log Start Time 
 MDCL.ppm         97000.000000:  Mud Chlorides 
 MDES.             Fresh Water:  Mud Desc 
 DFD .kg/m3        1222.229614:  Mud Density 
 MDMN.kg/m3        1210.247070:  Dens Mud Min 
 MDMX.kg/m3        1234.212280:  Dens Mud Max 
 PH  .pH              9.500000:  Mud pH 
 MOIL.                       0:  Run Mud Oil % 
 MOWR.                   0 100:  Run Mud OWR 
 MSND.                    0.10:  Run Mud Sand % 
 MSOL.                   12.40:  Run Mud Solids% 
 DFV .spl            62.362999:  Mud Viscosity 
 MWOD.mm            171.449997:  MWD Tool OD 
 MWSI.                      No:  Serv Intrp, MWD 
 OTIM.hr            176.676529:  Time Operating 
 PMAX.kPag        65859.195313:  Press Op, Max 
 PV  .mPsec          35.000000:  Mud PV 
 RMS .ohmm            0.080000:  Mud Resistivity 
 RMCS.ohmm            0.120000:  Mud Cake Resistivity 
 MCST.degC           21.999998:  Mud Cake Sample Temperature 
 RMFS.ohmm            0.060000:  Mud Filtrate Resistivity 
 RMFT.degC           21.999998:  Mud Filtrate Sample Temperature 
 RMMT.ohmm            0.023400:  Rm @ Max Temp 
 MST .degC           21.999998:  Mud Sample Temperature 
 RUN .                     500:  Run Number 
 ROPA.m/hr            6.800000:  ROP Avg 
 ROPN.m/hr            0.100000:  ROP Min 
 ROPX.m/hr           31.799999:  ROP Max 
 RPMA.rpm            98.000000:  RPM Surface Avg 
 RPMN.rpm            65.000000:  RPM Surface Min 
 RPMX.rpm           115.000008:  RPM Surface Max 
 RRUN.                       6:  Rig Run Number 
 RTIM.hr              0.000000:  Time Reaming 
 SAZI.deg           198.550003:  Azm, Start 
 SDEP.m            4283.000000:  Start Depth 
 SIDD.                      No:  Serv Intrp, DD 
 SINC.deg             2.000000:  Inc, Start 
 SPPA.kPag        21042.951172:  SPP Avg 
 SPPN.kPag        19677.779297:  SPP Min 
 SPPX.kPag        25117.783203:  SPP Max 
 STIM.      23.30.00 10-Jun-21:  Start Time 
 SVCS.                 DD, MWD:  Services 
 SVER.                9.200000:  Sperry Version 
 TDAT.m             732.000000:  Tot Depth Attmp 
 TDDF.                      No:  Trip for DD 
 TDLG.m             732.000000:  Tot Depth Loggd 
 TFF .                      No:  Trip for Fail 
 TQAA.kN-m            8.134908:  Torque Abs Avg 
 TQAN.kN-m            8.134908:  Torque Abs Min 
 TQAX.kN-m           14.507253:  Torque Abs Max 
 TRRT.°/30m           0.000000:  Turn Rotating 
 MRT .                    HCIM:  Maximum Recorded Temperature 
 TTMX.degC          127.000000:  Max Tool Temp 
 VS01.                90649920:  Virtual Str1 SN 
 VS02.                90649925:  Virtual Str2 SN 
 VS03.                90649923:  Virtual Str3 SN 
 WBMN.kdN            10.230908:  WOB Min 
 WITN.          Rick Dzivinski:  Customer Rep 2 
 WITN.           Mark Jachmann:  Customer Rep 
 WOBA.kdN            16.636347:  WOB Avg 
 WOBX.kdN            20.906639:  WOB Max 
 YP  .pa             15.321648:  Yield Point 
~Curve Information Block
#MNEM.UNIT                 API CODE     Curve Description
#---------               -----------    ---------------------------
 DEPT.M                 00 000 000 000:  Depth
 AFRSAC.ohmm            00 000 000 000:  AFR Shallow Avg Res BC
 AFRMAC.ohmm            00 000 000 000:  AFR Medium Avg Res BC
 AFRDAC.ohmm            00 000 000 000:  AFR Deep Avg Res BC
#Other Information
#
#WARRANTY: Halliburton will use its best efforts to furnish customers with 
#accurate information and interpretations that are part of, and incident to, the services 
#provided.  However, Halliburton cannot and does not warrant the accuracy 
#or correctness of such information and interpretations.  Under no circumstances should any 
#such information or interpretation be relied upon as the sole basis for any drilling, 
#completion, production, or financial decision or any procedure involving any risk to the 
#safety of any drilling venture, drilling rig or its crew or any other third party.  The 
#Customer has full responsibility for all drilling, completion and production operation.  
#Halliburton makes no representations or warranties, either expressed or 
#implied, including, but not limited to, the implied warranties of merchantability or fitness 
#for a particular purpose, with respect to the services rendered.  In no event will 
#Halliburton be liable for failure to obtain any particular results or for 
#any damages, including, but not limited to, indirect, special or consequential damages, 
#resulting from the use of any information or interpretation provided by Halliburton.
#
~A   DEPT      AFRSAC     AFRMAC     AFRDAC   
# ...
   4900.2000    68.3760    67.6713    69.5488
   4900.3000    62.4261    60.9327    62.4618
   4900.4000    60.3682    59.1118    60.1074
   4900.5000    60.9300    60.4527    61.3069
   4900.6000    61.4037    60.9643    62.0123
   4900.7000    60.3998    60.2286    61.1351
   4900.8000    60.3001    59.6137    61.1317
   4900.9000    57.0193    56.8588    58.0410
   4901.0000    56.3814    56.9925    57.9162
   4901.1000    59.0687    60.1414    61.2381
   4901.2000    61.9595    63.6529    65.1206
   4901.3000    61.0850    62.7069    64.6479
   4901.4000    58.2407    60.1928    61.6994
   4901.5000    55.7138    59.6901    58.7272
   4901.6000    54.0417    60.7689    56.6578
   4901.7000    52.4111    60.0852    54.8669
   4901.8000    50.7048    57.4121    52.9405
   4901.9000    48.4595    51.5286    50.3066
   4902.0000    47.6639    48.7318    49.5473
   4902.1000    47.5132    47.8184    50.0203
   4902.2000    47.7824    47.8315    50.9647
   4902.3000    50.0005    51.2458    53.9189
   4902.4000    48.8327    50.8907    52.0778
   4902.5000    48.5616    50.6115    51.7835
   4902.6000    48.8220    50.2977    51.8992
   4902.7000    50.4646    50.2577    53.5124
   4902.8000    51.0423    49.1518    53.0360
   4902.9000    48.9781    46.2879    50.2988
   4903.0000    46.4190    43.3846    47.1167
   4903.1000    46.9009    45.6584    47.9233
   4903.2000    50.0430    50.8018    51.3357
   4903.3000    55.8272    58.5992    57.8112
   4903.4000    57.8756    63.6373    59.7130
   4903.5000    58.6003    65.4589    60.2771
   4903.6000    59.9628    65.7181    61.8303
   4903.7000    66.9237    69.6597    70.0094
   4903.8000    71.0938    71.1689    76.6130
   4903.9000    68.8495    69.5027    74.2574
   4904.0000    62.7438    65.1727    66.1810
   4904.1000    54.0872    56.2693    54.4873
   4904.2000    52.7634    53.7172    51.4515
   4904.3000    52.7838    53.5364    51.2193
   4904.4000    54.6355    55.2308    53.5867
   4904.5000    55.5242    56.9154    55.2703
   4904.6000    54.6070    56.9450    55.0913
   4904.7000    53.0825    57.5617    53.5322
   4904.8000    52.7696    63.2424    54.1095
   4904.9000    57.1850    69.7076    59.7332
   4905.0000    63.3635    76.6246    68.3087
   4905.1000    71.0808    79.9091    78.6936
   4905.2000    69.7697    78.9140    77.4031
   4905.3000    66.2904    74.9776    73.4046
   4905.4000    65.4478    72.5247    72.1687
   4905.5000    74.5302    78.7940    82.2513
   4905.6000    89.8297    92.3833    98.9050
   4905.7000    96.5193    90.7796   105.6949
   4905.8000    92.7834    82.4096   100.6388
   4905.9000    78.6793    69.0907    83.0287
   4906.0000    69.7028    63.9291    71.5006
   4906.1000    65.1387    62.4648    65.3784
   4906.2000    61.6114    59.8253    61.1700
   4906.3000    57.4443    58.3711    57.0135
   4906.4000    55.1540    56.4472    55.2606
   4906.5000    56.1844    58.3066    57.0565
   4906.6000    59.7956    61.0508    61.8963
   4906.7000    62.2284    63.7883    65.2448
   4906.8000    61.4526    63.6857    64.7985
   4906.9000    60.2280    63.0090    64.3108
   4907.0000    59.1462    62.1037    63.4702
   4907.1000    60.6146    64.1480    64.8568
   4907.2000    58.9341    62.2943    62.6736
   4907.3000    58.2904    61.5907    61.2967
   4907.4000    57.8725    60.4552    61.1074
   4907.5000    58.9536    61.5941    62.1595
   4907.6000    61.0594    63.7724    63.8886
   4907.7000    60.6872    62.6770    62.4940
   4907.8000    59.4534    60.6742    60.2101
   4907.9000    59.0518    59.0171    59.5396
   4908.0000    60.7369    60.2334    61.7473
   4908.1000    66.1742    67.0618    68.5419
   4908.2000    70.7406    78.0261    76.4195
   4908.3000    72.0977    87.1909    80.9082
   4908.4000    67.9923    81.0322    76.5201
   4908.5000    60.6334    69.5689    66.1477
   4908.6000    55.8805    58.9816    57.8156
   4908.7000    55.0960    56.8066    56.0987
   4908.8000    57.1739    56.3912    60.1474
   4908.9000    60.0012    58.1544    65.8612
   4909.0000    59.7610    59.1749    66.6482
   4909.1000    57.7654    60.9640    63.1950
   4909.2000    56.9253    64.0215    60.6576
   4909.3000    58.9549    68.1019    60.8968
   4909.4000    64.8306    73.2630    66.0828
   4909.5000    71.3477    77.2630    72.3302
   4909.6000    74.3604    75.5595    78.7641
   4909.7000    72.4878    66.8606    79.9909
   4909.8000    69.0462    57.3718    77.4190
   4909.9000    62.5525    50.6360    69.0092
   4910.0000    56.8105    48.7944    62.1252
   4910.1000    55.7410    51.7899    59.8816
   4910.2000    56.4707    56.6693    60.7296
   4910.3000    60.5191    62.0427    66.3997
   4910.4000    62.5833    64.8892    69.7319
   4910.5000    61.2896    62.7529    67.9287
   4910.6000    62.2495    61.6241    66.8094
   4910.7000    63.8435    62.0419    66.8702
   4910.8000    65.7997    63.5465    70.2159
   4910.9000    69.0993    71.9185    76.3683
   4911.0000    64.8267    72.7360    72.3492
   4911.1000    61.7816    70.3936    67.3211
   4911.2000    61.8164    69.9057    64.9531
   4911.3000    66.8629    70.5800    68.9808
   4911.4000    69.5738    72.0839    72.4632
   4911.5000    66.6143    69.8654    70.1418
   4911.6000    62.8822    65.9103    65.9077
   4911.7000    60.6342    63.5253    63.3888
   4911.8000    60.7076    63.1458    63.3768
   4911.9000    60.9830    63.4959    63.8956
   4912.0000    61.2001    63.7957    64.7871
   4912.1000    63.5844    66.8475    68.3010
   4912.2000    64.7850    68.9011    70.3311
   4912.3000    65.1504    69.6153    70.9821
   4912.4000    67.0123    70.3241    72.4610
   4912.5000    69.5685    71.3169    74.4273
   4912.6000    71.0664    71.8212    75.3616
   4912.7000    69.1724    69.6463    72.7211
   4912.8000    65.0921    66.6248    68.1675
   4912.9000    65.6478    68.8455    69.3341
   4913.0000    73.2202    78.2444    78.4673
   4913.1000    76.4478    79.9334    82.2430
   4913.2000    70.4090    69.9186    72.5691
   4913.3000    59.9244    56.3536    58.7641
   4913.4000    54.2369    48.9916    51.0411
   4913.5000    57.9506    50.8673    54.8087
   4913.6000    67.1047    59.5245    65.0767
   4913.7000    76.0964    71.8277    77.9384
   4913.8000    76.9267    80.3450    80.1641
   4913.9000    78.9368    86.5318    82.3669
   4914.0000    86.6367    94.0440    90.9881
   4914.1000    92.6800    97.2071   100.2561
   4914.2000    91.0932    93.1705    99.6235
   4914.3000    83.2554    83.2306    91.6638
   4914.4000    77.7999    77.1905    84.9715
   4914.5000    74.6594    74.5116    81.4050
   4914.6000    72.0809    71.5347    78.6805
   4914.7000    63.3148    63.2631    67.7559
   4914.8000    57.1901    58.6699    60.4067
   4914.9000    56.5207    59.7040    59.9288
   4915.0000    62.7517    68.5296    68.5790
   4915.1000    68.1041    75.2666    77.0794
   4915.2000    64.8139    70.4416    73.5510
   4915.3000    55.1532    58.4126    61.5406
   4915.4000    45.9500    45.9128    49.5181
   4915.5000    45.4166    44.2751    48.1850
   4915.6000    46.5664    46.1223    49.3478
   4915.7000    47.9445    48.5574    51.1364
   4915.8000    44.9609    46.6983    47.1220
   4915.9000    42.2652    43.6703    43.1464
   4916.0000    41.6555    42.9201    41.6468
   4916.1000    43.8697    45.9702    44.0600
   4916.2000    46.3408    48.6126    47.1218
   4916.3000    49.4291    52.0891    50.8214
   4916.4000    54.4310    56.4790    56.3895
   4916.5000    63.8257    67.0873    67.1776
   4916.6000    75.9159    81.9369    82.8788
   4916.7000    90.9358   102.6085   102.5331
   4916.8000    96.7225   110.8755   113.4311
   4916.9000    90.7099    95.2396   103.0125
   4917.0000    83.3491    83.8115    94.1494
   4917.1000    73.1141    70.9342    81.2504
   4917.2000    68.1303    65.0201    73.1234
   4917.3000    68.8467    67.8988    70.1143
   4917.4000    76.6006    77.3539    76.1293
   4917.5000    87.8435    89.7336    88.1294
