~Version Information
 VERS.                  2.0:   CWLS log ASCII Standard -VERSION 2.0
 WRAP.                   NO:   One line per depth step
~Well Information Block
#MNEM.UNIT     VALUE/NAME     DESCRIPTION
#---------     -----------    ---------------------------
 STRT.M              3630.0000: START DEPTH
 STOP.M              5008.7000: STOP DEPTH
 STEP.M                 0.1000: STEP DEPTH
 NULL.               -999.2500: NULL VALUE
 DFWT.                        :  DIST FWL TEXT
 DFST.                        :  DIST FSL TEXT
 DMF .             Drill Floor:  DRILL MEAS FROM
 STIM.      10.30.00 08-May-21:  START TIME
 DATE.      11.38.00 18-Jun-21:  END TIME
 SPUD.               08-May-21:  SPUD DATE
 NREF.                    Grid:  NORTH REFERENCE
 HPTY.       Minimum Curvature:  HOLE POS TYPE
 DMOD.             Drill Model:  DRILL MOD DESC
 SVYD.                  Survey:  SURVEY DESC
 ILTD.               Lithology:  INTERP LTH DESC
 FTOP.          Formation Tops:  FORM TOPS DESC
 SON .        PA-XX-0907037989:  JOB NUMBER
 WTYP.                Deviated:  WELL TYPE
 COMP.     Strike West Pty Ltd:  COMPANY
 BASE.                   Perth:  LOGGING EQUIPMENT BASE LOCATION
 REGN.                      AP:  REGION
 CTRY.               Australia:  COUNTRY NAME
 FLD .          West Erregulla:  FIELD NAME
 SRVC.                  Ensign:  CONTRACTOR
 MWDS.                Jandakot:  MWD SHOP
 WELL.        West Erregulla 5:  WELL NAME
 JOBN.        PA-XX-0907037989:  JOB TICKET NUMB
 RIG .              Ensign 970:  RIG NAME
 DCON.     Sperry Drilling Services:  DIRECTNL CONTR
 UNIT.                11741669:  LOGGING EQUIPMENT ID
 PROV.       Western Australia:  PROVINCE
 STAT.       Western Australia:  STATE NAME
 PDAT.          Mean Sea Level:  PERMANENT DATUM
 MMDL.            bggm2021.dat:  MAGNETIC MODEL
 MMDD.            06 May, 2021:  MAG DATA DATE
 MDS .              Win MagUTM:  MAG DATA SOURCE
 GCDE.     Generic Lat/Long's, Degrees, -180 ==> +180:  GEO COORD DESC
 CCDE.     UTM Zone 50S on Geocentric Datum of Australia 1994, Meters:  CART COORD DESC
 GGSY.                      LL:  GEO GRID SYS
 CGSY.             SS GDA94-50:  CART GRID SYS
 GREF.     Ellipsoid World Geodetic System :  GEO REFERENCE
 CREF.     Datum Geocentric Datum of Austra:  CART REFERENCE
 LLGR.      Latitude/Longitude:  LLGROUP
 XYGR.     Australia/New Zealand Coordinate Systems:  XYGROUP
 API .                        :  API NUMBER
 CNTY.                        :  COUNTY
 UWI .                        :  UNIQUE WELL IDENTIFIER
 LOC .                        :  LOCATION
 LMF .             Drill Floor:  LOG MEASURED FROM
 TVDS.m             224.839988:  TVDSS CORRECTN
 LATI.deg           -29.398151:  LATITUDE
 LONG.deg           115.307694:  LONGITUDE
 WHNS.m               0.000000:  WELL HEAD N/S
 WHEW.m               0.000000:  WELL HEAD E/W
 UTMX.m          335792.640000:  UTM X
 UTMY.m         6746710.760000:  UTM Y
 DFWL.m               0.000000:  DISTANCE FWL
 DFSL.m               0.000000:  DISTANCE FSL
 SDEP.m              61.000002:  START DEPTH
 TDD .m            5015.000011:  TOTAL DEPTH (DRILLER)
 VSDR.deg             0.000000:  VERT SEC DIRECT
 GVFD.g               1.000000:  GRAVITY FIELD
 MFLD.nT          56933.789063:  MAGNETIC FIELD
 MDIP.deg           -63.343086:  MAGNETIC DIP
 MDEC.deg            -1.413625:  MAGNETIC DECL
 GRDC.deg             0.830898:  GRID CORRECTION
 AZTC.deg            -2.244523:  AZM TOTAL CORR
 EPD .m               0.000000:  ELEVATION
 EGL .m             217.679997:  GROUND ELEVATION
 WDMS.m               0.000000:  WD ELEV
 APD .m             224.839988:  DEPTH ABOVE PD
 AGAP.m               7.160000:  AIR GAP
 MMDE.m             -68.531232:  MAGUTM CALC DEP
 DEP .m               0.000000:  DEPTH
 CMER.deg           117.000000:  CENTRL MERIDIAN
 EKB .m               0.000000:  KB ELEVATION
 EDF .m             224.839988:  DF ELEVATION
 VSC .                       1:  VS TO CLOSURE
 MAGU.                 1375590:  MAGUTM CHECKSUM
~Parameter Information Block
#MNEM.UNIT       Value        Description
#---------     -----------    ---------------------------
 AV  .mps             2.583333:  Ann Velocity 
 AVMX.mps             2.933333:  Max Ann Veloc 
 AZIF.deg           193.410004:  Azm, Final 
 BHAT.                  Rotary:  BHA Type 
 BREV.krev          608.299988:  Rev Bit Total 
 BROT.°/30m           0.100000:  Build Rotating 
 BS  .mm            215.899994:  Bit Size 
 BTPL.kPag         3385.350342:  Bit Press Loss 
 CGEO.               Joe Emery:  Customer Geo 
 COMM.                     de~:  Run Comments 1 
 TCS .hr            130.012054:  Time Ciculation Ended 
 CV  .mps             4.100000:  Crit Velocity 
 CVMX.mps             4.100000:  Max Crit Veloc 
 DD1 .           Wayne Parsons:  Direct Drillr 1 
 DDSV.                   Other:  DD Service 
 DEFF.%              98.000000:  % Det Eff 
 DLRX.°/30m           0.680000:  Dogleg Rot Max 
 DLSO.°/30m           0.000000:  Dogleg Oriented 
 DLSX.°/30m           0.000000:  Dogleg Str Max 
 DRET.      22.50.00 17-Jun-21:  Drill End Time 
 DRST.      14.00.00 11-Jun-21:  Drill Start Tim 
 DTIM.hr            107.500000:  Time Drilling 
 EDEP.m            5015.000000:  End Depth 
 ENG1.           Liam ODonnell:  Engineer 1 
 ENG2.               Alan Rule:  Engineer 2 
 ENG3.        Vitaly Vasilenko:  Engineer 3 
 ETIM.      11.38.00 18-Jun-21:  End Time 
 FLOI.m3pm            2.100841:  Flow In 
 FLON.m3pm            2.044061:  Flow In Min 
 FLOS.mptm            3.000000:  Fluid Loss 
 FLOX.m3pm            2.380953:  Flow In Max 
 DFT .                 Polymer:  Mud Type 
 HFLO.                      No:  High Flow 
 HPRE.                      No:  High Pressure 
 HTEM.                      No:  High Temp 
 HYDO.m               2.500000:  Hydro Offset 
 IFIN.deg             5.220000:  Inc, Final 
 IMAX.deg             6.775680:  Inc Max 
 IMIN.deg             1.611614:  Inc Min 
 IMND.m            4310.580078:  Inc Min Depth 
 IMXD.m            4827.209961:  Inc Max Depth 
 JARR.                      No:  Jarring 
 LETM.      22.50.00 17-Jun-21:  Log End Time 
 LOST.hr                     0:  Lost Rig Time 
 LSTM.      14.00.00 11-Jun-21:  Log Start Time 
 MDCL.ppm         97000.000000:  Mud Chlorides 
 MDES.             Fresh Water:  Mud Desc 
 DFD .kg/m3        1222.229614:  Mud Density 
 MDMN.kg/m3        1210.247070:  Dens Mud Min 
 MDMX.kg/m3        1234.212280:  Dens Mud Max 
 PH  .pH              9.500000:  Mud pH 
 MOIL.                       0:  Run Mud Oil % 
 MOWR.                   0 100:  Run Mud OWR 
 MSND.                    0.10:  Run Mud Sand % 
 MSOL.                   12.40:  Run Mud Solids% 
 DFV .spl            62.362999:  Mud Viscosity 
 MWOD.mm            171.449997:  MWD Tool OD 
 MWSI.                      No:  Serv Intrp, MWD 
 OTIM.hr            176.676529:  Time Operating 
 PMAX.kPag        65859.195313:  Press Op, Max 
 PV  .mPsec          35.000000:  Mud PV 
 RMS .ohmm            0.080000:  Mud Resistivity 
 RMCS.ohmm            0.120000:  Mud Cake Resistivity 
 MCST.degC           21.999998:  Mud Cake Sample Temperature 
 RMFS.ohmm            0.060000:  Mud Filtrate Resistivity 
 RMFT.degC           21.999998:  Mud Filtrate Sample Temperature 
 RMMT.ohmm            0.023400:  Rm @ Max Temp 
 MST .degC           21.999998:  Mud Sample Temperature 
 RUN .                     500:  Run Number 
 ROPA.m/hr            6.800000:  ROP Avg 
 ROPN.m/hr            0.100000:  ROP Min 
 ROPX.m/hr           31.799999:  ROP Max 
 RPMA.rpm            98.000000:  RPM Surface Avg 
 RPMN.rpm            65.000000:  RPM Surface Min 
 RPMX.rpm           115.000008:  RPM Surface Max 
 RRUN.                       6:  Rig Run Number 
 RTIM.hr              0.000000:  Time Reaming 
 SAZI.deg           198.550003:  Azm, Start 
 SDEP.m            4283.000000:  Start Depth 
 SIDD.                      No:  Serv Intrp, DD 
 SINC.deg             2.000000:  Inc, Start 
 SPPA.kPag        21042.951172:  SPP Avg 
 SPPN.kPag        19677.779297:  SPP Min 
 SPPX.kPag        25117.783203:  SPP Max 
 STIM.      23.30.00 10-Jun-21:  Start Time 
 SVCS.                 DD, MWD:  Services 
 SVER.                9.200000:  Sperry Version 
 TDAT.m             732.000000:  Tot Depth Attmp 
 TDDF.                      No:  Trip for DD 
 TDLG.m             732.000000:  Tot Depth Loggd 
 TFF .                      No:  Trip for Fail 
 TQAA.kN-m            8.134908:  Torque Abs Avg 
 TQAN.kN-m            8.134908:  Torque Abs Min 
 TQAX.kN-m           14.507253:  Torque Abs Max 
 TRRT.°/30m           0.000000:  Turn Rotating 
 MRT .                    HCIM:  Maximum Recorded Temperature 
 TTMX.degC          127.000000:  Max Tool Temp 
 VS01.                90649920:  Virtual Str1 SN 
 VS02.                90649925:  Virtual Str2 SN 
 VS03.                90649923:  Virtual Str3 SN 
 WBMN.kdN            10.230908:  WOB Min 
 WITN.          Rick Dzivinski:  Customer Rep 2 
 WITN.           Mark Jachmann:  Customer Rep 
 WOBA.kdN            16.636347:  WOB Avg 
 WOBX.kdN            20.906639:  WOB Max 
 YP  .pa             15.321648:  Yield Point 
~Curve Information Block
#MNEM.UNIT                 API CODE     Curve Description
#---------               -----------    ---------------------------
 DEPT.M                 00 000 000 000:  Depth
 AFRSAC.ohmm            00 000 000 000:  AFR Shallow Avg Res BC
 AFRMAC.ohmm            00 000 000 000:  AFR Medium Avg Res BC
 AFRDAC.ohmm            00 000 000 000:  AFR Deep Avg Res BC
#Other Information
#
#WARRANTY: Halliburton will use its best efforts to furnish customers with 
#accurate information and interpretations that are part of, and incident to, the services 
#provided.  However, Halliburton cannot and does not warrant the accuracy 
#or correctness of such information and interpretations.  Under no circumstances should any 
#such information or interpretation be relied upon as the sole basis for any drilling, 
#completion, production, or financial decision or any procedure involving any risk to the 
#safety of any drilling venture, drilling rig or its crew or any other third party.  The 
#Customer has full responsibility for all drilling, completion and production operation.  
#Halliburton makes no representations or warranties, either expressed or 
#implied, including, but not limited to, the implied warranties of merchantability or fitness 
#for a particular purpose, with respect to the services rendered.  In no event will 
#Halliburton be liable for failure to obtain any particular results or for 
#any damages, including, but not limited to, indirect, special or consequential damages, 
#resulting from the use of any information or interpretation provided by Halliburton.
#
~A   DEPT      AFRSAC     AFRMAC     AFRDAC   
# ...
   4447.8000    18.5294    17.6047    18.3079
   4447.9000    17.3032    16.7615    16.7170
   4448.0000    16.9226    16.6404    16.1131
   4448.1000    17.2059    16.9598    16.1883
   4448.2000    18.0534    17.8168    16.8297
   4448.3000    18.9235    18.3936    17.5976
   4448.4000    18.1349    17.7025    16.8082
   4448.5000    18.0520    17.3273    16.6087
   4448.6000    18.1114    16.9174    16.2733
   4448.7000    18.7032    16.9910    16.3543
   4448.8000    20.0988    18.3038    17.5531
   4448.9000    24.3765    22.8488    21.7765
   4449.0000    36.0752    35.2207    33.9594
   4449.1000    62.8933    63.3747    64.1718
   4449.2000   103.3634   106.6776   112.7517
   4449.3000   101.8146   119.2124   109.7676
   4449.4000    49.5305    52.4068    46.1688
   4449.5000    28.4367    25.4094    23.2845
   4449.6000    20.5653    17.2499    15.9691
   4449.7000    18.8272    15.9365    14.3586
   4449.8000    20.0312    20.4956    15.5999
   4449.9000    21.9972    29.8873    18.1457
   4450.0000    24.9184    45.0158    22.2152
   4450.1000    28.4168    51.6565    27.4545
   4450.2000    32.6240    50.9002    34.0961
   4450.3000    36.9535    50.8347    41.5954
   4450.4000    38.9973    47.8850    46.8664
   4450.5000    38.2521    42.5040    47.7649
   4450.6000    38.3845    38.1509    48.9283
   4450.7000    39.2984    36.0908    50.2692
   4450.8000    38.8825    36.5022    48.9699
   4450.9000    36.8902    37.6516    45.4243
   4451.0000    33.8335    38.2076    40.6014
   4451.1000    30.1300    39.9740    35.1188
   4451.2000    26.5546    39.1917    29.5282
   4451.3000    23.2166    33.6282    24.0237
   4451.4000    20.7461    25.6689    19.7445
   4451.5000    18.6969    19.6362    16.5498
   4451.6000    16.8174    16.2097    14.4195
   4451.7000    15.4880    14.6799    13.2603
   4451.8000    15.1898    14.5294    13.2316
   4451.9000    16.9666    16.7640    15.3216
   4452.0000    22.6978    23.7832    21.7203
   4452.1000    31.3020    34.0069    32.3918
   4452.2000    35.2229    38.0857    38.7449
   4452.3000    32.4312    35.1890    35.1541
   4452.4000    25.6873    25.8035    26.3401
   4452.5000    22.9936    21.4674    22.4581
   4452.6000    20.4508    17.6748    19.1306
   4452.7000    18.6849    16.3278    17.2461
   4452.8000    18.7945    17.8607    17.5150
   4452.9000    21.3239    21.9299    20.5629
   4453.0000    26.2381    29.4165    26.9487
   4453.1000    32.0922    35.4043    34.7025
   4453.2000    34.9566    37.3800    38.6607
   4453.3000    35.6887    37.9534    39.2935
   4453.4000    34.7645    37.6239    36.6784
   4453.5000    30.2979    33.1166    30.6063
   4453.6000    25.5995    27.1238    25.1777
   4453.7000    23.0014    23.8006    22.5129
   4453.8000    24.1043    22.5632    23.8277
   4453.9000    25.6313    21.0726    25.2635
   4454.0000    23.5043    21.4380    22.7397
   4454.1000    21.6651    22.7636    20.6291
   4454.2000    21.4177    26.1523    20.4224
   4454.3000    23.4842    28.4175    23.2727
   4454.4000    26.3749    27.4323    27.8030
   4454.5000    26.2045    27.3650    29.0115
   4454.6000    26.8005    28.3081    30.6399
   4454.7000    27.6285    30.0535    31.7416
   4454.8000    25.4675    27.5148    28.5336
   4454.9000    21.9004    23.3670    23.6556
   4455.0000    19.2255    20.2408    20.1998
   4455.1000    17.6944    18.0127    18.1774
   4455.2000    16.6560    16.3567    16.8325
   4455.3000    15.7929    15.5162    15.7379
   4455.4000    15.2519    15.8052    15.1022
   4455.5000    16.0323    17.5195    16.0247
   4455.6000    16.5841    18.7316    16.9336
   4455.7000    18.1449    20.8228    19.0966
   4455.8000    19.9223    22.6867    21.4625
   4455.9000    21.5353    23.7178    23.5157
   4456.0000    22.1203    23.2151    24.1704
   4456.1000    20.8212    20.9275    22.5497
   4456.2000    20.3808    20.3799    21.7546
   4456.3000    19.4116    19.9699    20.3476
   4456.4000    18.1348    18.7267    18.5460
   4456.5000    17.8111    18.4114    17.7380
   4456.6000    18.0623    17.0248    17.4891
   4456.7000    18.2097    17.4517    17.1483
   4456.8000    19.2891    19.4572    18.1687
   4456.9000    21.2906    24.0589    20.6689
   4457.0000    26.2544    30.9046    26.8861
   4457.1000    28.8047    31.5095    30.5048
   4457.2000    28.8549    29.3008    30.9531
   4457.3000    31.4714    31.0201    34.1940
   4457.4000    38.1074    37.6531    42.7952
   4457.5000    43.1189    41.5504    50.2319
   4457.6000    38.3292    37.4050    44.2026
   4457.7000    29.8610    28.0243    32.8072
   4457.8000    22.7856    21.6470    24.0559
   4457.9000    20.2625    19.8426    21.0332
   4458.0000    18.4109    18.7535    19.2072
   4458.1000    17.5135    18.2871    18.6132
   4458.2000    16.8436    17.7584    18.2909
   4458.3000    16.6765    17.7705    18.5940
   4458.4000    16.7579    17.9555    19.0783
   4458.5000    16.1607    17.0203    18.4445
   4458.6000    14.8697    15.7588    16.7537
   4458.7000    13.5988    14.4982    15.0267
   4458.8000    12.7896    13.9054    13.8845
   4458.9000    12.4278    13.4602    13.2977
   4459.0000    12.2878    13.0756    12.9454
   4459.1000    12.2585    12.6536    12.6930
   4459.2000    12.2958    12.0258    12.4554
   4459.3000    12.8198    11.9946    12.7119
   4459.4000    13.3329    11.8082    12.9748
   4459.5000    13.8798    12.5031    13.4657
   4459.6000    14.5448    13.4323    14.2883
   4459.7000    15.3213    14.8122    15.4119
   4459.8000    16.2577    16.1264    16.8177
   4459.9000    17.9122    18.0532    19.0124
   4460.0000    20.0908    20.3195    21.6668
   4460.1000    21.4500    21.4401    23.0103
   4460.2000    20.0309    19.5613    20.8928
   4460.3000    18.9293    18.3716    19.2426
   4460.4000    19.3814    19.6510    19.3912
   4460.5000    19.3288    19.9999    18.8655
   4460.6000    18.2348    18.5342    17.2299
   4460.7000    15.9946    15.4590    14.7300
   4460.8000    15.3454    14.3838    14.0789
   4460.9000    16.3486    15.6056    15.2834
   4461.0000    16.5248    16.4026    15.9117
   4461.1000    16.5988    17.2300    16.5082
   4461.2000    16.7432    17.7175    17.0935
   4461.3000    18.0847    19.4225    19.1219
   4461.4000    19.9088    20.0024    21.6262
   4461.5000    20.6933    19.3962    22.4978
   4461.6000    20.4031    18.0853    21.9759
   4461.7000    19.7221    17.2106    21.0189
   4461.8000    19.7595    17.9564    20.9455
   4461.9000    18.7291    18.0536    19.6760
   4462.0000    17.5732    17.8931    18.1908
   4462.1000    16.1823    17.1113    16.4757
   4462.2000    15.6259    15.8612    15.6967
   4462.3000    15.5813    15.2964    15.2834
   4462.4000    15.9221    15.2522    15.3491
   4462.5000    16.6557    16.1648    16.0591
   4462.6000    18.0105    19.0510    17.7797
   4462.7000    20.6361    20.4045    21.1385
   4462.8000    21.2874    20.5803    22.1281
   4462.9000    20.4477    19.2020    21.1596
   4463.0000    18.7835    17.2017    19.0728
   4463.1000    17.6502    16.5482    17.4657
   4463.2000    17.6190    15.7825    17.0558
   4463.3000    17.2013    15.7477    16.4340
   4463.4000    16.8385    15.9098    16.1342
   4463.5000    17.3694    16.8210    16.7777
   4463.6000    18.5250    18.1270    18.0949
   4463.7000    20.4982    20.3037    20.1798
   4463.8000    21.5136    20.9321    21.2132
   4463.9000    20.4032    19.5879    19.8525
   4464.0000    18.7546    17.6216    18.0113
   4464.1000    18.8842    17.7024    18.0797
   4464.2000    19.9876    19.7209    19.3987
   4464.3000    20.4945    20.9531    20.2682
   4464.4000    19.6124    20.9216    19.5865
   4464.5000    18.3113    19.0019    18.3492
   4464.6000    18.0619    18.3085    18.2344
   4464.7000    18.3325    18.3979    18.6875
   4464.8000    18.4152    18.5932    18.9527
   4464.9000    19.1496    19.2046    19.8816
   4465.0000    19.6274    19.7331    20.5279
   4465.1000    20.1578    20.3253    21.2383
