~Version Information
 VERS.                  2.0:   CWLS log ASCII Standard -VERSION 2.0
 WRAP.                   NO:   One line per depth step
~Well Information Block
#MNEM.UNIT     VALUE/NAME     DESCRIPTION
#---------     -----------    ---------------------------
 STRT.M              3630.0000: START DEPTH
 STOP.M              5008.7000: STOP DEPTH
 STEP.M                 0.1000: STEP DEPTH
 NULL.               -999.2500: NULL VALUE
 DFWT.                        :  DIST FWL TEXT
 DFST.                        :  DIST FSL TEXT
 DMF .             Drill Floor:  DRILL MEAS FROM
 STIM.      10.30.00 08-May-21:  START TIME
 DATE.      11.38.00 18-Jun-21:  END TIME
 SPUD.               08-May-21:  SPUD DATE
 NREF.                    Grid:  NORTH REFERENCE
 HPTY.       Minimum Curvature:  HOLE POS TYPE
 DMOD.             Drill Model:  DRILL MOD DESC
 SVYD.                  Survey:  SURVEY DESC
 ILTD.               Lithology:  INTERP LTH DESC
 FTOP.          Formation Tops:  FORM TOPS DESC
 SON .        PA-XX-0907037989:  JOB NUMBER
 WTYP.                Deviated:  WELL TYPE
 COMP.     Strike West Pty Ltd:  COMPANY
 BASE.                   Perth:  LOGGING EQUIPMENT BASE LOCATION
 REGN.                      AP:  REGION
 CTRY.               Australia:  COUNTRY NAME
 FLD .          West Erregulla:  FIELD NAME
 SRVC.                  Ensign:  CONTRACTOR
 MWDS.                Jandakot:  MWD SHOP
 WELL.        West Erregulla 5:  WELL NAME
 JOBN.        PA-XX-0907037989:  JOB TICKET NUMB
 RIG .              Ensign 970:  RIG NAME
 DCON.     Sperry Drilling Services:  DIRECTNL CONTR
 UNIT.                11741669:  LOGGING EQUIPMENT ID
 PROV.       Western Australia:  PROVINCE
 STAT.       Western Australia:  STATE NAME
 PDAT.          Mean Sea Level:  PERMANENT DATUM
 MMDL.            bggm2021.dat:  MAGNETIC MODEL
 MMDD.            06 May, 2021:  MAG DATA DATE
 MDS .              Win MagUTM:  MAG DATA SOURCE
 GCDE.     Generic Lat/Long's, Degrees, -180 ==> +180:  GEO COORD DESC
 CCDE.     UTM Zone 50S on Geocentric Datum of Australia 1994, Meters:  CART COORD DESC
 GGSY.                      LL:  GEO GRID SYS
 CGSY.             SS GDA94-50:  CART GRID SYS
 GREF.     Ellipsoid World Geodetic System :  GEO REFERENCE
 CREF.     Datum Geocentric Datum of Austra:  CART REFERENCE
 LLGR.      Latitude/Longitude:  LLGROUP
 XYGR.     Australia/New Zealand Coordinate Systems:  XYGROUP
 API .                        :  API NUMBER
 CNTY.                        :  COUNTY
 UWI .                        :  UNIQUE WELL IDENTIFIER
 LOC .                        :  LOCATION
 LMF .             Drill Floor:  LOG MEASURED FROM
 TVDS.m             224.839988:  TVDSS CORRECTN
 LATI.deg           -29.398151:  LATITUDE
 LONG.deg           115.307694:  LONGITUDE
 WHNS.m               0.000000:  WELL HEAD N/S
 WHEW.m               0.000000:  WELL HEAD E/W
 UTMX.m          335792.640000:  UTM X
 UTMY.m         6746710.760000:  UTM Y
 DFWL.m               0.000000:  DISTANCE FWL
 DFSL.m               0.000000:  DISTANCE FSL
 SDEP.m              61.000002:  START DEPTH
 TDD .m            5015.000011:  TOTAL DEPTH (DRILLER)
 VSDR.deg             0.000000:  VERT SEC DIRECT
 GVFD.g               1.000000:  GRAVITY FIELD
 MFLD.nT          56933.789063:  MAGNETIC FIELD
 MDIP.deg           -63.343086:  MAGNETIC DIP
 MDEC.deg            -1.413625:  MAGNETIC DECL
 GRDC.deg             0.830898:  GRID CORRECTION
 AZTC.deg            -2.244523:  AZM TOTAL CORR
 EPD .m               0.000000:  ELEVATION
 EGL .m             217.679997:  GROUND ELEVATION
 WDMS.m               0.000000:  WD ELEV
 APD .m             224.839988:  DEPTH ABOVE PD
 AGAP.m               7.160000:  AIR GAP
 MMDE.m             -68.531232:  MAGUTM CALC DEP
 DEP .m               0.000000:  DEPTH
 CMER.deg           117.000000:  CENTRL MERIDIAN
 EKB .m               0.000000:  KB ELEVATION
 EDF .m             224.839988:  DF ELEVATION
 VSC .                       1:  VS TO CLOSURE
 MAGU.                 1375590:  MAGUTM CHECKSUM
~Parameter Information Block
#MNEM.UNIT       Value        Description
#---------     -----------    ---------------------------
 AV  .mps             2.583333:  Ann Velocity 
 AVMX.mps             2.933333:  Max Ann Veloc 
 AZIF.deg           193.410004:  Azm, Final 
 BHAT.                  Rotary:  BHA Type 
 BREV.krev          608.299988:  Rev Bit Total 
 BROT.°/30m           0.100000:  Build Rotating 
 BS  .mm            215.899994:  Bit Size 
 BTPL.kPag         3385.350342:  Bit Press Loss 
 CGEO.               Joe Emery:  Customer Geo 
 COMM.                     de~:  Run Comments 1 
 TCS .hr            130.012054:  Time Ciculation Ended 
 CV  .mps             4.100000:  Crit Velocity 
 CVMX.mps             4.100000:  Max Crit Veloc 
 DD1 .           Wayne Parsons:  Direct Drillr 1 
 DDSV.                   Other:  DD Service 
 DEFF.%              98.000000:  % Det Eff 
 DLRX.°/30m           0.680000:  Dogleg Rot Max 
 DLSO.°/30m           0.000000:  Dogleg Oriented 
 DLSX.°/30m           0.000000:  Dogleg Str Max 
 DRET.      22.50.00 17-Jun-21:  Drill End Time 
 DRST.      14.00.00 11-Jun-21:  Drill Start Tim 
 DTIM.hr            107.500000:  Time Drilling 
 EDEP.m            5015.000000:  End Depth 
 ENG1.           Liam ODonnell:  Engineer 1 
 ENG2.               Alan Rule:  Engineer 2 
 ENG3.        Vitaly Vasilenko:  Engineer 3 
 ETIM.      11.38.00 18-Jun-21:  End Time 
 FLOI.m3pm            2.100841:  Flow In 
 FLON.m3pm            2.044061:  Flow In Min 
 FLOS.mptm            3.000000:  Fluid Loss 
 FLOX.m3pm            2.380953:  Flow In Max 
 DFT .                 Polymer:  Mud Type 
 HFLO.                      No:  High Flow 
 HPRE.                      No:  High Pressure 
 HTEM.                      No:  High Temp 
 HYDO.m               2.500000:  Hydro Offset 
 IFIN.deg             5.220000:  Inc, Final 
 IMAX.deg             6.775680:  Inc Max 
 IMIN.deg             1.611614:  Inc Min 
 IMND.m            4310.580078:  Inc Min Depth 
 IMXD.m            4827.209961:  Inc Max Depth 
 JARR.                      No:  Jarring 
 LETM.      22.50.00 17-Jun-21:  Log End Time 
 LOST.hr                     0:  Lost Rig Time 
 LSTM.      14.00.00 11-Jun-21:  Log Start Time 
 MDCL.ppm         97000.000000:  Mud Chlorides 
 MDES.             Fresh Water:  Mud Desc 
 DFD .kg/m3        1222.229614:  Mud Density 
 MDMN.kg/m3        1210.247070:  Dens Mud Min 
 MDMX.kg/m3        1234.212280:  Dens Mud Max 
 PH  .pH              9.500000:  Mud pH 
 MOIL.                       0:  Run Mud Oil % 
 MOWR.                   0 100:  Run Mud OWR 
 MSND.                    0.10:  Run Mud Sand % 
 MSOL.                   12.40:  Run Mud Solids% 
 DFV .spl            62.362999:  Mud Viscosity 
 MWOD.mm            171.449997:  MWD Tool OD 
 MWSI.                      No:  Serv Intrp, MWD 
 OTIM.hr            176.676529:  Time Operating 
 PMAX.kPag        65859.195313:  Press Op, Max 
 PV  .mPsec          35.000000:  Mud PV 
 RMS .ohmm            0.080000:  Mud Resistivity 
 RMCS.ohmm            0.120000:  Mud Cake Resistivity 
 MCST.degC           21.999998:  Mud Cake Sample Temperature 
 RMFS.ohmm            0.060000:  Mud Filtrate Resistivity 
 RMFT.degC           21.999998:  Mud Filtrate Sample Temperature 
 RMMT.ohmm            0.023400:  Rm @ Max Temp 
 MST .degC           21.999998:  Mud Sample Temperature 
 RUN .                     500:  Run Number 
 ROPA.m/hr            6.800000:  ROP Avg 
 ROPN.m/hr            0.100000:  ROP Min 
 ROPX.m/hr           31.799999:  ROP Max 
 RPMA.rpm            98.000000:  RPM Surface Avg 
 RPMN.rpm            65.000000:  RPM Surface Min 
 RPMX.rpm           115.000008:  RPM Surface Max 
 RRUN.                       6:  Rig Run Number 
 RTIM.hr              0.000000:  Time Reaming 
 SAZI.deg           198.550003:  Azm, Start 
 SDEP.m            4283.000000:  Start Depth 
 SIDD.                      No:  Serv Intrp, DD 
 SINC.deg             2.000000:  Inc, Start 
 SPPA.kPag        21042.951172:  SPP Avg 
 SPPN.kPag        19677.779297:  SPP Min 
 SPPX.kPag        25117.783203:  SPP Max 
 STIM.      23.30.00 10-Jun-21:  Start Time 
 SVCS.                 DD, MWD:  Services 
 SVER.                9.200000:  Sperry Version 
 TDAT.m             732.000000:  Tot Depth Attmp 
 TDDF.                      No:  Trip for DD 
 TDLG.m             732.000000:  Tot Depth Loggd 
 TFF .                      No:  Trip for Fail 
 TQAA.kN-m            8.134908:  Torque Abs Avg 
 TQAN.kN-m            8.134908:  Torque Abs Min 
 TQAX.kN-m           14.507253:  Torque Abs Max 
 TRRT.°/30m           0.000000:  Turn Rotating 
 MRT .                    HCIM:  Maximum Recorded Temperature 
 TTMX.degC          127.000000:  Max Tool Temp 
 VS01.                90649920:  Virtual Str1 SN 
 VS02.                90649925:  Virtual Str2 SN 
 VS03.                90649923:  Virtual Str3 SN 
 WBMN.kdN            10.230908:  WOB Min 
 WITN.          Rick Dzivinski:  Customer Rep 2 
 WITN.           Mark Jachmann:  Customer Rep 
 WOBA.kdN            16.636347:  WOB Avg 
 WOBX.kdN            20.906639:  WOB Max 
 YP  .pa             15.321648:  Yield Point 
~Curve Information Block
#MNEM.UNIT                 API CODE     Curve Description
#---------               -----------    ---------------------------
 DEPT.M                 00 000 000 000:  Depth
 AFRSAC.ohmm            00 000 000 000:  AFR Shallow Avg Res BC
 AFRMAC.ohmm            00 000 000 000:  AFR Medium Avg Res BC
 AFRDAC.ohmm            00 000 000 000:  AFR Deep Avg Res BC
#Other Information
#
#WARRANTY: Halliburton will use its best efforts to furnish customers with 
#accurate information and interpretations that are part of, and incident to, the services 
#provided.  However, Halliburton cannot and does not warrant the accuracy 
#or correctness of such information and interpretations.  Under no circumstances should any 
#such information or interpretation be relied upon as the sole basis for any drilling, 
#completion, production, or financial decision or any procedure involving any risk to the 
#safety of any drilling venture, drilling rig or its crew or any other third party.  The 
#Customer has full responsibility for all drilling, completion and production operation.  
#Halliburton makes no representations or warranties, either expressed or 
#implied, including, but not limited to, the implied warranties of merchantability or fitness 
#for a particular purpose, with respect to the services rendered.  In no event will 
#Halliburton be liable for failure to obtain any particular results or for 
#any damages, including, but not limited to, indirect, special or consequential damages, 
#resulting from the use of any information or interpretation provided by Halliburton.
#
~A   DEPT      AFRSAC     AFRMAC     AFRDAC   
# ...
   4708.8000    47.8375    42.3022    41.6910
   4708.9000    46.4559    41.0494    39.5514
   4709.0000    46.6248    44.2691    40.2830
   4709.1000    50.9457    55.8818    46.9315
   4709.2000    56.0999    87.8132    55.4340
   4709.3000    65.2741   190.4993    68.0757
   4709.4000    74.9601   359.7623    76.5932
   4709.5000    76.1836   239.8868    74.1696
   4709.6000    79.0047   105.5505    75.9674
   4709.7000    70.1599    61.9723    71.6205
   4709.8000    63.1078    53.8918    70.3732
   4709.9000    62.1295    54.3602    68.5252
   4710.0000    62.4995    54.8619    60.3535
   4710.1000    62.9862    50.9493    53.4675
   4710.2000    58.4947    46.1646    47.9638
   4710.3000    51.5254    43.5103    44.5224
   4710.4000    46.4966    41.2571    41.9785
   4710.5000    45.4742    40.8518    40.6220
   4710.6000    44.5806    45.2219    40.3928
   4710.7000    45.9636    60.6985    43.7628
   4710.8000    49.7601    90.3594    50.0960
   4710.9000    53.3889   111.7722    55.4578
   4711.0000    52.2294    86.7700    53.7117
   4711.1000    46.5011    56.2371    46.3248
   4711.2000    42.2790    41.7429    41.4630
   4711.3000    41.7720    38.0054    40.9800
   4711.4000    42.2238    38.0120    42.4339
   4711.5000    44.0302    43.7255    46.4146
   4711.6000    49.4289    55.3869    55.5829
   4711.7000    55.2200    72.4963    67.1908
   4711.8000    57.2681    86.5070    74.5859
   4711.9000    51.9660    74.2128    67.7987
   4712.0000    44.6153    62.8625    55.9039
   4712.1000    39.2784    51.6539    46.2130
   4712.2000    36.7603    44.6634    40.5564
   4712.3000    35.3939    41.3653    37.1065
   4712.4000    35.5624    43.1670    36.0983
   4712.5000    36.9643    47.3204    36.9112
   4712.6000    39.0566    45.8171    38.7892
   4712.7000    41.7518    42.7550    41.1350
   4712.8000    45.7619    43.3040    44.7309
   4712.9000    46.0776    44.7618    45.3029
   4713.0000    46.3789    47.9512    46.5645
   4713.1000    44.4294    45.3027    45.5125
   4713.2000    44.3769    43.7667    45.5359
   4713.3000    45.0355    44.1230    46.0116
   4713.4000    45.4617    48.2248    47.5810
   4713.5000    51.0739    60.3185    56.3469
   4713.6000    60.1361    77.0963    69.5453
   4713.7000    70.1549    85.4302    83.7887
   4713.8000    66.3072    69.3461    75.9591
   4713.9000    56.9367    57.0578    61.2211
   4714.0000    46.9585    48.2527    49.0090
   4714.1000    45.0839    50.7236    47.6193
   4714.2000    46.7595    53.8418    50.4699
   4714.3000    52.3513    60.7335    59.0828
   4714.4000    59.9246    71.5635    71.0236
   4714.5000    68.2308    84.4954    83.6882
   4714.6000    76.0707   113.6732    94.5516
   4714.7000    74.3082   127.3008    82.5220
   4714.8000    72.4265    98.6486    73.8784
   4714.9000    70.4117    85.9117    67.9737
   4715.0000    67.6921    69.7128    62.7313
   4715.1000    68.8556    61.5704    60.4023
   4715.2000    58.6814    50.4934    48.7597
   4715.3000    49.4821    39.5306    41.1381
   4715.4000    42.3687    35.2487    37.0124
   4715.5000    36.0991    34.1210    35.5093
   4715.6000    31.7923    35.9218    37.7289
   4715.7000    28.7386    36.4626    39.7737
   4715.8000    27.4153    36.4152    41.6885
   4715.9000    27.1413    35.8007    42.3335
   4716.0000    27.6544    35.9169    42.4769
   4716.1000    28.1145    37.3017    42.1345
   4716.2000    29.0943    37.4506    42.4839
   4716.3000    30.7270    35.2516    43.2682
   4716.4000    34.2134    33.4186    45.4982
   4716.5000    38.8184    31.9516    48.1679
   4716.6000    39.6076    33.3888    44.8952
   4716.7000    38.1656    34.8043    40.6948
   4716.8000    35.0873    35.8390    36.2683
   4716.9000    33.8133    36.4677    34.5212
   4717.0000    35.3246    37.0809    36.3555
   4717.1000    39.0970    37.5622    41.8255
   4717.2000    44.7429    37.4235    51.2178
   4717.3000    49.2013    37.7101    59.9578
   4717.4000    49.2015    44.0139    59.4321
   4717.5000    48.5249    60.1305    54.8775
   4717.6000    44.7222    74.2394    48.2711
   4717.7000    42.3931    68.2738    44.8150
   4717.8000    39.0133    51.2703    41.2421
   4717.9000    37.8790    41.5370    39.7719
   4718.0000    38.7698    41.3929    40.3321
   4718.1000    39.7269    42.3721    41.4649
   4718.2000    40.1422    42.6890    42.0852
   4718.3000    40.3480    41.7602    41.2736
   4718.4000    40.9026    40.4029    39.9678
   4718.5000    41.5068    39.6188    39.0064
   4718.6000    42.5708    40.3245    39.9596
   4718.7000    47.4885    44.0196    46.6870
   4718.8000    59.1702    54.1342    60.4488
   4718.9000    77.4877    70.3765    79.3302
   4719.0000    86.6020    84.0975    85.5502
   4719.1000    74.9093    76.5856    71.5689
   4719.2000    59.0054    60.3805    56.5451
   4719.3000    49.2017    47.6812    48.1490
   4719.4000    44.0544    42.5672    43.9004
   4719.5000    41.2329    40.3985    42.1674
   4719.6000    39.0827    39.5928    41.0234
   4719.7000    37.0587    37.9582    39.4081
   4719.8000    35.3077    36.2108    37.7361
   4719.9000    33.5267    34.7313    35.8713
   4720.0000    32.6991    34.6629    35.5437
   4720.1000    31.6832    34.4645    35.4468
   4720.2000    31.1360    33.8281    35.7311
   4720.3000    31.1163    33.4659    36.5228
   4720.4000    31.4235    33.8923    37.3950
   4720.5000    31.4390    35.3548    38.1477
   4720.6000    31.2040    36.5449    37.8592
   4720.7000    31.2533    35.6817    37.5582
   4720.8000    31.4080    35.2024    37.3878
   4720.9000    32.3216    36.1572    37.8220
   4721.0000    32.8262    35.4757    38.4913
   4721.1000    33.3589    34.9536    40.0159
   4721.2000    34.6883    35.6810    42.9875
   4721.3000    36.0459    38.7993    46.3295
   4721.4000    36.4350    43.7669    47.7885
   4721.5000    34.8684    41.7260    45.5488
   4721.6000    32.1454    36.7748    41.4380
   4721.7000    30.3329    33.3360    37.9813
   4721.8000    30.0489    32.5033    36.0769
   4721.9000    30.0644    32.9638    34.7740
   4722.0000    30.6559    34.3728    34.2083
   4722.1000    32.2717    36.1054    35.0107
   4722.2000    34.7259    39.3266    37.7728
   4722.3000    37.9654    41.3348    41.5368
   4722.4000    40.4414    42.3644    43.9376
   4722.5000    39.3102    41.5087    46.4177
   4722.6000    25.5243    46.4409    50.9383
   4722.7000     6.2371    67.7334    67.3799
   4722.8000     1.9898   173.7090   103.1289
   4722.9000     0.8411   671.2411   172.8169
   4723.0000     0.4907  1162.2229   269.7886
   4723.1000     0.4109  1264.1501   335.2098
   4723.2000     0.4128  1082.1096   313.7360
   4723.3000     0.4886   569.7120   232.6852
   4723.4000     0.5938   197.8345   155.3353
   4723.5000     0.8437    64.7380    71.9585
   4723.6000     1.7233    34.3125    40.1975
   4723.7000     7.2727    26.2644    30.6050
   4723.8000    23.1586    25.3433    28.2274
   4723.9000    27.8011    26.7800    28.9318
   4724.0000    27.7886    29.3985    30.2384
   4724.1000    28.4909    32.4385    32.2160
   4724.2000    29.1655    34.6892    34.5979
   4724.3000    30.3625    38.3066    37.4067
   4724.4000    30.9492    39.4650    38.7299
   4724.5000    30.1585    36.4680    37.5317
   4724.6000    30.3198    33.4709    37.5155
   4724.7000    31.2796    32.3955    38.8264
   4724.8000    33.0813    33.6502    41.0905
   4724.9000    34.8485    35.9269    42.8564
   4725.0000    34.5720    36.9031    42.0123
   4725.1000    33.2522    35.4638    39.8336
   4725.2000    31.4321    33.1810    37.0653
   4725.3000    29.0796    30.7370    34.1077
   4725.4000    28.5354    30.2700    33.9117
   4725.5000    30.3293    33.5620    37.3252
   4725.6000    33.9951    38.6901    43.6381
   4725.7000    37.1600    41.7639    49.0344
   4725.8000    35.6565    39.1070    46.1066
   4725.9000    32.4737    34.4791    40.1492
   4726.0000    29.7313    31.2150    35.0502
   4726.1000    29.4915    31.3647    33.6566
