~Version Information
 VERS.                  2.0:   CWLS log ASCII Standard -VERSION 2.0
 WRAP.                   NO:   One line per depth step
~Well Information Block
#MNEM.UNIT     VALUE/NAME     DESCRIPTION
#---------     -----------    ---------------------------
 STRT.M              3630.0000: START DEPTH
 STOP.M              5008.7000: STOP DEPTH
 STEP.M                 0.1000: STEP DEPTH
 NULL.               -999.2500: NULL VALUE
 DFWT.                        :  DIST FWL TEXT
 DFST.                        :  DIST FSL TEXT
 DMF .             Drill Floor:  DRILL MEAS FROM
 STIM.      10.30.00 08-May-21:  START TIME
 DATE.      11.38.00 18-Jun-21:  END TIME
 SPUD.               08-May-21:  SPUD DATE
 NREF.                    Grid:  NORTH REFERENCE
 HPTY.       Minimum Curvature:  HOLE POS TYPE
 DMOD.             Drill Model:  DRILL MOD DESC
 SVYD.                  Survey:  SURVEY DESC
 ILTD.               Lithology:  INTERP LTH DESC
 FTOP.          Formation Tops:  FORM TOPS DESC
 SON .        PA-XX-0907037989:  JOB NUMBER
 WTYP.                Deviated:  WELL TYPE
 COMP.     Strike West Pty Ltd:  COMPANY
 BASE.                   Perth:  LOGGING EQUIPMENT BASE LOCATION
 REGN.                      AP:  REGION
 CTRY.               Australia:  COUNTRY NAME
 FLD .          West Erregulla:  FIELD NAME
 SRVC.                  Ensign:  CONTRACTOR
 MWDS.                Jandakot:  MWD SHOP
 WELL.        West Erregulla 5:  WELL NAME
 JOBN.        PA-XX-0907037989:  JOB TICKET NUMB
 RIG .              Ensign 970:  RIG NAME
 DCON.     Sperry Drilling Services:  DIRECTNL CONTR
 UNIT.                11741669:  LOGGING EQUIPMENT ID
 PROV.       Western Australia:  PROVINCE
 STAT.       Western Australia:  STATE NAME
 PDAT.          Mean Sea Level:  PERMANENT DATUM
 MMDL.            bggm2021.dat:  MAGNETIC MODEL
 MMDD.            06 May, 2021:  MAG DATA DATE
 MDS .              Win MagUTM:  MAG DATA SOURCE
 GCDE.     Generic Lat/Long's, Degrees, -180 ==> +180:  GEO COORD DESC
 CCDE.     UTM Zone 50S on Geocentric Datum of Australia 1994, Meters:  CART COORD DESC
 GGSY.                      LL:  GEO GRID SYS
 CGSY.             SS GDA94-50:  CART GRID SYS
 GREF.     Ellipsoid World Geodetic System :  GEO REFERENCE
 CREF.     Datum Geocentric Datum of Austra:  CART REFERENCE
 LLGR.      Latitude/Longitude:  LLGROUP
 XYGR.     Australia/New Zealand Coordinate Systems:  XYGROUP
 API .                        :  API NUMBER
 CNTY.                        :  COUNTY
 UWI .                        :  UNIQUE WELL IDENTIFIER
 LOC .                        :  LOCATION
 LMF .             Drill Floor:  LOG MEASURED FROM
 TVDS.m             224.839988:  TVDSS CORRECTN
 LATI.deg           -29.398151:  LATITUDE
 LONG.deg           115.307694:  LONGITUDE
 WHNS.m               0.000000:  WELL HEAD N/S
 WHEW.m               0.000000:  WELL HEAD E/W
 UTMX.m          335792.640000:  UTM X
 UTMY.m         6746710.760000:  UTM Y
 DFWL.m               0.000000:  DISTANCE FWL
 DFSL.m               0.000000:  DISTANCE FSL
 SDEP.m              61.000002:  START DEPTH
 TDD .m            5015.000011:  TOTAL DEPTH (DRILLER)
 VSDR.deg             0.000000:  VERT SEC DIRECT
 GVFD.g               1.000000:  GRAVITY FIELD
 MFLD.nT          56933.789063:  MAGNETIC FIELD
 MDIP.deg           -63.343086:  MAGNETIC DIP
 MDEC.deg            -1.413625:  MAGNETIC DECL
 GRDC.deg             0.830898:  GRID CORRECTION
 AZTC.deg            -2.244523:  AZM TOTAL CORR
 EPD .m               0.000000:  ELEVATION
 EGL .m             217.679997:  GROUND ELEVATION
 WDMS.m               0.000000:  WD ELEV
 APD .m             224.839988:  DEPTH ABOVE PD
 AGAP.m               7.160000:  AIR GAP
 MMDE.m             -68.531232:  MAGUTM CALC DEP
 DEP .m               0.000000:  DEPTH
 CMER.deg           117.000000:  CENTRL MERIDIAN
 EKB .m               0.000000:  KB ELEVATION
 EDF .m             224.839988:  DF ELEVATION
 VSC .                       1:  VS TO CLOSURE
 MAGU.                 1375590:  MAGUTM CHECKSUM
~Parameter Information Block
#MNEM.UNIT       Value        Description
#---------     -----------    ---------------------------
 AV  .mps             2.583333:  Ann Velocity 
 AVMX.mps             2.933333:  Max Ann Veloc 
 AZIF.deg           193.410004:  Azm, Final 
 BHAT.                  Rotary:  BHA Type 
 BREV.krev          608.299988:  Rev Bit Total 
 BROT.°/30m           0.100000:  Build Rotating 
 BS  .mm            215.899994:  Bit Size 
 BTPL.kPag         3385.350342:  Bit Press Loss 
 CGEO.               Joe Emery:  Customer Geo 
 COMM.                     de~:  Run Comments 1 
 TCS .hr            130.012054:  Time Ciculation Ended 
 CV  .mps             4.100000:  Crit Velocity 
 CVMX.mps             4.100000:  Max Crit Veloc 
 DD1 .           Wayne Parsons:  Direct Drillr 1 
 DDSV.                   Other:  DD Service 
 DEFF.%              98.000000:  % Det Eff 
 DLRX.°/30m           0.680000:  Dogleg Rot Max 
 DLSO.°/30m           0.000000:  Dogleg Oriented 
 DLSX.°/30m           0.000000:  Dogleg Str Max 
 DRET.      22.50.00 17-Jun-21:  Drill End Time 
 DRST.      14.00.00 11-Jun-21:  Drill Start Tim 
 DTIM.hr            107.500000:  Time Drilling 
 EDEP.m            5015.000000:  End Depth 
 ENG1.           Liam ODonnell:  Engineer 1 
 ENG2.               Alan Rule:  Engineer 2 
 ENG3.        Vitaly Vasilenko:  Engineer 3 
 ETIM.      11.38.00 18-Jun-21:  End Time 
 FLOI.m3pm            2.100841:  Flow In 
 FLON.m3pm            2.044061:  Flow In Min 
 FLOS.mptm            3.000000:  Fluid Loss 
 FLOX.m3pm            2.380953:  Flow In Max 
 DFT .                 Polymer:  Mud Type 
 HFLO.                      No:  High Flow 
 HPRE.                      No:  High Pressure 
 HTEM.                      No:  High Temp 
 HYDO.m               2.500000:  Hydro Offset 
 IFIN.deg             5.220000:  Inc, Final 
 IMAX.deg             6.775680:  Inc Max 
 IMIN.deg             1.611614:  Inc Min 
 IMND.m            4310.580078:  Inc Min Depth 
 IMXD.m            4827.209961:  Inc Max Depth 
 JARR.                      No:  Jarring 
 LETM.      22.50.00 17-Jun-21:  Log End Time 
 LOST.hr                     0:  Lost Rig Time 
 LSTM.      14.00.00 11-Jun-21:  Log Start Time 
 MDCL.ppm         97000.000000:  Mud Chlorides 
 MDES.             Fresh Water:  Mud Desc 
 DFD .kg/m3        1222.229614:  Mud Density 
 MDMN.kg/m3        1210.247070:  Dens Mud Min 
 MDMX.kg/m3        1234.212280:  Dens Mud Max 
 PH  .pH              9.500000:  Mud pH 
 MOIL.                       0:  Run Mud Oil % 
 MOWR.                   0 100:  Run Mud OWR 
 MSND.                    0.10:  Run Mud Sand % 
 MSOL.                   12.40:  Run Mud Solids% 
 DFV .spl            62.362999:  Mud Viscosity 
 MWOD.mm            171.449997:  MWD Tool OD 
 MWSI.                      No:  Serv Intrp, MWD 
 OTIM.hr            176.676529:  Time Operating 
 PMAX.kPag        65859.195313:  Press Op, Max 
 PV  .mPsec          35.000000:  Mud PV 
 RMS .ohmm            0.080000:  Mud Resistivity 
 RMCS.ohmm            0.120000:  Mud Cake Resistivity 
 MCST.degC           21.999998:  Mud Cake Sample Temperature 
 RMFS.ohmm            0.060000:  Mud Filtrate Resistivity 
 RMFT.degC           21.999998:  Mud Filtrate Sample Temperature 
 RMMT.ohmm            0.023400:  Rm @ Max Temp 
 MST .degC           21.999998:  Mud Sample Temperature 
 RUN .                     500:  Run Number 
 ROPA.m/hr            6.800000:  ROP Avg 
 ROPN.m/hr            0.100000:  ROP Min 
 ROPX.m/hr           31.799999:  ROP Max 
 RPMA.rpm            98.000000:  RPM Surface Avg 
 RPMN.rpm            65.000000:  RPM Surface Min 
 RPMX.rpm           115.000008:  RPM Surface Max 
 RRUN.                       6:  Rig Run Number 
 RTIM.hr              0.000000:  Time Reaming 
 SAZI.deg           198.550003:  Azm, Start 
 SDEP.m            4283.000000:  Start Depth 
 SIDD.                      No:  Serv Intrp, DD 
 SINC.deg             2.000000:  Inc, Start 
 SPPA.kPag        21042.951172:  SPP Avg 
 SPPN.kPag        19677.779297:  SPP Min 
 SPPX.kPag        25117.783203:  SPP Max 
 STIM.      23.30.00 10-Jun-21:  Start Time 
 SVCS.                 DD, MWD:  Services 
 SVER.                9.200000:  Sperry Version 
 TDAT.m             732.000000:  Tot Depth Attmp 
 TDDF.                      No:  Trip for DD 
 TDLG.m             732.000000:  Tot Depth Loggd 
 TFF .                      No:  Trip for Fail 
 TQAA.kN-m            8.134908:  Torque Abs Avg 
 TQAN.kN-m            8.134908:  Torque Abs Min 
 TQAX.kN-m           14.507253:  Torque Abs Max 
 TRRT.°/30m           0.000000:  Turn Rotating 
 MRT .                    HCIM:  Maximum Recorded Temperature 
 TTMX.degC          127.000000:  Max Tool Temp 
 VS01.                90649920:  Virtual Str1 SN 
 VS02.                90649925:  Virtual Str2 SN 
 VS03.                90649923:  Virtual Str3 SN 
 WBMN.kdN            10.230908:  WOB Min 
 WITN.          Rick Dzivinski:  Customer Rep 2 
 WITN.           Mark Jachmann:  Customer Rep 
 WOBA.kdN            16.636347:  WOB Avg 
 WOBX.kdN            20.906639:  WOB Max 
 YP  .pa             15.321648:  Yield Point 
~Curve Information Block
#MNEM.UNIT                 API CODE     Curve Description
#---------               -----------    ---------------------------
 DEPT.M                 00 000 000 000:  Depth
 AFRSAC.ohmm            00 000 000 000:  AFR Shallow Avg Res BC
 AFRMAC.ohmm            00 000 000 000:  AFR Medium Avg Res BC
 AFRDAC.ohmm            00 000 000 000:  AFR Deep Avg Res BC
#Other Information
#
#WARRANTY: Halliburton will use its best efforts to furnish customers with 
#accurate information and interpretations that are part of, and incident to, the services 
#provided.  However, Halliburton cannot and does not warrant the accuracy 
#or correctness of such information and interpretations.  Under no circumstances should any 
#such information or interpretation be relied upon as the sole basis for any drilling, 
#completion, production, or financial decision or any procedure involving any risk to the 
#safety of any drilling venture, drilling rig or its crew or any other third party.  The 
#Customer has full responsibility for all drilling, completion and production operation.  
#Halliburton makes no representations or warranties, either expressed or 
#implied, including, but not limited to, the implied warranties of merchantability or fitness 
#for a particular purpose, with respect to the services rendered.  In no event will 
#Halliburton be liable for failure to obtain any particular results or for 
#any damages, including, but not limited to, indirect, special or consequential damages, 
#resulting from the use of any information or interpretation provided by Halliburton.
#
~A   DEPT      AFRSAC     AFRMAC     AFRDAC   
# ...
   3717.0000    15.4074    14.4252    14.1985
   3717.1000    15.3144    14.1729    13.9644
   3717.2000    15.2072    13.9504    13.7520
   3717.3000    15.0975    13.9265    13.5972
   3717.4000    15.7053    14.7697    14.2017
   3717.5000    16.4859    16.1556    15.0880
   3717.6000    16.5916    16.5902    15.2957
   3717.7000    16.0792    16.0242    14.7749
   3717.8000    15.1964    14.9419    13.8109
   3717.9000    14.9554    14.6090    13.5009
   3718.0000    15.1470    14.8273    13.6824
   3718.1000    15.3869    15.2351    13.9848
   3718.2000    15.3646    15.2534    14.0263
   3718.3000    15.3242    15.0447    14.0290
   3718.4000    15.3962    14.6089    14.0845
   3718.5000    15.3500    14.0951    14.0008
   3718.6000    15.2163    13.9388    13.8134
   3718.7000    14.8703    13.9816    13.4562
   3718.8000    14.6488    14.1287    13.2454
   3718.9000    14.7302    14.3491    13.3660
   3719.0000    15.2619    14.9375    13.9448
   3719.1000    15.6579    15.3074    14.3906
   3719.2000    16.1627    15.7917    14.9394
   3719.3000    16.2725    15.8658    15.0546
   3719.4000    15.8942    15.3979    14.6317
   3719.5000    15.3501    14.8024    13.9781
   3719.6000    15.2505    14.6001    13.7444
   3719.7000    15.0056    14.4894    13.5116
   3719.8000    15.2513    14.7464    13.8021
   3719.9000    15.3407    14.8873    14.0291
   3720.0000    15.6812    15.1887    14.4368
   3720.1000    15.9492    15.2887    14.6608
   3720.2000    15.7515    14.9643    14.3773
   3720.3000    15.3530    14.4950    13.8965
   3720.4000    15.1026    14.3625    13.7451
   3720.5000    15.4200    14.8104    14.1527
   3720.6000    16.2577    15.7302    15.0940
   3720.7000    17.2228    16.5030    16.0890
   3720.8000    17.5001    16.4347    16.2892
   3720.9000    17.0109    15.2590    15.6199
   3721.0000    16.1622    13.9799    14.5613
   3721.1000    15.6005    13.3731    13.8814
   3721.2000    15.4736    13.4584    13.7781
   3721.3000    15.7569    14.1520    14.1655
   3721.4000    16.0124    14.6411    14.5135
   3721.5000    16.0479    14.7960    14.6135
   3721.6000    15.9513    14.7581    14.5455
   3721.7000    15.7001    14.6053    14.3219
   3721.8000    15.7453    14.8669    14.4610
   3721.9000    16.3356    15.5820    15.2000
   3722.0000    16.7652    16.2216    15.8270
   3722.1000    16.7702    16.3346    15.9441
   3722.2000    16.4398    16.1101    15.5452
   3722.3000    15.8974    15.8238    14.9199
   3722.4000    15.7815    15.9239    14.7919
   3722.5000    15.6100    15.7267    14.6384
   3722.6000    15.2098    15.1442    14.2546
   3722.7000    14.9407    14.6554    13.9344
   3722.8000    14.9214    14.3994    13.8272
   3722.9000    15.1695    14.4352    13.9939
   3723.0000    15.2090    14.2139    13.9196
   3723.1000    15.3813    14.1187    13.9786
   3723.2000    15.8255    13.8517    14.3968
   3723.3000    15.8597    13.7867    14.6168
   3723.4000    16.0260    14.0569    15.0923
   3723.5000    16.3985    15.1943    15.6943
   3723.6000    17.0159    15.9041    16.1877
   3723.7000    17.5971    15.8502    16.4759
   3723.8000    16.7541    14.0566    15.3612
   3723.9000    15.5892    12.7706    14.0461
   3724.0000    14.5425    12.1602    12.9931
   3724.1000    13.8396    12.3212    12.2587
   3724.2000    13.7732    12.7636    12.2172
   3724.3000    14.3149    13.2233    12.8249
   3724.4000    15.0143    13.7999    13.5702
   3724.5000    15.5407    14.3538    14.1552
   3724.6000    15.6726    15.1175    14.3093
   3724.7000    15.5558    15.3547    14.2037
   3724.8000    15.3397    15.1199    13.9896
   3724.9000    14.8887    14.3867    13.5285
   3725.0000    14.3132    13.5040    12.9163
   3725.1000    14.0196    13.0418    12.6158
   3725.2000    14.0666    13.0583    12.6751
   3725.3000    14.8032    13.5238    13.4517
   3725.4000    15.5591    14.3117    14.3393
   3725.5000    15.8074    14.6048    14.7184
   3725.6000    16.0803    15.1978    15.0768
   3725.7000    16.0350    15.6523    15.0273
   3725.8000    15.9647    15.6189    14.8709
   3725.9000    15.6188    15.0768    14.4526
   3726.0000    14.9335    14.0726    13.7221
   3726.1000    14.7207    13.6837    13.5029
   3726.2000    14.9261    13.9213    13.7362
   3726.3000    15.2836    14.4424    14.1040
   3726.4000    15.3651    14.7271    14.1282
   3726.5000    14.8136    14.4121    13.4598
   3726.6000    14.5466    14.1109    13.0477
   3726.7000    14.6536    14.0174    13.0099
   3726.8000    15.2576    14.3899    13.4964
   3726.9000    15.4919    14.6906    13.6805
   3727.0000    15.3660    15.1916    13.5521
   3727.1000    14.9428    15.6128    13.1775
   3727.2000    14.8013    15.6133    13.0340
   3727.3000    15.1615    15.1569    13.3217
   3727.4000    15.2789    14.3988    13.3244
   3727.5000    15.5092    13.9209    13.5217
   3727.6000    15.8296    13.8768    13.9643
   3727.7000    16.2410    14.1658    14.4772
   3727.8000    16.7739    14.6217    15.0731
   3727.9000    16.7406    14.9160    14.9171
   3728.0000    16.8406    14.8636    14.9673
   3728.1000    17.5740    14.8883    15.6629
   3728.2000    17.9588    15.0152    16.0966
   3728.3000    17.8867    15.6026    16.1066
   3728.4000    17.2022    16.0117    15.5568
   3728.5000    16.6537    16.0357    15.1254
   3728.6000    16.3869    15.8473    14.9096
   3728.7000    16.0878    15.1612    14.6335
   3728.8000    15.9939    15.1391    14.5463
   3728.9000    16.1557    15.3402    14.7245
   3729.0000    16.3148    15.3029    14.8833
   3729.1000    15.8666    14.3818    14.4676
   3729.2000    15.0728    13.6941    13.7152
   3729.3000    14.8477    13.6341    13.4786
   3729.4000    14.7136    14.1867    13.3417
   3729.5000    15.1749    14.7825    13.7591
   3729.6000    15.3411    14.7382    13.8936
   3729.7000    15.4270    14.5746    13.9240
   3729.8000    15.8502    14.5090    14.1560
   3729.9000    16.7853    14.1888    14.4903
   3730.0000    17.8122    14.1084    14.7406
   3730.1000    19.4332    14.8383    15.7692
   3730.2000    19.2342    15.8280    15.9197
   3730.3000    18.0834    15.8339    15.7273
   3730.4000    17.3000    15.1832    15.5838
   3730.5000    16.1093    14.0734    14.6065
   3730.6000    15.6140    13.4344    14.1461
   3730.7000    14.6271    13.1251    13.1406
   3730.8000    14.1795    12.7622    12.6997
   3730.9000    14.5688    13.1920    13.0948
   3731.0000    14.9530    13.6897    13.6059
   3731.1000    15.2932    14.1649    14.0569
   3731.2000    14.8809    13.6317    13.6492
   3731.3000    14.4791    13.1380    13.1863
   3731.4000    14.1669    12.8841    12.8378
   3731.5000    13.8728    13.1681    12.6025
   3731.6000    13.4813    13.1469    12.3189
   3731.7000    13.2696    12.8271    12.1809
   3731.8000    13.3200    12.5752    12.2734
   3731.9000    13.5622    12.5457    12.5419
   3732.0000    14.0311    12.8091    13.0324
   3732.1000    13.8901    12.8793    12.9285
   3732.2000    14.1300    13.3010    13.2188
   3732.3000    14.4479    13.7519    13.5563
   3732.4000    14.8434    14.1612    13.9477
   3732.5000    14.8478    14.2446    13.9156
   3732.6000    14.2868    13.6815    13.2569
   3732.7000    13.5391    12.9131    12.3510
   3732.8000    13.3500    12.5273    11.9558
   3732.9000    13.4094    12.4018    11.8478
   3733.0000    13.7963    12.6418    12.1616
   3733.1000    14.4546    13.1075    12.8472
   3733.2000    14.6890    13.3544    13.0904
   3733.3000    15.1217    13.5979    13.4696
   3733.4000    14.7218    13.2200    13.0518
   3733.5000    14.8987    13.4754    13.3381
   3733.6000    14.9286    13.8817    13.6265
   3733.7000    15.1036    14.3650    14.0594
   3733.8000    15.2675    14.5671    14.3593
   3733.9000    15.0322    14.2489    14.1249
   3734.0000    14.6971    13.8047    13.7071
   3734.1000    14.0450    13.2135    12.9814
   3734.2000    13.4499    12.6786    12.3376
   3734.3000    13.4815    12.6946    12.3261
