~Version Information
 VERS.                  2.0:   CWLS log ASCII Standard -VERSION 2.0
 WRAP.                   NO:   One line per depth step
~Well Information Block
#MNEM.UNIT     VALUE/NAME     DESCRIPTION
#---------     -----------    ---------------------------
 STRT.M              3630.0000: START DEPTH
 STOP.M              5008.7000: STOP DEPTH
 STEP.M                 0.1000: STEP DEPTH
 NULL.               -999.2500: NULL VALUE
 DFWT.                        :  DIST FWL TEXT
 DFST.                        :  DIST FSL TEXT
 DMF .             Drill Floor:  DRILL MEAS FROM
 STIM.      10.30.00 08-May-21:  START TIME
 DATE.      11.38.00 18-Jun-21:  END TIME
 SPUD.               08-May-21:  SPUD DATE
 NREF.                    Grid:  NORTH REFERENCE
 HPTY.       Minimum Curvature:  HOLE POS TYPE
 DMOD.             Drill Model:  DRILL MOD DESC
 SVYD.                  Survey:  SURVEY DESC
 ILTD.               Lithology:  INTERP LTH DESC
 FTOP.          Formation Tops:  FORM TOPS DESC
 SON .        PA-XX-0907037989:  JOB NUMBER
 WTYP.                Deviated:  WELL TYPE
 COMP.     Strike West Pty Ltd:  COMPANY
 BASE.                   Perth:  LOGGING EQUIPMENT BASE LOCATION
 REGN.                      AP:  REGION
 CTRY.               Australia:  COUNTRY NAME
 FLD .          West Erregulla:  FIELD NAME
 SRVC.                  Ensign:  CONTRACTOR
 MWDS.                Jandakot:  MWD SHOP
 WELL.        West Erregulla 5:  WELL NAME
 JOBN.        PA-XX-0907037989:  JOB TICKET NUMB
 RIG .              Ensign 970:  RIG NAME
 DCON.     Sperry Drilling Services:  DIRECTNL CONTR
 UNIT.                11741669:  LOGGING EQUIPMENT ID
 PROV.       Western Australia:  PROVINCE
 STAT.       Western Australia:  STATE NAME
 PDAT.          Mean Sea Level:  PERMANENT DATUM
 MMDL.            bggm2021.dat:  MAGNETIC MODEL
 MMDD.            06 May, 2021:  MAG DATA DATE
 MDS .              Win MagUTM:  MAG DATA SOURCE
 GCDE.     Generic Lat/Long's, Degrees, -180 ==> +180:  GEO COORD DESC
 CCDE.     UTM Zone 50S on Geocentric Datum of Australia 1994, Meters:  CART COORD DESC
 GGSY.                      LL:  GEO GRID SYS
 CGSY.             SS GDA94-50:  CART GRID SYS
 GREF.     Ellipsoid World Geodetic System :  GEO REFERENCE
 CREF.     Datum Geocentric Datum of Austra:  CART REFERENCE
 LLGR.      Latitude/Longitude:  LLGROUP
 XYGR.     Australia/New Zealand Coordinate Systems:  XYGROUP
 API .                        :  API NUMBER
 CNTY.                        :  COUNTY
 UWI .                        :  UNIQUE WELL IDENTIFIER
 LOC .                        :  LOCATION
 LMF .             Drill Floor:  LOG MEASURED FROM
 TVDS.m             224.839988:  TVDSS CORRECTN
 LATI.deg           -29.398151:  LATITUDE
 LONG.deg           115.307694:  LONGITUDE
 WHNS.m               0.000000:  WELL HEAD N/S
 WHEW.m               0.000000:  WELL HEAD E/W
 UTMX.m          335792.640000:  UTM X
 UTMY.m         6746710.760000:  UTM Y
 DFWL.m               0.000000:  DISTANCE FWL
 DFSL.m               0.000000:  DISTANCE FSL
 SDEP.m              61.000002:  START DEPTH
 TDD .m            5015.000011:  TOTAL DEPTH (DRILLER)
 VSDR.deg             0.000000:  VERT SEC DIRECT
 GVFD.g               1.000000:  GRAVITY FIELD
 MFLD.nT          56933.789063:  MAGNETIC FIELD
 MDIP.deg           -63.343086:  MAGNETIC DIP
 MDEC.deg            -1.413625:  MAGNETIC DECL
 GRDC.deg             0.830898:  GRID CORRECTION
 AZTC.deg            -2.244523:  AZM TOTAL CORR
 EPD .m               0.000000:  ELEVATION
 EGL .m             217.679997:  GROUND ELEVATION
 WDMS.m               0.000000:  WD ELEV
 APD .m             224.839988:  DEPTH ABOVE PD
 AGAP.m               7.160000:  AIR GAP
 MMDE.m             -68.531232:  MAGUTM CALC DEP
 DEP .m               0.000000:  DEPTH
 CMER.deg           117.000000:  CENTRL MERIDIAN
 EKB .m               0.000000:  KB ELEVATION
 EDF .m             224.839988:  DF ELEVATION
 VSC .                       1:  VS TO CLOSURE
 MAGU.                 1375590:  MAGUTM CHECKSUM
~Parameter Information Block
#MNEM.UNIT       Value        Description
#---------     -----------    ---------------------------
 AV  .mps             2.583333:  Ann Velocity 
 AVMX.mps             2.933333:  Max Ann Veloc 
 AZIF.deg           193.410004:  Azm, Final 
 BHAT.                  Rotary:  BHA Type 
 BREV.krev          608.299988:  Rev Bit Total 
 BROT.°/30m           0.100000:  Build Rotating 
 BS  .mm            215.899994:  Bit Size 
 BTPL.kPag         3385.350342:  Bit Press Loss 
 CGEO.               Joe Emery:  Customer Geo 
 COMM.                     de~:  Run Comments 1 
 TCS .hr            130.012054:  Time Ciculation Ended 
 CV  .mps             4.100000:  Crit Velocity 
 CVMX.mps             4.100000:  Max Crit Veloc 
 DD1 .           Wayne Parsons:  Direct Drillr 1 
 DDSV.                   Other:  DD Service 
 DEFF.%              98.000000:  % Det Eff 
 DLRX.°/30m           0.680000:  Dogleg Rot Max 
 DLSO.°/30m           0.000000:  Dogleg Oriented 
 DLSX.°/30m           0.000000:  Dogleg Str Max 
 DRET.      22.50.00 17-Jun-21:  Drill End Time 
 DRST.      14.00.00 11-Jun-21:  Drill Start Tim 
 DTIM.hr            107.500000:  Time Drilling 
 EDEP.m            5015.000000:  End Depth 
 ENG1.           Liam ODonnell:  Engineer 1 
 ENG2.               Alan Rule:  Engineer 2 
 ENG3.        Vitaly Vasilenko:  Engineer 3 
 ETIM.      11.38.00 18-Jun-21:  End Time 
 FLOI.m3pm            2.100841:  Flow In 
 FLON.m3pm            2.044061:  Flow In Min 
 FLOS.mptm            3.000000:  Fluid Loss 
 FLOX.m3pm            2.380953:  Flow In Max 
 DFT .                 Polymer:  Mud Type 
 HFLO.                      No:  High Flow 
 HPRE.                      No:  High Pressure 
 HTEM.                      No:  High Temp 
 HYDO.m               2.500000:  Hydro Offset 
 IFIN.deg             5.220000:  Inc, Final 
 IMAX.deg             6.775680:  Inc Max 
 IMIN.deg             1.611614:  Inc Min 
 IMND.m            4310.580078:  Inc Min Depth 
 IMXD.m            4827.209961:  Inc Max Depth 
 JARR.                      No:  Jarring 
 LETM.      22.50.00 17-Jun-21:  Log End Time 
 LOST.hr                     0:  Lost Rig Time 
 LSTM.      14.00.00 11-Jun-21:  Log Start Time 
 MDCL.ppm         97000.000000:  Mud Chlorides 
 MDES.             Fresh Water:  Mud Desc 
 DFD .kg/m3        1222.229614:  Mud Density 
 MDMN.kg/m3        1210.247070:  Dens Mud Min 
 MDMX.kg/m3        1234.212280:  Dens Mud Max 
 PH  .pH              9.500000:  Mud pH 
 MOIL.                       0:  Run Mud Oil % 
 MOWR.                   0 100:  Run Mud OWR 
 MSND.                    0.10:  Run Mud Sand % 
 MSOL.                   12.40:  Run Mud Solids% 
 DFV .spl            62.362999:  Mud Viscosity 
 MWOD.mm            171.449997:  MWD Tool OD 
 MWSI.                      No:  Serv Intrp, MWD 
 OTIM.hr            176.676529:  Time Operating 
 PMAX.kPag        65859.195313:  Press Op, Max 
 PV  .mPsec          35.000000:  Mud PV 
 RMS .ohmm            0.080000:  Mud Resistivity 
 RMCS.ohmm            0.120000:  Mud Cake Resistivity 
 MCST.degC           21.999998:  Mud Cake Sample Temperature 
 RMFS.ohmm            0.060000:  Mud Filtrate Resistivity 
 RMFT.degC           21.999998:  Mud Filtrate Sample Temperature 
 RMMT.ohmm            0.023400:  Rm @ Max Temp 
 MST .degC           21.999998:  Mud Sample Temperature 
 RUN .                     500:  Run Number 
 ROPA.m/hr            6.800000:  ROP Avg 
 ROPN.m/hr            0.100000:  ROP Min 
 ROPX.m/hr           31.799999:  ROP Max 
 RPMA.rpm            98.000000:  RPM Surface Avg 
 RPMN.rpm            65.000000:  RPM Surface Min 
 RPMX.rpm           115.000008:  RPM Surface Max 
 RRUN.                       6:  Rig Run Number 
 RTIM.hr              0.000000:  Time Reaming 
 SAZI.deg           198.550003:  Azm, Start 
 SDEP.m            4283.000000:  Start Depth 
 SIDD.                      No:  Serv Intrp, DD 
 SINC.deg             2.000000:  Inc, Start 
 SPPA.kPag        21042.951172:  SPP Avg 
 SPPN.kPag        19677.779297:  SPP Min 
 SPPX.kPag        25117.783203:  SPP Max 
 STIM.      23.30.00 10-Jun-21:  Start Time 
 SVCS.                 DD, MWD:  Services 
 SVER.                9.200000:  Sperry Version 
 TDAT.m             732.000000:  Tot Depth Attmp 
 TDDF.                      No:  Trip for DD 
 TDLG.m             732.000000:  Tot Depth Loggd 
 TFF .                      No:  Trip for Fail 
 TQAA.kN-m            8.134908:  Torque Abs Avg 
 TQAN.kN-m            8.134908:  Torque Abs Min 
 TQAX.kN-m           14.507253:  Torque Abs Max 
 TRRT.°/30m           0.000000:  Turn Rotating 
 MRT .                    HCIM:  Maximum Recorded Temperature 
 TTMX.degC          127.000000:  Max Tool Temp 
 VS01.                90649920:  Virtual Str1 SN 
 VS02.                90649925:  Virtual Str2 SN 
 VS03.                90649923:  Virtual Str3 SN 
 WBMN.kdN            10.230908:  WOB Min 
 WITN.          Rick Dzivinski:  Customer Rep 2 
 WITN.           Mark Jachmann:  Customer Rep 
 WOBA.kdN            16.636347:  WOB Avg 
 WOBX.kdN            20.906639:  WOB Max 
 YP  .pa             15.321648:  Yield Point 
~Curve Information Block
#MNEM.UNIT                 API CODE     Curve Description
#---------               -----------    ---------------------------
 DEPT.M                 00 000 000 000:  Depth
 AFRSAC.ohmm            00 000 000 000:  AFR Shallow Avg Res BC
 AFRMAC.ohmm            00 000 000 000:  AFR Medium Avg Res BC
 AFRDAC.ohmm            00 000 000 000:  AFR Deep Avg Res BC
#Other Information
#
#WARRANTY: Halliburton will use its best efforts to furnish customers with 
#accurate information and interpretations that are part of, and incident to, the services 
#provided.  However, Halliburton cannot and does not warrant the accuracy 
#or correctness of such information and interpretations.  Under no circumstances should any 
#such information or interpretation be relied upon as the sole basis for any drilling, 
#completion, production, or financial decision or any procedure involving any risk to the 
#safety of any drilling venture, drilling rig or its crew or any other third party.  The 
#Customer has full responsibility for all drilling, completion and production operation.  
#Halliburton makes no representations or warranties, either expressed or 
#implied, including, but not limited to, the implied warranties of merchantability or fitness 
#for a particular purpose, with respect to the services rendered.  In no event will 
#Halliburton be liable for failure to obtain any particular results or for 
#any damages, including, but not limited to, indirect, special or consequential damages, 
#resulting from the use of any information or interpretation provided by Halliburton.
#
~A   DEPT      AFRSAC     AFRMAC     AFRDAC   
# ...
   3804.0000    15.4216    14.4739    14.0883
   3804.1000    14.8096    14.0908    13.3347
   3804.2000    14.1796    13.7174    12.6273
   3804.3000    13.7103    13.4902    12.1526
   3804.4000    14.1093    13.6812    12.5469
   3804.5000    14.1099    13.3452    12.6250
   3804.6000    13.2865    12.4145    11.9199
   3804.7000    12.4431    11.7974    11.2176
   3804.8000    12.1997    11.7698    11.0607
   3804.9000    12.1995    11.9389    11.1139
   3805.0000    11.9322    11.9111    10.8780
   3805.1000    11.4782    11.7652    10.4264
   3805.2000    11.2927    11.7285    10.2253
   3805.3000    11.6828    12.0645    10.6004
   3805.4000    12.1378    12.3275    11.0663
   3805.5000    12.2367    12.2028    11.2503
   3805.6000    12.0342    11.8852    11.1180
   3805.7000    11.7447    11.4429    10.8550
   3805.8000    11.9059    11.5171    11.0260
   3805.9000    12.3464    12.0150    11.4640
   3806.0000    12.8255    12.4638    11.9246
   3806.1000    12.9762    12.4006    11.9777
   3806.2000    12.7094    11.9463    11.5865
   3806.3000    12.2598    11.2459    11.0299
   3806.4000    12.0703    11.0114    10.7864
   3806.5000    12.2300    11.0930    10.9297
   3806.6000    12.4315    11.2190    11.1657
   3806.7000    12.3751    11.4574    11.1974
   3806.8000    12.2187    11.4677    11.0981
   3806.9000    12.1980    11.6115    11.1029
   3807.0000    12.1404    11.6896    11.1011
   3807.1000    11.9107    11.4192    10.9474
   3807.2000    11.4398    11.0217    10.5366
   3807.3000    11.3048    10.8048    10.4234
   3807.4000    11.3961    10.8282    10.5059
   3807.5000    11.5888    10.8559    10.6886
   3807.6000    11.6670    10.8222    10.7915
   3807.7000    11.7667    10.9380    10.9222
   3807.8000    11.9463    11.1787    11.1546
   3807.9000    11.9157    11.3844    11.1919
   3808.0000    11.8550    11.4450    11.1705
   3808.1000    11.7576    11.5020    11.0719
   3808.2000    11.8951    11.8025    11.1829
   3808.3000    12.0274    12.1161    11.2828
   3808.4000    12.1571    12.2656    11.3651
   3808.5000    11.9856    11.8564    11.1392
   3808.6000    11.7731    11.3728    10.8896
   3808.7000    11.4019    10.9774    10.4825
   3808.8000    10.9196    10.4018     9.9564
   3808.9000    10.6808    10.1144     9.6464
   3809.0000    10.8475    10.3138     9.8021
   3809.1000    11.4638    11.1137    10.4660
   3809.2000    11.9945    11.7989    11.0249
   3809.3000    11.8813    11.6730    10.8831
   3809.4000    11.5995    10.9511    10.4551
   3809.5000    11.5129    10.5497    10.1864
   3809.6000    12.1041    10.6902    10.3850
   3809.7000    13.6618    11.5060    11.2963
   3809.8000    14.8954    12.2966    12.0873
   3809.9000    16.4272    13.0322    13.3464
   3810.0000    15.7134    12.4600    13.0976
   3810.1000    13.6655    11.3990    11.6665
   3810.2000    12.4228    11.0260    10.6825
   3810.3000    11.5818    11.1418    10.0674
   3810.4000    11.5749    11.2934    10.2227
   3810.5000    11.6177    11.2707    10.4361
   3810.6000    11.5126    11.0346    10.4841
   3810.7000    11.6220    11.1352    10.6868
   3810.8000    11.6682    11.1944    10.8442
   3810.9000    11.6697    11.2745    10.9474
   3811.0000    11.4773    11.2232    10.7753
   3811.1000    11.4870    11.1543    10.6822
   3811.2000    11.2013    10.8571    10.3357
   3811.3000    10.8224    10.4454     9.9692
   3811.4000    10.5377    10.1378     9.7188
   3811.5000    10.4918    10.0408     9.6936
   3811.6000    10.7783    10.2659     9.9911
   3811.7000    10.9646    10.2795    10.1966
   3811.8000    11.0925    10.4507    10.3476
   3811.9000    11.0119    10.4212    10.2513
   3812.0000    10.7253    10.2424     9.8778
   3812.1000    10.5375    10.1477     9.5617
   3812.2000    10.3713    10.0867     9.2962
   3812.3000    10.4713    10.2919     9.3131
   3812.4000    10.6764    10.5928     9.4627
   3812.5000    10.8457    10.7694     9.6086
   3812.6000    11.1508    11.1133     9.8997
   3812.7000    11.3550    11.1846    10.0945
   3812.8000    11.5694    11.0178    10.2578
   3812.9000    11.7883    10.7774    10.3941
   3813.0000    11.8361    10.5729    10.4556
   3813.1000    11.9942    10.5898    10.7135
   3813.2000    12.3160    10.8653    11.1554
   3813.3000    12.5065    11.0129    11.4383
   3813.4000    12.1612    10.9915    11.0907
   3813.5000    11.8031    10.8345    10.7337
   3813.6000    11.1845    10.4418    10.0950
   3813.7000    10.9246    10.1965     9.8187
   3813.8000    10.5899     9.7867     9.4816
   3813.9000    10.5345     9.7716     9.4204
   3814.0000    10.8221    10.0813     9.7122
   3814.1000    10.9958    10.3778     9.9085
   3814.2000    11.2372    10.5027    10.1632
   3814.3000    11.4006    10.5526    10.3339
   3814.4000    11.4651    10.4880    10.3602
   3814.5000    11.7477    10.7179    10.6077
   3814.6000    11.6416    10.7643    10.5116
   3814.7000    11.4704    10.6775    10.3487
   3814.8000    11.6289    10.7043    10.4699
   3814.9000    11.5777    10.5278    10.3667
   3815.0000    11.7260    10.5399    10.4816
   3815.1000    11.7426    10.6358    10.5100
   3815.2000    11.6942    10.7088    10.4745
   3815.3000    11.5585    10.4710    10.3211
   3815.4000    11.5988    10.3515    10.3548
   3815.5000    11.6634    10.4206    10.4539
   3815.6000    11.8052    10.7450    10.6845
   3815.7000    11.7536    11.0418    10.7298
   3815.8000    11.4600    10.8813    10.4725
   3815.9000    11.3927    10.7943    10.4402
   3816.0000    11.4625    10.7179    10.5283
   3816.1000    11.6479    10.9196    10.7311
   3816.2000    11.6171    10.9931    10.6916
   3816.3000    11.4612    10.9808    10.5029
   3816.4000    11.2283    10.9546    10.2654
   3816.5000    10.8558    10.6333     9.8723
   3816.6000    10.6055    10.3135     9.6074
   3816.7000    10.4971    10.0629     9.4615
   3816.8000    10.6072    10.0765     9.5642
   3816.9000    10.7413    10.2429     9.7432
   3817.0000    10.7837    10.4073     9.8433
   3817.1000    10.7014    10.2457     9.7778
   3817.2000    10.5289    10.1523     9.5611
   3817.3000    10.3510     9.9484     9.3062
   3817.4000    10.1882     9.6966     9.0248
   3817.5000    10.0739     9.5630     8.8578
   3817.6000    10.1615     9.3549     8.8975
   3817.7000    10.6592     9.5646     9.3593
   3817.8000    11.4690     9.9431    10.2142
   3817.9000    11.7736    10.2622    10.6271
   3818.0000    11.6375    10.2359    10.5813
   3818.1000    10.9553     9.8490     9.9257
   3818.2000    10.4857     9.6233     9.4938
   3818.3000    10.2659     9.6027     9.3419
   3818.4000    10.1179     9.6513     9.2935
   3818.5000    10.1166     9.5883     9.3584
   3818.6000    10.3087     9.7398     9.5845
   3818.7000    10.4076    10.1446     9.6947
   3818.8000    10.2690    10.5690     9.5633
   3818.9000     9.8756    10.5306     9.1315
   3819.0000     9.5639    10.2829     8.7920
   3819.1000     9.4252     9.9925     8.6630
   3819.2000     9.5440    10.0276     8.8157
   3819.3000     9.5446    10.0494     8.8494
   3819.4000     9.4065     9.9762     8.6835
   3819.5000     9.4718    10.1036     8.6619
   3819.6000     9.8043    10.3436     8.8958
   3819.7000    10.3750    10.4656     9.4288
   3819.8000    10.7279    10.2760     9.7638
   3819.9000    10.5511     9.6382     9.5691
   3820.0000    10.1894     9.0911     9.1645
   3820.1000    10.1484     9.0838     9.1131
   3820.2000    10.3849     9.3661     9.3839
   3820.3000    10.7255     9.8558     9.7834
   3820.4000    10.6742     9.8876     9.7841
   3820.5000    10.5253     9.8181     9.6699
   3820.6000    10.3558     9.7836     9.5459
   3820.7000    10.2384     9.7847     9.4200
   3820.8000     9.9687     9.6603     9.1135
   3820.9000     9.4213     9.1561     8.5496
   3821.0000     9.1899     8.8716     8.3249
   3821.1000     9.1835     8.8229     8.3786
   3821.2000     9.2491     8.8841     8.5172
   3821.3000     9.2372     8.9646     8.5453
