~Version Information
 VERS.                  2.0:   CWLS log ASCII Standard -VERSION 2.0
 WRAP.                   NO:   One line per depth step
~Well Information Block
#MNEM.UNIT     VALUE/NAME     DESCRIPTION
#---------     -----------    ---------------------------
 STRT.M              3630.0000: START DEPTH
 STOP.M              5008.7000: STOP DEPTH
 STEP.M                 0.1000: STEP DEPTH
 NULL.               -999.2500: NULL VALUE
 DFWT.                        :  DIST FWL TEXT
 DFST.                        :  DIST FSL TEXT
 DMF .             Drill Floor:  DRILL MEAS FROM
 STIM.      10.30.00 08-May-21:  START TIME
 DATE.      11.38.00 18-Jun-21:  END TIME
 SPUD.               08-May-21:  SPUD DATE
 NREF.                    Grid:  NORTH REFERENCE
 HPTY.       Minimum Curvature:  HOLE POS TYPE
 DMOD.             Drill Model:  DRILL MOD DESC
 SVYD.                  Survey:  SURVEY DESC
 ILTD.               Lithology:  INTERP LTH DESC
 FTOP.          Formation Tops:  FORM TOPS DESC
 SON .        PA-XX-0907037989:  JOB NUMBER
 WTYP.                Deviated:  WELL TYPE
 COMP.     Strike West Pty Ltd:  COMPANY
 BASE.                   Perth:  LOGGING EQUIPMENT BASE LOCATION
 REGN.                      AP:  REGION
 CTRY.               Australia:  COUNTRY NAME
 FLD .          West Erregulla:  FIELD NAME
 SRVC.                  Ensign:  CONTRACTOR
 MWDS.                Jandakot:  MWD SHOP
 WELL.        West Erregulla 5:  WELL NAME
 JOBN.        PA-XX-0907037989:  JOB TICKET NUMB
 RIG .              Ensign 970:  RIG NAME
 DCON.     Sperry Drilling Services:  DIRECTNL CONTR
 UNIT.                11741669:  LOGGING EQUIPMENT ID
 PROV.       Western Australia:  PROVINCE
 STAT.       Western Australia:  STATE NAME
 PDAT.          Mean Sea Level:  PERMANENT DATUM
 MMDL.            bggm2021.dat:  MAGNETIC MODEL
 MMDD.            06 May, 2021:  MAG DATA DATE
 MDS .              Win MagUTM:  MAG DATA SOURCE
 GCDE.     Generic Lat/Long's, Degrees, -180 ==> +180:  GEO COORD DESC
 CCDE.     UTM Zone 50S on Geocentric Datum of Australia 1994, Meters:  CART COORD DESC
 GGSY.                      LL:  GEO GRID SYS
 CGSY.             SS GDA94-50:  CART GRID SYS
 GREF.     Ellipsoid World Geodetic System :  GEO REFERENCE
 CREF.     Datum Geocentric Datum of Austra:  CART REFERENCE
 LLGR.      Latitude/Longitude:  LLGROUP
 XYGR.     Australia/New Zealand Coordinate Systems:  XYGROUP
 API .                        :  API NUMBER
 CNTY.                        :  COUNTY
 UWI .                        :  UNIQUE WELL IDENTIFIER
 LOC .                        :  LOCATION
 LMF .             Drill Floor:  LOG MEASURED FROM
 TVDS.m             224.839988:  TVDSS CORRECTN
 LATI.deg           -29.398151:  LATITUDE
 LONG.deg           115.307694:  LONGITUDE
 WHNS.m               0.000000:  WELL HEAD N/S
 WHEW.m               0.000000:  WELL HEAD E/W
 UTMX.m          335792.640000:  UTM X
 UTMY.m         6746710.760000:  UTM Y
 DFWL.m               0.000000:  DISTANCE FWL
 DFSL.m               0.000000:  DISTANCE FSL
 SDEP.m              61.000002:  START DEPTH
 TDD .m            5015.000011:  TOTAL DEPTH (DRILLER)
 VSDR.deg             0.000000:  VERT SEC DIRECT
 GVFD.g               1.000000:  GRAVITY FIELD
 MFLD.nT          56933.789063:  MAGNETIC FIELD
 MDIP.deg           -63.343086:  MAGNETIC DIP
 MDEC.deg            -1.413625:  MAGNETIC DECL
 GRDC.deg             0.830898:  GRID CORRECTION
 AZTC.deg            -2.244523:  AZM TOTAL CORR
 EPD .m               0.000000:  ELEVATION
 EGL .m             217.679997:  GROUND ELEVATION
 WDMS.m               0.000000:  WD ELEV
 APD .m             224.839988:  DEPTH ABOVE PD
 AGAP.m               7.160000:  AIR GAP
 MMDE.m             -68.531232:  MAGUTM CALC DEP
 DEP .m               0.000000:  DEPTH
 CMER.deg           117.000000:  CENTRL MERIDIAN
 EKB .m               0.000000:  KB ELEVATION
 EDF .m             224.839988:  DF ELEVATION
 VSC .                       1:  VS TO CLOSURE
 MAGU.                 1375590:  MAGUTM CHECKSUM
~Parameter Information Block
#MNEM.UNIT       Value        Description
#---------     -----------    ---------------------------
 AV  .mps             2.583333:  Ann Velocity 
 AVMX.mps             2.933333:  Max Ann Veloc 
 AZIF.deg           193.410004:  Azm, Final 
 BHAT.                  Rotary:  BHA Type 
 BREV.krev          608.299988:  Rev Bit Total 
 BROT.°/30m           0.100000:  Build Rotating 
 BS  .mm            215.899994:  Bit Size 
 BTPL.kPag         3385.350342:  Bit Press Loss 
 CGEO.               Joe Emery:  Customer Geo 
 COMM.                     de~:  Run Comments 1 
 TCS .hr            130.012054:  Time Ciculation Ended 
 CV  .mps             4.100000:  Crit Velocity 
 CVMX.mps             4.100000:  Max Crit Veloc 
 DD1 .           Wayne Parsons:  Direct Drillr 1 
 DDSV.                   Other:  DD Service 
 DEFF.%              98.000000:  % Det Eff 
 DLRX.°/30m           0.680000:  Dogleg Rot Max 
 DLSO.°/30m           0.000000:  Dogleg Oriented 
 DLSX.°/30m           0.000000:  Dogleg Str Max 
 DRET.      22.50.00 17-Jun-21:  Drill End Time 
 DRST.      14.00.00 11-Jun-21:  Drill Start Tim 
 DTIM.hr            107.500000:  Time Drilling 
 EDEP.m            5015.000000:  End Depth 
 ENG1.           Liam ODonnell:  Engineer 1 
 ENG2.               Alan Rule:  Engineer 2 
 ENG3.        Vitaly Vasilenko:  Engineer 3 
 ETIM.      11.38.00 18-Jun-21:  End Time 
 FLOI.m3pm            2.100841:  Flow In 
 FLON.m3pm            2.044061:  Flow In Min 
 FLOS.mptm            3.000000:  Fluid Loss 
 FLOX.m3pm            2.380953:  Flow In Max 
 DFT .                 Polymer:  Mud Type 
 HFLO.                      No:  High Flow 
 HPRE.                      No:  High Pressure 
 HTEM.                      No:  High Temp 
 HYDO.m               2.500000:  Hydro Offset 
 IFIN.deg             5.220000:  Inc, Final 
 IMAX.deg             6.775680:  Inc Max 
 IMIN.deg             1.611614:  Inc Min 
 IMND.m            4310.580078:  Inc Min Depth 
 IMXD.m            4827.209961:  Inc Max Depth 
 JARR.                      No:  Jarring 
 LETM.      22.50.00 17-Jun-21:  Log End Time 
 LOST.hr                     0:  Lost Rig Time 
 LSTM.      14.00.00 11-Jun-21:  Log Start Time 
 MDCL.ppm         97000.000000:  Mud Chlorides 
 MDES.             Fresh Water:  Mud Desc 
 DFD .kg/m3        1222.229614:  Mud Density 
 MDMN.kg/m3        1210.247070:  Dens Mud Min 
 MDMX.kg/m3        1234.212280:  Dens Mud Max 
 PH  .pH              9.500000:  Mud pH 
 MOIL.                       0:  Run Mud Oil % 
 MOWR.                   0 100:  Run Mud OWR 
 MSND.                    0.10:  Run Mud Sand % 
 MSOL.                   12.40:  Run Mud Solids% 
 DFV .spl            62.362999:  Mud Viscosity 
 MWOD.mm            171.449997:  MWD Tool OD 
 MWSI.                      No:  Serv Intrp, MWD 
 OTIM.hr            176.676529:  Time Operating 
 PMAX.kPag        65859.195313:  Press Op, Max 
 PV  .mPsec          35.000000:  Mud PV 
 RMS .ohmm            0.080000:  Mud Resistivity 
 RMCS.ohmm            0.120000:  Mud Cake Resistivity 
 MCST.degC           21.999998:  Mud Cake Sample Temperature 
 RMFS.ohmm            0.060000:  Mud Filtrate Resistivity 
 RMFT.degC           21.999998:  Mud Filtrate Sample Temperature 
 RMMT.ohmm            0.023400:  Rm @ Max Temp 
 MST .degC           21.999998:  Mud Sample Temperature 
 RUN .                     500:  Run Number 
 ROPA.m/hr            6.800000:  ROP Avg 
 ROPN.m/hr            0.100000:  ROP Min 
 ROPX.m/hr           31.799999:  ROP Max 
 RPMA.rpm            98.000000:  RPM Surface Avg 
 RPMN.rpm            65.000000:  RPM Surface Min 
 RPMX.rpm           115.000008:  RPM Surface Max 
 RRUN.                       6:  Rig Run Number 
 RTIM.hr              0.000000:  Time Reaming 
 SAZI.deg           198.550003:  Azm, Start 
 SDEP.m            4283.000000:  Start Depth 
 SIDD.                      No:  Serv Intrp, DD 
 SINC.deg             2.000000:  Inc, Start 
 SPPA.kPag        21042.951172:  SPP Avg 
 SPPN.kPag        19677.779297:  SPP Min 
 SPPX.kPag        25117.783203:  SPP Max 
 STIM.      23.30.00 10-Jun-21:  Start Time 
 SVCS.                 DD, MWD:  Services 
 SVER.                9.200000:  Sperry Version 
 TDAT.m             732.000000:  Tot Depth Attmp 
 TDDF.                      No:  Trip for DD 
 TDLG.m             732.000000:  Tot Depth Loggd 
 TFF .                      No:  Trip for Fail 
 TQAA.kN-m            8.134908:  Torque Abs Avg 
 TQAN.kN-m            8.134908:  Torque Abs Min 
 TQAX.kN-m           14.507253:  Torque Abs Max 
 TRRT.°/30m           0.000000:  Turn Rotating 
 MRT .                    HCIM:  Maximum Recorded Temperature 
 TTMX.degC          127.000000:  Max Tool Temp 
 VS01.                90649920:  Virtual Str1 SN 
 VS02.                90649925:  Virtual Str2 SN 
 VS03.                90649923:  Virtual Str3 SN 
 WBMN.kdN            10.230908:  WOB Min 
 WITN.          Rick Dzivinski:  Customer Rep 2 
 WITN.           Mark Jachmann:  Customer Rep 
 WOBA.kdN            16.636347:  WOB Avg 
 WOBX.kdN            20.906639:  WOB Max 
 YP  .pa             15.321648:  Yield Point 
~Curve Information Block
#MNEM.UNIT                 API CODE     Curve Description
#---------               -----------    ---------------------------
 DEPT.M                 00 000 000 000:  Depth
 AFRSAC.ohmm            00 000 000 000:  AFR Shallow Avg Res BC
 AFRMAC.ohmm            00 000 000 000:  AFR Medium Avg Res BC
 AFRDAC.ohmm            00 000 000 000:  AFR Deep Avg Res BC
#Other Information
#
#WARRANTY: Halliburton will use its best efforts to furnish customers with 
#accurate information and interpretations that are part of, and incident to, the services 
#provided.  However, Halliburton cannot and does not warrant the accuracy 
#or correctness of such information and interpretations.  Under no circumstances should any 
#such information or interpretation be relied upon as the sole basis for any drilling, 
#completion, production, or financial decision or any procedure involving any risk to the 
#safety of any drilling venture, drilling rig or its crew or any other third party.  The 
#Customer has full responsibility for all drilling, completion and production operation.  
#Halliburton makes no representations or warranties, either expressed or 
#implied, including, but not limited to, the implied warranties of merchantability or fitness 
#for a particular purpose, with respect to the services rendered.  In no event will 
#Halliburton be liable for failure to obtain any particular results or for 
#any damages, including, but not limited to, indirect, special or consequential damages, 
#resulting from the use of any information or interpretation provided by Halliburton.
#
~A   DEPT      AFRSAC     AFRMAC     AFRDAC   
# ...
   4256.4000    28.9720    29.5400    29.7216
   4256.5000    30.0985    30.8425    32.2255
   4256.6000    30.6610    42.2492    40.7055
   4256.7000    30.2272    89.1829    52.8381
   4256.8000    29.8148   279.8567    62.2255
   4256.9000    30.1324   479.1037    61.1152
   4257.0000    33.6533   349.7152    61.0755
   4257.1000    41.9146   162.8505    71.4905
   4257.2000    63.0923   101.3164   104.6190
   4257.3000    95.8960    88.0264   160.4464
   4257.4000   122.4997    87.7119   216.4706
   4257.5000   119.3890    94.9830   214.6038
   4257.6000   105.2807    90.6993   158.1390
   4257.7000    89.6066    94.4345   105.2895
   4257.8000    91.1098   104.2385    90.8845
   4257.9000    94.5652   101.7305    97.5069
   4258.0000   105.2747    91.3511   121.4040
   4258.1000   117.8627    92.7704   137.4921
   4258.2000   103.8232   104.5615   104.9013
   4258.3000    86.0085   101.2892    76.2740
   4258.4000    77.7374    91.1742    64.2318
   4258.5000    80.9534    89.1499    69.4139
   4258.6000    97.7558   106.7818    88.3037
   4258.7000   106.5005   139.0324   103.8333
   4258.8000    84.5413   104.9525    91.3465
   4258.9000    59.4831    63.1065    69.7871
   4259.0000    48.8290    56.3168    58.6966
   4259.1000    46.5196    68.5486    50.2388
   4259.2000    51.8093   105.3283    47.9735
   4259.3000    53.9200   120.9187    46.1364
   4259.4000    52.4099    71.1619    47.4717
   4259.5000    51.0752    53.1977    50.5866
   4259.6000    50.9394    49.7561    53.1303
   4259.7000    55.5938    57.4275    57.6318
   4259.8000    63.5118    68.5338    66.4408
   4259.9000    64.0095    66.6553    68.1013
   4260.0000    60.4337    63.1414    64.0975
   4260.1000    55.9814    56.7935    59.0149
   4260.2000    55.6637    56.7666    59.1501
   4260.3000    69.4848    69.3980    76.9142
   4260.4000    86.9513    90.9299   102.3604
   4260.5000   113.5315   126.8673   143.3203
   4260.6000   125.3619   149.3537   160.6356
   4260.7000   108.8142   130.1435   131.8030
   4260.8000    90.7429   100.3488   101.4335
   4260.9000    79.1325    80.9368    83.2868
   4261.0000    68.0803    64.6561    66.1443
   4261.1000    62.7441    57.7279    57.6432
   4261.2000    56.8072    52.7721    50.9414
   4261.3000    57.8698    55.6709    51.5214
   4261.4000    72.0338    73.1310    66.6032
   4261.5000   101.8390   110.6543   102.5904
   4261.6000   160.1794   184.1664   185.7190
   4261.7000   194.0749   214.8206   236.5124
   4261.8000   149.8195   149.7861   156.7029
   4261.9000   105.5131    96.0699    95.9932
   4262.0000    93.6355    81.4902    81.2061
   4262.1000   123.9552   105.7634   110.4394
   4262.2000   192.0054   164.3459   188.4832
   4262.3000   176.6501   159.6557   186.0009
   4262.4000   112.0263   104.2314   111.6565
   4262.5000    75.2337    67.1873    69.4010
   4262.6000    63.3042    56.5933    55.8484
   4262.7000    63.7956    56.8888    56.0742
   4262.8000    65.1377    61.2691    59.6840
   4262.9000    78.9018    79.8355    78.8640
   4263.0000   111.3038   123.0829   123.9573
   4263.1000   171.6244   213.4178   220.1376
   4263.2000   198.8101   263.5230   258.1634
   4263.3000   169.2910   226.8630   200.5497
   4263.4000   129.5441   155.0984   137.8444
   4263.5000    95.2914    94.6132    90.4709
   4263.6000    94.3920    83.4121    85.3930
   4263.7000    96.4216    82.9246    87.6223
   4263.8000   144.3312   123.9017   138.6808
   4263.9000   211.9555   194.1402   223.3209
   4264.0000   259.1807   247.6242   291.3472
   4264.1000   234.3450   241.7673   268.0226
   4264.2000   167.7073   169.1658   176.4859
   4264.3000   129.0969   119.5730   129.0474
   4264.4000   111.3853   105.2303   111.0584
   4264.5000   111.0241   114.7358   114.4292
   4264.6000   117.4677   127.5319   121.8579
   4264.7000   111.5754    98.8862   108.0590
   4264.8000    85.9515    74.5074    81.1484
   4264.9000    69.3980    68.7416    66.9285
   4265.0000    71.6572    85.3967    71.6667
   4265.1000    85.1562   113.8686    89.1215
   4265.2000    96.6148   117.6078   104.2572
   4265.3000   102.3698   111.5980   122.7613
   4265.4000   117.7181   133.7735   162.8747
   4265.5000   138.3155   162.4539   197.1802
   4265.6000   121.2291   139.0459   153.1198
   4265.7000   101.0654   108.7292   108.1129
   4265.8000    77.5630    76.1168    76.3173
   4265.9000    71.5914    66.4172    67.2921
   4266.0000    71.4365    66.5775    66.7663
   4266.1000    69.4399    65.3254    65.9940
   4266.2000    75.9043    74.4979    74.2719
   4266.3000    71.4235    72.0853    69.1032
   4266.4000    72.8315    74.1859    68.3630
   4266.5000    73.6545    73.4558    68.0879
   4266.6000    85.1868    81.6903    78.0276
   4266.7000   123.4417   119.5735   118.3036
   4266.8000   217.2852   242.0628   241.5367
   4266.9000   385.2027   515.8843   553.1491
   4267.0000   415.1937   525.9748   657.7881
   4267.1000   255.5654   241.2694   326.9828
   4267.2000   162.2229   124.4754   170.2190
   4267.3000   127.6152    91.1270   124.5234
   4267.4000   133.3509   100.8340   130.0170
   4267.5000   145.7695   139.9811   146.1102
   4267.6000   128.6320   166.2399   130.6978
   4267.7000    97.7176   149.3184    96.6003
   4267.8000    84.7767   144.4529    81.9802
   4267.9000    96.3213   148.3763    93.9487
   4268.0000   111.9953   124.3453   111.0663
   4268.1000    96.1724    68.5637    92.5426
   4268.2000    71.1041    43.3704    65.9419
   4268.3000    66.1766    40.2813    61.2313
   4268.4000    81.5373    51.9270    79.0950
   4268.5000   114.8820    76.2543   123.3432
   4268.6000   122.2339   102.8242   145.2964
   4268.7000   131.5991   121.1372   168.0896
   4268.8000   137.9401   127.3643   178.8396
   4268.9000   132.5508   135.3076   166.7440
   4269.0000   112.2208   118.3303   132.1469
   4269.1000    91.8007   103.9328   102.7663
   4269.2000    77.6714    85.3860    81.8814
   4269.3000    71.1195    68.0394    71.1192
   4269.4000    65.2830    58.6939    62.6889
   4269.5000    56.8055    51.2286    52.2838
   4269.6000    51.9422    47.4919    46.9277
   4269.7000    52.4784    48.3309    47.6893
   4269.8000    58.0202    53.5844    55.1119
   4269.9000    79.8017    73.9213    81.0937
   4270.0000   108.4566   102.8586   116.8880
   4270.1000   121.5693   113.5326   134.6747
   4270.2000   117.2854   115.9189   127.9464
   4270.3000   100.0115   102.2848   104.1370
   4270.4000    99.5166   101.5138   103.7215
   4270.5000   111.4916   111.8426   118.0983
   4270.6000   105.3211    92.9041   112.7245
   4270.7000    74.7555    64.8372    74.7342
   4270.8000    60.4553    52.2814    56.9356
   4270.9000    56.9030    49.5010    52.2946
   4271.0000    61.4886    57.4023    57.3347
   4271.1000    72.5896    79.1964    73.8370
   4271.2000    88.1345   113.5141    95.6029
   4271.3000    99.3738   154.3275   111.1749
   4271.4000   102.2625   133.1973   106.7343
   4271.5000    90.8620   102.5113    89.2186
   4271.6000    75.4089    80.9444    69.5944
   4271.7000    66.7972    68.8702    64.1174
   4271.8000    74.0031    79.5850    73.8253
   4271.9000    86.6828    99.8439    92.7089
   4272.0000   100.7989   124.2495   107.4398
   4272.1000    79.8485    99.7673    76.9204
   4272.2000    54.3089    58.9701    47.4528
   4272.3000    49.2588    49.5435    41.0444
   4272.4000    56.8036    52.8926    46.8867
   4272.5000    86.4757    78.0311    78.4531
   4272.6000   133.8849   121.3424   141.4465
   4272.7000   210.7750   215.0065   291.5792
   4272.8000   422.3673   571.9947  1270.4637
   4272.9000   931.6143  1595.7300  6687.3452
   4273.0000  1145.7650  2690.0574 12019.7246
   4273.1000   812.2941  1688.6786  3705.5481
   4273.2000   507.0364   691.5283   950.0541
   4273.3000   414.1187   522.3832   668.5689
   4273.4000   305.8695   551.0217   450.9009
   4273.5000   179.4221   482.8782   212.6887
   4273.6000   109.5255   239.8860   108.8739
   4273.7000    72.9965   117.0666    64.6990
