~Version Information
 VERS.                  2.0:   CWLS log ASCII Standard -VERSION 2.0
 WRAP.                   NO:   One line per depth step
~Well Information Block
#MNEM.UNIT     VALUE/NAME     DESCRIPTION
#---------     -----------    ---------------------------
 STRT.F              4550.0000: START DEPTH
 STOP.F              7650.0000: STOP DEPTH
 STEP.F                 0.5000: STEP DEPTH
 NULL.               -999.2500: NULL VALUE
 FTOP.          Formation Tops:  FORM TOPS DESC
 ILTD.               Lithology:  INTERP LTH DESC
 SVYD.               Survey_DS:  SURVEY DESC
 DMOD.             Drill Model:  DRILL MOD DESC
 DATE.      00.00.00 03-Apr-10:  END TIME
 STIM.      00.00.00 28-Mar-10:  START TIME
 DMF .           Kelly Bushing:  DRILL MEAS FROM
 PDAT.          Mean Sea Level:  PERMANENT DATUM
 DFST.                        :  DIST FSL TEXT
 DFWT.                        :  DIST FWL TEXT
 MMDL.            bggm2009.dat:  MAGNETIC MODEL
 MDS .              Win MagUTM:  MAG DATA SOURCE
 XYGR.     UTM Zones, Northern Hemisphere, Meters:  XYGROUP
 CGSY.               SS CLRK51:  CART GRID SYS
 CREF.     Ellipsoid Clarke - 1880:  CART REFERENCE
 CPJM.                        :  CART PROJ METHD
 CCDE.     UTM Clarke 1880 (CM 51), Meters:  CART COORD DESC
 LLGR.      Latitude/Longitude:  LLGROUP
 GGSY.                      LL:  GEO GRID SYS
 GREF.     Ellipsoid World Geodetic System :  GEO REFERENCE
 GPMT.                        :  GEO PROJ METHOD
 GCDE.     Generic Lat/Long's, Degrees, -180 ==> +180:  GEO COORD DESC
 SPUD.               20-Mar-10:  SPUD DATE
 MWDS.                   Dubai:  MWD SHOP
 JOBN.        AD-FE-0007255267:  JOB TICKET NUMB
 BASE.               Abu Dhabi:  LOGGING EQUIPMENT BASE LOCATION
 REGN.               Abu Dhabi:  REGION
 CULG.                        :  CUSTOMER LOGO
 COLG.           186HAL_lg.bmp:  COMPANY LOGO
 UNIT.                  166264:  LOGGING EQUIPMENT ID
 DOE .        AD-FE-0007255267:  DOE NUMBER
 UWI .        AD-FE-0007255267:  UNIQUE WELL IDENTIFIER
 API .        AD-FE-0007255267:  API NUMBER
 SON .        AD-FE-0007255267:  JOB NUMBER
 RANG.                        :  RANGE
 TOWN.                        :  TOWNSHIP
 SECT.                        :  SECTION
 DCON.             Al-Mansoory:  DIRECTNL CONTR
 LEAS.                        :  LEASE NAME
 SRVC.                     NDC:  CONTRACTOR
 CTRY.     United Arab Emirates:  COUNTRY NAME
 PROV.               Abu Dhabi:  PROVINCE
 STAT.               Abu Dhabi:  STATE NAME
 CNTY.               Abu Dhabi:  COUNTY NAME
 FLD .                    Shah:  FIELD NAME
 RIG .                   ND-50:  RIG NAME
 COMP.                    ADCO:  COMPANY
 WELL.            SY-027-1-04H:  WELL NAME
 LOC .                        :  LOCATION
 LMF .           Kelly Bushing:  LOG MEASURED FROM
 AZTC.deg             0.383835:  AZM TOTAL CORR
 GRDC.deg             1.093917:  GRID CORRECTION
 MDEC.deg             1.477752:  MAGNETIC DECL
 GVFD.g               1.000000:  GRAVITY FIELD
 MDIP.deg            34.939442:  MAGNETIC DIP
 MFLD.nT          42523.898438:  MAGNETIC FIELD
 VSDR.deg            55.740002:  VERT SEC DIRECT
 TDD .ft           7648.000000:  TOTAL DEPTH (DRILLER)
 STRD.ft           4648.000000:  START DEPTH
 APD .ft            429.000000:  DEPTH ABOVE PD
 EPD .ft              0.000000:  ELEVATION
 DFSL.ft              0.000000:  DISTANCE FSL
 DFWL.ft              0.000000:  DISTANCE FWL
 UTMY.m         2535096.000000:  UTM Y
 UTMX.m          788186.312500:  UTM X
 WHEW.ft              0.000000:  WELL HEAD E/W
 WHNS.ft              0.000000:  WELL HEAD N/S
 WDMS.ft              0.000000:  WD ELEV
 EGL .ft            407.799988:  GROUND ELEVATION
 TVDS.ft            429.000000:  TVDSS CORRECTN
 LONG.deg            53.809174:  LONGITUDE
 LATI.deg            22.900974:  LATITUDE
 VSEW.ft              0.000000:  VERT SEC E/W
 VSNS.ft              0.000000:  VERT SEC N/S
 CMER.deg            51.000000:  CENTRL MERIDIAN
 AGAP.ft              0.000000:  AIR GAP
 RCST.$/da            0.000000:  RIG COST
 EKB .ft            429.000000:  KB ELEVATION
 EDF .ft            428.000031:  DF ELEVATION
 TDL .ft           3000.000000:  TOTAL DEPTH (LOGGER)
 CSGD.ft           4170.000000:  CASING BOTTOM (DRILLER)
 CSGL.ft           4170.000000:  CASING BOTTOM (LOGGER)
 CSGS.in              9.625000:  CASING SIZE
 CSGW.lbpf           47.000000:  CASING WEIGHT
 HPTY.                       0:  HOLE POS TYPE
 NREF.                       2:  NORTH REFERENCE
 MAGU.                 1453103:  MAGUTM CHECKSUM
 VSC .                       0:  VS TO CLOSURE
 WTYP.                       2:  WELL TYPE
~Parameter Information Block
#MNEM.UNIT       Value        Description
#---------     -----------    ---------------------------
 R1  .     ‘ÁHDrilled 6" horizontal hole F/4648' T/7655'.:  Run Comments 1 
 TDL .ft           3000.000000:  Tot Depth Loggd 
 RRUN.                       4:  Rig Run Number 
 STRD.ft           4648.000000:  Start Depth 
 EDEP.ft           7648.000000:  End Depth 
 STIM.      22.00.32 30-Mar-10:  Start Time 
 ETIM.      20.37.20 04-Apr-10:  End Time 
 TLAB.      00.00.00 31-Mar-10:  Log Start Time 
 TLAT.      14.00.32 03-Apr-10:  Log End Time 
 ENG2.             Ahmed Samir:  Engineer 2 
 ENG3.       Sherif Abdel Aziz:  Engineer 3 
 WITN.        Hamed Abu Shanab:  Customer Rep 
 ORT .hr            129.396225:  Time Operating 
 DFT .                   Other:  Mud Type 
 DFV .spqt           40.000000:  Mud Viscosity 
 PH  .pH             10.000000:  Mud pH 
 DFL .mptm            7.000000:  Fluid Loss 
 RMS .ohmm            0.180000:  Mud Resistivity 
 MST .degF           74.000000:  Mud Sample Temperature 
 RMFS.ohmm            0.120000:  Mud Filtrate Resistivity 
 RMFT.degF           77.000000:  Mud Filtrate Sample Temperature 
 RMCS.ohmm            0.240000:  Mud Cake Resistivity 
 MCST.degF           70.000000:  Mud Cake Sample Temperature 
 RMB .ohmm            0.000000:  Rm @ Max Temp 
 ROP .fph            40.000000:  ROP Avg 
 ROP .fph            20.000000:  ROP Min 
 ROP .fph            60.000004:  ROP Max 
 BS  .in              0.000000:  Bit Size 
 TCS .hr             91.370071:  Time Ciculation Ended 
 RUN .                     400:  Run Number 
 DFD .ppg             8.690000:  Mud Density 
 MRT .                    HCIM:  Maximum Recorded Temperature 
~Parameter Information Block
#MNEM.UNIT       Value        Description
#---------     -----------    ---------------------------
 DFB .ft             50.060001:  Dist From Bit 
 SNIN.                  157772:  SN Insert 
 SP1 .sec            14.000000:  Sample Period 1 
 NOB .                8.000000:  Number Of Bins 
 DFB .ft             83.949997:  Dist From Bit 
 DFB .ft             98.709999:  Dist From Bit 
 SP1 .sec            14.000000:  Sample Period 1 
 SNIN.                  109091:  SN Insert 
 DDSV.sec            25.400002:  DDS AgvZ Total 
 DDSV.sec          4074.400391:  DDS AgvY Total 
 DDSV.sec          3504.600098:  DDS AgvX Total 
 DDSV.               90.000000:  DDS PkZ 10-15g 
 DDSV.              252.000000:  DDS PkY 25-40g 
 DDSV.              267.000000:  DDS PkX 25-40g 
 DDSV.sec            24.800001:  DDS AvgZ 1-2g 
 DDSV.sec          3932.800293:  DDS AvgY 1-2g 
 DDSV.sec             7.000000:  DDS AvgX 4-6g 
 DFB .ft             74.589996:  Dist From Bit 
 SNIN.                10990582:  SN Insert 
 SP1 .sec            12.000000:  Sample Period 1 
 DDSV.g              44.400002:  DDS AvgX Max 
 DDSV.sec             3.400000:  DDS AvgX 15+g 
 DDSV.sec             0.800000:  DDS AvgY 10-15g 
 DDSV.sec             0.000000:  DDS AvgZ 6-10g 
 DDSV.                6.000000:  DDS PkX 90-130g 
 DDSV.                3.000000:  DDS PkY 90-130g 
 DDSV.              213.000000:  DDS PkZ 30-50g 
 DDSV.sec             4.400000:  DDS AvgX 6-10g 
 DDSV.sec             6.800000:  DDS AvgY 4-6g 
 DDSV.sec             0.000000:  DDS AvgZ 4-6g 
 DDSV.               24.000000:  DDS PkX 60-90g 
 DDSV.                0.000000:  DDS PkZ 50+g 
 SP1 .sec            12.000000:  Sample Period 1 
 SNIN.                  105840:  SN Insert 
 DFB .ft             71.680000:  Dist From Bit 
 SNIN.                  TL-028:  SN Insert 
 SNC .                  TL-028:  SN Collar 
 TID .               28.000000:  Tool Identifier 
 DFB .ft             10.000000:  Dist From Bit 
 SNIN.                  270968:  SN Insert 
 SNIN.                  300324:  SN Insert 
 DFB .ft             36.639999:  Dist From Bit 
 SNIN.             11145527463:  SN Insert 
 DFB .ft              0.000000:  Dist From Bit 
 OTY .              Jet Oil II:  Oil Type 
 SNC .                 1127515:  SN Collar 
 SNIN.                  266071:  SN Insert 
 SP1 .sec             2.000000:  Sample Period 1 
 DFB .ft            110.440002:  Dist From Bit 
 DFB .ft             64.690002:  Dist From Bit 
 SNTX.                  270121:  SN Trans Insert 
 SP1 .sec            12.000000:  Sample Period 1 
~Curve Information Block
#MNEM.UNIT                 API CODE     Curve Description
#---------               -----------    ---------------------------
 DEPT.F                 00 000 000 000:  Depth
 SROP.fph               00 000 000 000:  Avg Rate of Penetration
 TVD .ft                00 000 000 000:  ROP True Vertical Depth
 SGRC.api               00 000 000 000:  DGR Combined Gamma Ray
 CALI.in                00 000 000 000:  ALD Hole Size Indicator
 DPHF.ohmm              00 000 000 000:  DP HF Res
 MDHF.ohmm              00 000 000 000:  MD HF Res
 SHHF.ohmm              00 000 000 000:  SH HF Res
 AMR .ohmm              00 000 000 000:  AFR Mud Resistivity
 SEDP.ohmm              00 000 000 000:  EWR Deep Phase Res
 SEMP.ohmm              00 000 000 000:  EWR Medium EWR Phase Res
 SESP.ohmm              00 000 000 000:  EWR Shallow EWR Phase Res
 SEXP.ohmm              00 000 000 000:  EWR Ext Shallow Phase Res
 SPLF.pu                00 000 000 000:  CTN Porosity Limestone
 SBD2.g/cc              00 000 000 000:  ALD LCRB Comp Density
 SNP2.b/e               00 000 000 000:  ALD LCRB Pe Factor
 SCO2.g/cc              00 000 000 000:  ALD LCRB Den Correction
~A   DEPT      SROP       TVD      SGRC      CALI       DPHF       MDHF      SHHF       AMR      SEDP      SEMP      SESP      SEXP      SPLF      SBD2      SNP2      SCO2    
# ...
   5976.0000   44.7026 4126.2407   83.2769    5.9928    33.6806    31.5205   25.5508    0.0815   88.1069   68.0545   68.1600   50.5870   22.9412    2.2929    3.7076    0.0405 
   5976.5000   50.3252 4126.2617   83.1296    5.9862    35.8765    32.5286   27.0934    0.0815   85.5922   67.7274   65.5209   50.3718   22.7482    2.3037    3.7179    0.0397 
   5977.0000   55.4258 4126.2822   83.6089    5.9731    40.6868    36.8159   30.3675    0.0815   83.4865   67.7532   64.3163   51.4975   22.4336    2.3075    3.7257    0.0415 
   5977.5000   57.8123 4126.3032   82.8371    5.9671    42.0609    38.1048   31.2417    0.0815   83.5332   68.1870   64.8791   53.0195   22.4230    2.3078    3.7211    0.0458 
   5978.0000   56.2122 4126.3242   83.0479    5.9898    37.9492    34.1366   28.2295    0.0815   83.3757   67.3458   65.2367   54.8648   22.5674    2.3072    3.6898    0.0532 
   5978.5000   52.4081 4126.3452   85.1326    6.0415    33.4109    28.8358   24.7480    0.0815   84.7663   67.1709   66.5739   57.3419   22.6909    2.3056    3.6737    0.0562 
   5979.0000   50.6069 4126.3662   85.9861    6.0835    27.4064    24.7754   21.2366    0.0816   86.3519   65.9386   68.1013   56.5771   23.2617    2.2965    3.6979    0.0527 
   5979.5000   52.6733 4126.3872   86.0464    6.0919    22.3916    21.4063   17.8098    0.0817   85.6211   64.2718   66.3614   54.7755   24.2679    2.2798    3.7002    0.0493 
   5980.0000   56.9210 4126.4082   86.1812    6.0925    22.6733    21.1934   17.6557    0.0818   85.8073   61.0859   64.4408   50.2709   25.1784    2.2616    3.7192    0.0403 
   5980.5000   62.6737 4126.4292   84.9595    6.0424    25.3649    24.3099   18.9699    0.0818   85.7308   58.2585   61.4796   45.9321   25.6210    2.2507    3.7596    0.0389 
   5981.0000   64.9979 4126.4502   85.8967    6.0243    26.7077    26.9221   19.5270    0.0818   86.8968   58.3963   58.6562   41.7801   25.3484    2.2546    3.7464    0.0471 
   5981.5000   61.7506 4126.4712   87.6053    6.0344    26.7493    28.5129   19.6087    0.0818   83.8346   60.5414   54.0233   38.6680   24.4452    2.2687    3.6989    0.0591 
   5982.0000   58.4484 4126.4922   90.8543    6.0733    26.6341    27.8952   19.9287    0.0819   79.8500   63.1029   50.0090   38.8811   24.0281    2.2852    3.6298    0.0643 
   5982.5000   57.7217 4126.5132   92.6299    6.0995    26.2639    25.4266   20.1683    0.0820   79.1423   66.8700   49.8463   41.0862   24.0358    2.2951    3.5770    0.0675 
   5983.0000   56.8989 4126.5342   90.8335    6.1294    29.2949    26.4878   22.9811    0.0821   79.0606   71.9766   52.6283   43.2880   24.1332    2.3016    3.6122    0.0557 
   5983.5000   51.9110 4126.5552   88.5334    6.1103    35.8567    32.4207   27.7569    0.0821   80.1260   77.4284   55.9504   46.6720   24.1825    2.3002    3.7105    0.0448 
   5984.0000   43.6663 4126.5757   85.2209    6.0928    40.0405    37.8498   30.3938    0.0820   84.1373   81.8591   60.9832   53.1992   23.4464    2.3137    3.7304    0.0458 
   5984.5000   36.9579 4126.5967   83.8039    6.0823    41.5702    40.0500   32.3711    0.0819   88.9552   85.8252   69.5196   60.0122   22.3893    2.3283    3.7078    0.0436 
   5985.0000   35.1794 4126.6177   85.2650    6.0383    43.1832    41.3830   34.8950    0.0819   93.7948   90.4692   78.2109   66.0535   22.2609    2.3298    3.6884    0.0423 
   5985.5000   43.3613 4126.6387   86.7055    6.0242    44.6813    42.0253   36.7966    0.0819   97.1505   96.7811   84.6876   71.1755   22.3296    2.3329    3.6539    0.0431 
   5986.0000   46.0900 4126.6597   86.5203    6.0295    48.1730    46.4396   40.0005    0.0819  100.4275  101.7042   89.3673   76.5155   22.3091    2.3276    3.6211    0.0406 
   5986.5000   46.8316 4126.6802   84.6582    6.0133    50.6245    50.0555   42.6060    0.0819  104.7099  102.7119   94.7833   85.7713   22.5770    2.3106    3.5519    0.0379 
   5987.0000   50.6498 4126.7012   82.9024    5.9840    47.3991    45.4256   40.4257    0.0819  111.5941  106.2499  103.1858   92.2435   23.0734    2.2872    3.4913    0.0324 
   5987.5000   59.0243 4126.7222   81.8670    5.9505    48.3550    46.2950   41.4538    0.0820  117.2693  110.3694  112.7861   90.1519   22.8934    2.2652    3.4744    0.0248 
   5988.0000   67.8837 4126.7432   79.0896    5.9159    54.0381    52.0622   45.2950    0.0820  120.7487  113.9317  114.9622   90.5471   23.2054    2.2494    3.4876    0.0299 
   5988.5000   74.1563 4126.7637   74.5866    5.9340    58.0737    53.7991   46.7943    0.0820  123.6737  115.8564  118.2422   94.4898   23.6449    2.2565    3.4780    0.0390 
   5989.0000   76.2912 4126.7847   71.9860    5.9676    63.2480    57.1236   49.8779    0.0819  125.0887  110.5270  122.1499   97.8450   23.5753    2.2743    3.4548    0.0432 
   5989.5000   77.4796 4126.8057   72.6557    5.9804    63.1984    57.7211   49.5465    0.0818  126.4248  108.4312  124.7951   97.2603   23.5668    2.2871    3.4595    0.0445 
   5990.0000   79.2189 4126.8262   73.2631    5.9860    55.9535    52.2860   43.5314    0.0817  126.4548  115.0906  124.5772   92.6917   23.5567    2.2934    3.4637    0.0444 
   5990.5000   79.6434 4126.8472   73.3958    5.9972    55.0591    52.5020   43.0049    0.0816  122.5718  116.4354  117.9031   88.7063   23.5370    2.2885    3.4666    0.0408 
   5991.0000   79.4920 4126.8677   74.5920    6.0049    54.0244    52.2307   42.3665    0.0817  123.1003  115.8597  114.5360   91.7108   23.6838    2.2779    3.4354    0.0404 
   5991.5000   78.0171 4126.8887   76.6200    6.0166    45.8908    45.1252   37.3031    0.0819  130.4924  119.0534  119.0476   91.2009   23.9698    2.2720    3.4267    0.0456 
   5992.0000   73.1145 4126.9092   79.6766    6.0327    41.1767    41.1729   35.2270    0.0821  134.4501  108.7482  117.5471   90.6727   24.5216    2.2671    3.4670    0.0459 
   5992.5000   67.9133 4126.9302   81.5484    6.0305    37.5894    38.3855   32.7620    0.0822  137.1870   99.8930  117.3293   92.9546   25.5526    2.2602    3.4832    0.0450 
   5993.0000   67.6498 4126.9507   83.0464    6.0270    40.1342    40.5398   34.6384    0.0821  140.9788   99.5289  121.8115   83.2116   25.3010    2.2581    3.4930    0.0410 
   5993.5000   72.7981 4126.9717   83.9461    6.0020    49.0503    47.0177   40.7067    0.0820  129.7241   97.2912  108.9946   78.2281   25.0795    2.2550    3.5120    0.0420 
   5994.0000   79.9970 4126.9927   84.0721    6.0036    49.7498    44.0692   39.9469    0.0819  122.1719   96.3788  101.7325   80.8617   24.8171    2.2582    3.5089    0.0457 
   5994.5000   82.6259 4127.0132   81.9485    6.0288    47.5453    38.7818   37.4832    0.0819  121.4338  102.1939  104.7991   77.7554   24.2329    2.2642    3.5497    0.0427 
   5995.0000   83.3590 4127.0342   78.0145    6.0254    44.6842    38.4466   35.6955    0.0818  119.9178  107.3425  102.6542   75.5939   24.1412    2.2674    3.6248    0.0368 
   5995.5000   85.7682 4127.0547   75.9642    6.0043    43.9856    42.4079   36.7572    0.0818  119.6673  110.1486   99.5395   76.3386   24.2335    2.2754    3.7059    0.0396 
   5996.0000   78.1187 4127.0752   78.0360    6.0433    44.3539    41.4303   37.5174    0.0817  127.7506  110.1187  101.4685   77.1167   23.9124    2.2986    3.7075    0.0490 
   5996.5000   70.8780 4127.0962   79.5792    6.1062    40.0014    33.9355   33.5808    0.0818  134.0662  108.9177  104.8235   77.3903   23.7359    2.3138    3.6147    0.0547 
   5997.0000   70.8760 4127.1167   79.7694    6.1274    39.6132    32.2402   32.4048    0.0818  137.6369  104.6680  107.4138   75.3869   24.2799    2.3024    3.5267    0.0538 
   5997.5000   74.7535 4127.1372   80.2909    6.1140    43.2927    34.5995   33.5274    0.0819  136.8044  100.1572  106.1444   73.5686   25.0530    2.2811    3.5071    0.0512 
   5998.0000   78.6177 4127.1577   81.1588    6.0833    48.9744    40.4216   36.6697    0.0823  135.5559   98.2691  104.1523   70.2434   25.4583    2.2669    3.5435    0.0468 
   5998.5000   80.6047 4127.1787   80.0758    6.0352    55.5119    48.1445   40.0721    0.0824  132.7008   98.4538  100.1123   69.4977   25.4895    2.2651    3.5264    0.0470 
