~Version Information
 VERS.                  2.0:   CWLS log ASCII Standard -VERSION 2.0
 WRAP.                   NO:   One line per depth step
~Well Information Block
#MNEM.UNIT     VALUE/NAME     DESCRIPTION
#---------     -----------    ---------------------------
 STRT.F              4550.0000: START DEPTH
 STOP.F              7650.0000: STOP DEPTH
 STEP.F                 0.5000: STEP DEPTH
 NULL.               -999.2500: NULL VALUE
 FTOP.          Formation Tops:  FORM TOPS DESC
 ILTD.               Lithology:  INTERP LTH DESC
 SVYD.               Survey_DS:  SURVEY DESC
 DMOD.             Drill Model:  DRILL MOD DESC
 DATE.      00.00.00 03-Apr-10:  END TIME
 STIM.      00.00.00 28-Mar-10:  START TIME
 DMF .           Kelly Bushing:  DRILL MEAS FROM
 PDAT.          Mean Sea Level:  PERMANENT DATUM
 DFST.                        :  DIST FSL TEXT
 DFWT.                        :  DIST FWL TEXT
 MMDL.            bggm2009.dat:  MAGNETIC MODEL
 MDS .              Win MagUTM:  MAG DATA SOURCE
 XYGR.     UTM Zones, Northern Hemisphere, Meters:  XYGROUP
 CGSY.               SS CLRK51:  CART GRID SYS
 CREF.     Ellipsoid Clarke - 1880:  CART REFERENCE
 CPJM.                        :  CART PROJ METHD
 CCDE.     UTM Clarke 1880 (CM 51), Meters:  CART COORD DESC
 LLGR.      Latitude/Longitude:  LLGROUP
 GGSY.                      LL:  GEO GRID SYS
 GREF.     Ellipsoid World Geodetic System :  GEO REFERENCE
 GPMT.                        :  GEO PROJ METHOD
 GCDE.     Generic Lat/Long's, Degrees, -180 ==> +180:  GEO COORD DESC
 SPUD.               20-Mar-10:  SPUD DATE
 MWDS.                   Dubai:  MWD SHOP
 JOBN.        AD-FE-0007255267:  JOB TICKET NUMB
 BASE.               Abu Dhabi:  LOGGING EQUIPMENT BASE LOCATION
 REGN.               Abu Dhabi:  REGION
 CULG.                        :  CUSTOMER LOGO
 COLG.           186HAL_lg.bmp:  COMPANY LOGO
 UNIT.                  166264:  LOGGING EQUIPMENT ID
 DOE .        AD-FE-0007255267:  DOE NUMBER
 UWI .        AD-FE-0007255267:  UNIQUE WELL IDENTIFIER
 API .        AD-FE-0007255267:  API NUMBER
 SON .        AD-FE-0007255267:  JOB NUMBER
 RANG.                        :  RANGE
 TOWN.                        :  TOWNSHIP
 SECT.                        :  SECTION
 DCON.             Al-Mansoory:  DIRECTNL CONTR
 LEAS.                        :  LEASE NAME
 SRVC.                     NDC:  CONTRACTOR
 CTRY.     United Arab Emirates:  COUNTRY NAME
 PROV.               Abu Dhabi:  PROVINCE
 STAT.               Abu Dhabi:  STATE NAME
 CNTY.               Abu Dhabi:  COUNTY NAME
 FLD .                    Shah:  FIELD NAME
 RIG .                   ND-50:  RIG NAME
 COMP.                    ADCO:  COMPANY
 WELL.            SY-027-1-04H:  WELL NAME
 LOC .                        :  LOCATION
 LMF .           Kelly Bushing:  LOG MEASURED FROM
 AZTC.deg             0.383835:  AZM TOTAL CORR
 GRDC.deg             1.093917:  GRID CORRECTION
 MDEC.deg             1.477752:  MAGNETIC DECL
 GVFD.g               1.000000:  GRAVITY FIELD
 MDIP.deg            34.939442:  MAGNETIC DIP
 MFLD.nT          42523.898438:  MAGNETIC FIELD
 VSDR.deg            55.740002:  VERT SEC DIRECT
 TDD .ft           7648.000000:  TOTAL DEPTH (DRILLER)
 STRD.ft           4648.000000:  START DEPTH
 APD .ft            429.000000:  DEPTH ABOVE PD
 EPD .ft              0.000000:  ELEVATION
 DFSL.ft              0.000000:  DISTANCE FSL
 DFWL.ft              0.000000:  DISTANCE FWL
 UTMY.m         2535096.000000:  UTM Y
 UTMX.m          788186.312500:  UTM X
 WHEW.ft              0.000000:  WELL HEAD E/W
 WHNS.ft              0.000000:  WELL HEAD N/S
 WDMS.ft              0.000000:  WD ELEV
 EGL .ft            407.799988:  GROUND ELEVATION
 TVDS.ft            429.000000:  TVDSS CORRECTN
 LONG.deg            53.809174:  LONGITUDE
 LATI.deg            22.900974:  LATITUDE
 VSEW.ft              0.000000:  VERT SEC E/W
 VSNS.ft              0.000000:  VERT SEC N/S
 CMER.deg            51.000000:  CENTRL MERIDIAN
 AGAP.ft              0.000000:  AIR GAP
 RCST.$/da            0.000000:  RIG COST
 EKB .ft            429.000000:  KB ELEVATION
 EDF .ft            428.000031:  DF ELEVATION
 TDL .ft           3000.000000:  TOTAL DEPTH (LOGGER)
 CSGD.ft           4170.000000:  CASING BOTTOM (DRILLER)
 CSGL.ft           4170.000000:  CASING BOTTOM (LOGGER)
 CSGS.in              9.625000:  CASING SIZE
 CSGW.lbpf           47.000000:  CASING WEIGHT
 HPTY.                       0:  HOLE POS TYPE
 NREF.                       2:  NORTH REFERENCE
 MAGU.                 1453103:  MAGUTM CHECKSUM
 VSC .                       0:  VS TO CLOSURE
 WTYP.                       2:  WELL TYPE
~Parameter Information Block
#MNEM.UNIT       Value        Description
#---------     -----------    ---------------------------
 R1  .     ‘ÁHDrilled 6" horizontal hole F/4648' T/7655'.:  Run Comments 1 
 TDL .ft           3000.000000:  Tot Depth Loggd 
 RRUN.                       4:  Rig Run Number 
 STRD.ft           4648.000000:  Start Depth 
 EDEP.ft           7648.000000:  End Depth 
 STIM.      22.00.32 30-Mar-10:  Start Time 
 ETIM.      20.37.20 04-Apr-10:  End Time 
 TLAB.      00.00.00 31-Mar-10:  Log Start Time 
 TLAT.      14.00.32 03-Apr-10:  Log End Time 
 ENG2.             Ahmed Samir:  Engineer 2 
 ENG3.       Sherif Abdel Aziz:  Engineer 3 
 WITN.        Hamed Abu Shanab:  Customer Rep 
 ORT .hr            129.396225:  Time Operating 
 DFT .                   Other:  Mud Type 
 DFV .spqt           40.000000:  Mud Viscosity 
 PH  .pH             10.000000:  Mud pH 
 DFL .mptm            7.000000:  Fluid Loss 
 RMS .ohmm            0.180000:  Mud Resistivity 
 MST .degF           74.000000:  Mud Sample Temperature 
 RMFS.ohmm            0.120000:  Mud Filtrate Resistivity 
 RMFT.degF           77.000000:  Mud Filtrate Sample Temperature 
 RMCS.ohmm            0.240000:  Mud Cake Resistivity 
 MCST.degF           70.000000:  Mud Cake Sample Temperature 
 RMB .ohmm            0.000000:  Rm @ Max Temp 
 ROP .fph            40.000000:  ROP Avg 
 ROP .fph            20.000000:  ROP Min 
 ROP .fph            60.000004:  ROP Max 
 BS  .in              0.000000:  Bit Size 
 TCS .hr             91.370071:  Time Ciculation Ended 
 RUN .                     400:  Run Number 
 DFD .ppg             8.690000:  Mud Density 
 MRT .                    HCIM:  Maximum Recorded Temperature 
~Parameter Information Block
#MNEM.UNIT       Value        Description
#---------     -----------    ---------------------------
 DFB .ft             50.060001:  Dist From Bit 
 SNIN.                  157772:  SN Insert 
 SP1 .sec            14.000000:  Sample Period 1 
 NOB .                8.000000:  Number Of Bins 
 DFB .ft             83.949997:  Dist From Bit 
 DFB .ft             98.709999:  Dist From Bit 
 SP1 .sec            14.000000:  Sample Period 1 
 SNIN.                  109091:  SN Insert 
 DDSV.sec            25.400002:  DDS AgvZ Total 
 DDSV.sec          4074.400391:  DDS AgvY Total 
 DDSV.sec          3504.600098:  DDS AgvX Total 
 DDSV.               90.000000:  DDS PkZ 10-15g 
 DDSV.              252.000000:  DDS PkY 25-40g 
 DDSV.              267.000000:  DDS PkX 25-40g 
 DDSV.sec            24.800001:  DDS AvgZ 1-2g 
 DDSV.sec          3932.800293:  DDS AvgY 1-2g 
 DDSV.sec             7.000000:  DDS AvgX 4-6g 
 DFB .ft             74.589996:  Dist From Bit 
 SNIN.                10990582:  SN Insert 
 SP1 .sec            12.000000:  Sample Period 1 
 DDSV.g              44.400002:  DDS AvgX Max 
 DDSV.sec             3.400000:  DDS AvgX 15+g 
 DDSV.sec             0.800000:  DDS AvgY 10-15g 
 DDSV.sec             0.000000:  DDS AvgZ 6-10g 
 DDSV.                6.000000:  DDS PkX 90-130g 
 DDSV.                3.000000:  DDS PkY 90-130g 
 DDSV.              213.000000:  DDS PkZ 30-50g 
 DDSV.sec             4.400000:  DDS AvgX 6-10g 
 DDSV.sec             6.800000:  DDS AvgY 4-6g 
 DDSV.sec             0.000000:  DDS AvgZ 4-6g 
 DDSV.               24.000000:  DDS PkX 60-90g 
 DDSV.                0.000000:  DDS PkZ 50+g 
 SP1 .sec            12.000000:  Sample Period 1 
 SNIN.                  105840:  SN Insert 
 DFB .ft             71.680000:  Dist From Bit 
 SNIN.                  TL-028:  SN Insert 
 SNC .                  TL-028:  SN Collar 
 TID .               28.000000:  Tool Identifier 
 DFB .ft             10.000000:  Dist From Bit 
 SNIN.                  270968:  SN Insert 
 SNIN.                  300324:  SN Insert 
 DFB .ft             36.639999:  Dist From Bit 
 SNIN.             11145527463:  SN Insert 
 DFB .ft              0.000000:  Dist From Bit 
 OTY .              Jet Oil II:  Oil Type 
 SNC .                 1127515:  SN Collar 
 SNIN.                  266071:  SN Insert 
 SP1 .sec             2.000000:  Sample Period 1 
 DFB .ft            110.440002:  Dist From Bit 
 DFB .ft             64.690002:  Dist From Bit 
 SNTX.                  270121:  SN Trans Insert 
 SP1 .sec            12.000000:  Sample Period 1 
~Curve Information Block
#MNEM.UNIT                 API CODE     Curve Description
#---------               -----------    ---------------------------
 DEPT.F                 00 000 000 000:  Depth
 SROP.fph               00 000 000 000:  Avg Rate of Penetration
 TVD .ft                00 000 000 000:  ROP True Vertical Depth
 SGRC.api               00 000 000 000:  DGR Combined Gamma Ray
 CALI.in                00 000 000 000:  ALD Hole Size Indicator
 DPHF.ohmm              00 000 000 000:  DP HF Res
 MDHF.ohmm              00 000 000 000:  MD HF Res
 SHHF.ohmm              00 000 000 000:  SH HF Res
 AMR .ohmm              00 000 000 000:  AFR Mud Resistivity
 SEDP.ohmm              00 000 000 000:  EWR Deep Phase Res
 SEMP.ohmm              00 000 000 000:  EWR Medium EWR Phase Res
 SESP.ohmm              00 000 000 000:  EWR Shallow EWR Phase Res
 SEXP.ohmm              00 000 000 000:  EWR Ext Shallow Phase Res
 SPLF.pu                00 000 000 000:  CTN Porosity Limestone
 SBD2.g/cc              00 000 000 000:  ALD LCRB Comp Density
 SNP2.b/e               00 000 000 000:  ALD LCRB Pe Factor
 SCO2.g/cc              00 000 000 000:  ALD LCRB Den Correction
~A   DEPT      SROP       TVD      SGRC      CALI       DPHF       MDHF      SHHF       AMR      SEDP      SEMP      SESP      SEXP      SPLF      SBD2      SNP2      SCO2    
# ...
   4964.0000   48.0977 4090.5430   86.4610    6.0922     6.6207     5.8092    4.8955    0.0845   12.4581   10.6189    9.4345    7.9498   28.5818    2.2990    2.8808    0.0697 
   4964.5000   50.3591 4090.5598   88.5147    6.0986     6.2981     5.4539    4.8102    0.0844   12.4309   10.4626    9.3573    7.9371   28.6900    2.3003    2.8855    0.0718 
   4965.0000   52.2683 4090.5767   89.5008    6.1086     6.4882     5.5517    5.0294    0.0844   12.3739   10.2299    9.3234    7.8569   28.7432    2.3012    2.8834    0.0728 
   4965.5000   53.1686 4090.5942   89.3720    6.1168     6.9178     5.8831    5.3563    0.0844   12.3181   10.2126    9.3042    7.7535   28.5466    2.2957    2.8796    0.0741 
   4966.0000   52.8954 4090.6116   88.9521    6.1265     7.2893     6.2048    5.6323    0.0844   12.1686   10.3471    9.2397    7.7075   28.3900    2.2910    2.8794    0.0733 
   4966.5000   50.7823 4090.6292   86.4906    6.1258     7.8500     6.8068    6.0198    0.0845   12.0459   10.5081    9.1539    7.8761   28.6714    2.2870    2.9500    0.0707 
   4967.0000   48.1645 4090.6465   84.4968    6.1170     8.5632     7.4774    6.4883    0.0845   12.2733   10.7246    9.2201    8.1332   28.9528    2.2881    2.9920    0.0718 
   4967.5000   45.7266 4090.6641   84.5900    6.1197     8.5730     7.3853    6.4312    0.0844   12.5755   10.8896    9.3782    8.4080   28.9323    2.2995    3.0139    0.0700 
   4968.0000   42.0689 4090.6814   84.2890    6.1034     7.9451     6.6698    5.9369    0.0843   12.7457   10.8311    9.5152    8.6293   28.0863    2.3130    3.0311    0.0663 
   4968.5000   38.3417 4090.6987   83.3313    6.0795     7.4527     6.1928    5.6112    0.0841   12.9058   10.8208    9.6679    8.7964   26.7786    2.3275    3.0582    0.0631 
   4969.0000   39.3847 4090.7163   84.6168    6.0604     7.2880     6.1530    5.4629    0.0841   13.0227   10.8565    9.8127    8.8346   25.6667    2.3410    3.0724    0.0684 
   4969.5000   45.1672 4090.7336   85.9336    6.0850     7.2833     6.2013    5.3663    0.0843   12.8700   11.0565    9.8722    8.7899   25.0649    2.3587    3.0439    0.0758 
   4970.0000   51.8967 4090.7512   86.6194    6.1232     7.2809     6.2633    5.2725    0.0845   12.8393   11.3293    9.9391    8.7021   24.7710    2.3611    2.9726    0.0754 
   4970.5000   55.3066 4090.7690   88.9450    6.1322     7.2481     6.4294    5.2577    0.0846   12.9389   11.5383    9.9718    8.6393   25.0484    2.3444    2.9773    0.0711 
   4971.0000   55.8071 4090.7866   91.3498    6.1344     6.6155     6.0173    4.8591    0.0847   13.4432   11.7570   10.0234    8.4975   25.6804    2.3236    3.0515    0.0644 
   4971.5000   58.2052 4090.8044   95.1128    6.1370     5.7150     5.1954    4.2953    0.0846   14.1236   11.9509    9.9348    8.2596   26.7975    2.3057    3.1497    0.0588 
   4972.0000   60.3337 4090.8220   98.8575    6.1342     5.2238     4.7113    4.0306    0.0845   14.7018   11.8448    9.6762    8.0388   27.8967    2.2931    3.2460    0.0574 
   4972.5000   61.0184 4090.8398  102.3758    6.1328     5.3909     4.7362    4.1561    0.0844   15.2548   11.3450    9.4258    7.8158   28.5413    2.2848    3.2651    0.0654 
   4973.0000   61.5929 4090.8574  105.7348    6.1678     6.1607     5.3917    4.6985    0.0842   15.6334   10.9105    9.2860    7.5173   28.7467    2.2835    3.2265    0.0763 
   4973.5000   61.4408 4090.8752  107.7211    6.2296     7.3111     6.5202    5.4267    0.0840   15.3700   10.9245    9.1313    7.3132   29.1106    2.2860    3.1705    0.0779 
   4974.0000   58.5525 4090.8928  109.6548    6.2329     8.5390     7.6839    6.1778    0.0839   14.5127   11.3799    8.9938    7.3359   29.7634    2.2719    3.1568    0.0736 
   4974.5000   53.3096 4090.9106  111.2972    6.1919     9.2138     8.2359    6.6645    0.0840   13.7347   11.9855    8.9816    7.6490   29.6550    2.2547    3.1985    0.0677 
   4975.0000   46.1911 4090.9285  109.2165    6.1350     8.9964     7.9069    6.5838    0.0842   13.5478   12.6904    9.2430    8.3326   29.0688    2.2520    3.2836    0.0615 
   4975.5000   38.5530 4090.9458  106.0635    6.0845     8.8035     7.5977    6.5288    0.0843   13.8309   13.5309    9.8953    8.9279   27.8513    2.2636    3.4124    0.0577 
   4976.0000   30.6478 4090.9634  102.5023    6.0559     8.6733     7.4645    6.5250    0.0844   14.2924   13.9997   10.5367    9.6275   26.2164    2.2848    3.4945    0.0568 
   4976.5000   25.2432 4090.9810  100.6085    6.0591     8.4296     7.3344    6.3948    0.0844   14.9555   14.3188   11.2999   10.3971   24.8486    2.3102    3.5023    0.0590 
   4977.0000   32.1822 4090.9985  100.4729    6.0859     8.2259     7.2106    6.2694    0.0843   15.8018   14.4692   12.1891   10.7648   24.0738    2.3339    3.4549    0.0609 
   4977.5000   42.4260 4091.0159  100.5516    6.1100     8.4239     7.4150    6.3904    0.0843   16.2720   14.4764   12.6520   11.0424   24.1541    2.3490    3.4024    0.0581 
   4978.0000   51.6352 4091.0334  101.5205    6.1062     9.0308     8.0099    6.7339    0.0843   16.5616   14.1352   13.0412   11.2582   24.4350    2.3407    3.3608    0.0570 
   4978.5000   55.3230 4091.0510  100.6477    6.1079     9.1740     8.4049    6.7419    0.0843   16.6764   14.1818   13.3288   11.3737   25.0370    2.3323    3.3223    0.0581 
   4979.0000   55.2036 4091.0686   98.3989    6.1203     8.9185     8.2669    6.5260    0.0842   16.6495   14.3979   13.4269   11.1922   25.4197    2.3251    3.2851    0.0576 
   4979.5000   54.0901 4091.0862   95.6521    6.1200     8.5538     7.8354    6.3371    0.0842   16.1250   14.3434   13.1013   11.0498   25.5814    2.3192    3.3131    0.0521 
   4980.0000   50.9106 4091.1035   92.8900    6.0921     7.5586     6.8345    5.7842    0.0842   16.0450   14.2361   12.9927   10.8942   25.4487    2.3159    3.3699    0.0501 
   4980.5000   46.4940 4091.1208   94.3286    6.0782     6.8440     6.0555    5.3696    0.0842   16.2955   14.3225   12.9289   10.5585   25.1790    2.3188    3.3805    0.0546 
   4981.0000   42.8179 4091.1382   94.9141    6.0947     7.2016     6.3085    5.7086    0.0842   16.4363   14.1836   12.6169   10.1405   25.7189    2.3246    3.3826    0.0545 
   4981.5000   41.1790 4091.1555   97.1662    6.0903     8.1143     7.0533    6.3524    0.0842   16.4726   13.9288   12.3156    9.8368   26.4726    2.3215    3.4187    0.0560 
   4982.0000   41.9177 4091.1729  101.4341    6.1016     8.8928     7.9848    6.9187    0.0841   16.8107   13.7896   12.2289    9.5621   27.0256    2.3147    3.3871    0.0558 
   4982.5000   42.2799 4091.1902  101.4172    6.1108    10.1852     9.0866    7.9260    0.0840   16.8602   13.9229   11.9513    9.4719   27.4378    2.3010    3.3621    0.0524 
   4983.0000   42.3563 4091.2075  101.1861    6.1035    10.6096     9.0186    8.3391    0.0839   16.4412   14.3567   11.7364    9.6534   27.2157    2.2874    3.4025    0.0486 
   4983.5000   43.1887 4091.2249   99.3245    6.0747    10.1515     8.4335    8.1022    0.0840   16.1123   15.0410   11.7670   10.0330   26.3858    2.2826    3.4704    0.0500 
   4984.0000   44.0662 4091.2422   96.7009    6.0638     9.3812     7.8801    7.5693    0.0842   16.0601   16.0201   12.0104   10.6632   25.5887    2.2938    3.5082    0.0548 
   4984.5000   44.9546 4091.2595   94.4436    6.0538     8.8237     7.5153    7.1687    0.0843   16.2961   16.7225   12.5453   11.4355   24.9162    2.3100    3.5123    0.0618 
   4985.0000   47.2588 4091.2769   93.0869    6.0541     9.5267     7.9992    7.5544    0.0843   16.8665   17.0949   13.3326   12.1436   24.7312    2.3258    3.4567    0.0638 
   4985.5000   50.7024 4091.2939   94.8148    6.0420    10.8294     8.8617    8.2131    0.0842   17.8935   17.0718   14.2748   12.6033   24.8369    2.3335    3.4284    0.0667 
   4986.0000   52.1562 4091.3113   98.4416    6.0341    11.7768     9.5147    8.5631    0.0841   18.6818   16.9831   14.9959   12.7866   25.0623    2.3394    3.4404    0.0685 
   4986.5000   51.8351 4091.3284  100.2072    6.0300    11.3181     9.3321    8.0112    0.0840   19.4119   16.5821   15.3532   12.7422   25.1773    2.3443    3.4774    0.0672 
