~Version Information
 VERS.                  2.0:   CWLS log ASCII Standard -VERSION 2.0
 WRAP.                   NO:   One line per depth step
~Well Information Block
#MNEM.UNIT     VALUE/NAME     DESCRIPTION
#---------     -----------    ---------------------------
 STRT.F              4550.0000: START DEPTH
 STOP.F              7650.0000: STOP DEPTH
 STEP.F                 0.5000: STEP DEPTH
 NULL.               -999.2500: NULL VALUE
 FTOP.          Formation Tops:  FORM TOPS DESC
 ILTD.               Lithology:  INTERP LTH DESC
 SVYD.               Survey_DS:  SURVEY DESC
 DMOD.             Drill Model:  DRILL MOD DESC
 DATE.      00.00.00 03-Apr-10:  END TIME
 STIM.      00.00.00 28-Mar-10:  START TIME
 DMF .           Kelly Bushing:  DRILL MEAS FROM
 PDAT.          Mean Sea Level:  PERMANENT DATUM
 DFST.                        :  DIST FSL TEXT
 DFWT.                        :  DIST FWL TEXT
 MMDL.            bggm2009.dat:  MAGNETIC MODEL
 MDS .              Win MagUTM:  MAG DATA SOURCE
 XYGR.     UTM Zones, Northern Hemisphere, Meters:  XYGROUP
 CGSY.               SS CLRK51:  CART GRID SYS
 CREF.     Ellipsoid Clarke - 1880:  CART REFERENCE
 CPJM.                        :  CART PROJ METHD
 CCDE.     UTM Clarke 1880 (CM 51), Meters:  CART COORD DESC
 LLGR.      Latitude/Longitude:  LLGROUP
 GGSY.                      LL:  GEO GRID SYS
 GREF.     Ellipsoid World Geodetic System :  GEO REFERENCE
 GPMT.                        :  GEO PROJ METHOD
 GCDE.     Generic Lat/Long's, Degrees, -180 ==> +180:  GEO COORD DESC
 SPUD.               20-Mar-10:  SPUD DATE
 MWDS.                   Dubai:  MWD SHOP
 JOBN.        AD-FE-0007255267:  JOB TICKET NUMB
 BASE.               Abu Dhabi:  LOGGING EQUIPMENT BASE LOCATION
 REGN.               Abu Dhabi:  REGION
 CULG.                        :  CUSTOMER LOGO
 COLG.           186HAL_lg.bmp:  COMPANY LOGO
 UNIT.                  166264:  LOGGING EQUIPMENT ID
 DOE .        AD-FE-0007255267:  DOE NUMBER
 UWI .        AD-FE-0007255267:  UNIQUE WELL IDENTIFIER
 API .        AD-FE-0007255267:  API NUMBER
 SON .        AD-FE-0007255267:  JOB NUMBER
 RANG.                        :  RANGE
 TOWN.                        :  TOWNSHIP
 SECT.                        :  SECTION
 DCON.             Al-Mansoory:  DIRECTNL CONTR
 LEAS.                        :  LEASE NAME
 SRVC.                     NDC:  CONTRACTOR
 CTRY.     United Arab Emirates:  COUNTRY NAME
 PROV.               Abu Dhabi:  PROVINCE
 STAT.               Abu Dhabi:  STATE NAME
 CNTY.               Abu Dhabi:  COUNTY NAME
 FLD .                    Shah:  FIELD NAME
 RIG .                   ND-50:  RIG NAME
 COMP.                    ADCO:  COMPANY
 WELL.            SY-027-1-04H:  WELL NAME
 LOC .                        :  LOCATION
 LMF .           Kelly Bushing:  LOG MEASURED FROM
 AZTC.deg             0.383835:  AZM TOTAL CORR
 GRDC.deg             1.093917:  GRID CORRECTION
 MDEC.deg             1.477752:  MAGNETIC DECL
 GVFD.g               1.000000:  GRAVITY FIELD
 MDIP.deg            34.939442:  MAGNETIC DIP
 MFLD.nT          42523.898438:  MAGNETIC FIELD
 VSDR.deg            55.740002:  VERT SEC DIRECT
 TDD .ft           7648.000000:  TOTAL DEPTH (DRILLER)
 STRD.ft           4648.000000:  START DEPTH
 APD .ft            429.000000:  DEPTH ABOVE PD
 EPD .ft              0.000000:  ELEVATION
 DFSL.ft              0.000000:  DISTANCE FSL
 DFWL.ft              0.000000:  DISTANCE FWL
 UTMY.m         2535096.000000:  UTM Y
 UTMX.m          788186.312500:  UTM X
 WHEW.ft              0.000000:  WELL HEAD E/W
 WHNS.ft              0.000000:  WELL HEAD N/S
 WDMS.ft              0.000000:  WD ELEV
 EGL .ft            407.799988:  GROUND ELEVATION
 TVDS.ft            429.000000:  TVDSS CORRECTN
 LONG.deg            53.809174:  LONGITUDE
 LATI.deg            22.900974:  LATITUDE
 VSEW.ft              0.000000:  VERT SEC E/W
 VSNS.ft              0.000000:  VERT SEC N/S
 CMER.deg            51.000000:  CENTRL MERIDIAN
 AGAP.ft              0.000000:  AIR GAP
 RCST.$/da            0.000000:  RIG COST
 EKB .ft            429.000000:  KB ELEVATION
 EDF .ft            428.000031:  DF ELEVATION
 TDL .ft           3000.000000:  TOTAL DEPTH (LOGGER)
 CSGD.ft           4170.000000:  CASING BOTTOM (DRILLER)
 CSGL.ft           4170.000000:  CASING BOTTOM (LOGGER)
 CSGS.in              9.625000:  CASING SIZE
 CSGW.lbpf           47.000000:  CASING WEIGHT
 HPTY.                       0:  HOLE POS TYPE
 NREF.                       2:  NORTH REFERENCE
 MAGU.                 1453103:  MAGUTM CHECKSUM
 VSC .                       0:  VS TO CLOSURE
 WTYP.                       2:  WELL TYPE
~Parameter Information Block
#MNEM.UNIT       Value        Description
#---------     -----------    ---------------------------
 R1  .     ‘ÁHDrilled 6" horizontal hole F/4648' T/7655'.:  Run Comments 1 
 TDL .ft           3000.000000:  Tot Depth Loggd 
 RRUN.                       4:  Rig Run Number 
 STRD.ft           4648.000000:  Start Depth 
 EDEP.ft           7648.000000:  End Depth 
 STIM.      22.00.32 30-Mar-10:  Start Time 
 ETIM.      20.37.20 04-Apr-10:  End Time 
 TLAB.      00.00.00 31-Mar-10:  Log Start Time 
 TLAT.      14.00.32 03-Apr-10:  Log End Time 
 ENG2.             Ahmed Samir:  Engineer 2 
 ENG3.       Sherif Abdel Aziz:  Engineer 3 
 WITN.        Hamed Abu Shanab:  Customer Rep 
 ORT .hr            129.396225:  Time Operating 
 DFT .                   Other:  Mud Type 
 DFV .spqt           40.000000:  Mud Viscosity 
 PH  .pH             10.000000:  Mud pH 
 DFL .mptm            7.000000:  Fluid Loss 
 RMS .ohmm            0.180000:  Mud Resistivity 
 MST .degF           74.000000:  Mud Sample Temperature 
 RMFS.ohmm            0.120000:  Mud Filtrate Resistivity 
 RMFT.degF           77.000000:  Mud Filtrate Sample Temperature 
 RMCS.ohmm            0.240000:  Mud Cake Resistivity 
 MCST.degF           70.000000:  Mud Cake Sample Temperature 
 RMB .ohmm            0.000000:  Rm @ Max Temp 
 ROP .fph            40.000000:  ROP Avg 
 ROP .fph            20.000000:  ROP Min 
 ROP .fph            60.000004:  ROP Max 
 BS  .in              0.000000:  Bit Size 
 TCS .hr             91.370071:  Time Ciculation Ended 
 RUN .                     400:  Run Number 
 DFD .ppg             8.690000:  Mud Density 
 MRT .                    HCIM:  Maximum Recorded Temperature 
~Parameter Information Block
#MNEM.UNIT       Value        Description
#---------     -----------    ---------------------------
 DFB .ft             50.060001:  Dist From Bit 
 SNIN.                  157772:  SN Insert 
 SP1 .sec            14.000000:  Sample Period 1 
 NOB .                8.000000:  Number Of Bins 
 DFB .ft             83.949997:  Dist From Bit 
 DFB .ft             98.709999:  Dist From Bit 
 SP1 .sec            14.000000:  Sample Period 1 
 SNIN.                  109091:  SN Insert 
 DDSV.sec            25.400002:  DDS AgvZ Total 
 DDSV.sec          4074.400391:  DDS AgvY Total 
 DDSV.sec          3504.600098:  DDS AgvX Total 
 DDSV.               90.000000:  DDS PkZ 10-15g 
 DDSV.              252.000000:  DDS PkY 25-40g 
 DDSV.              267.000000:  DDS PkX 25-40g 
 DDSV.sec            24.800001:  DDS AvgZ 1-2g 
 DDSV.sec          3932.800293:  DDS AvgY 1-2g 
 DDSV.sec             7.000000:  DDS AvgX 4-6g 
 DFB .ft             74.589996:  Dist From Bit 
 SNIN.                10990582:  SN Insert 
 SP1 .sec            12.000000:  Sample Period 1 
 DDSV.g              44.400002:  DDS AvgX Max 
 DDSV.sec             3.400000:  DDS AvgX 15+g 
 DDSV.sec             0.800000:  DDS AvgY 10-15g 
 DDSV.sec             0.000000:  DDS AvgZ 6-10g 
 DDSV.                6.000000:  DDS PkX 90-130g 
 DDSV.                3.000000:  DDS PkY 90-130g 
 DDSV.              213.000000:  DDS PkZ 30-50g 
 DDSV.sec             4.400000:  DDS AvgX 6-10g 
 DDSV.sec             6.800000:  DDS AvgY 4-6g 
 DDSV.sec             0.000000:  DDS AvgZ 4-6g 
 DDSV.               24.000000:  DDS PkX 60-90g 
 DDSV.                0.000000:  DDS PkZ 50+g 
 SP1 .sec            12.000000:  Sample Period 1 
 SNIN.                  105840:  SN Insert 
 DFB .ft             71.680000:  Dist From Bit 
 SNIN.                  TL-028:  SN Insert 
 SNC .                  TL-028:  SN Collar 
 TID .               28.000000:  Tool Identifier 
 DFB .ft             10.000000:  Dist From Bit 
 SNIN.                  270968:  SN Insert 
 SNIN.                  300324:  SN Insert 
 DFB .ft             36.639999:  Dist From Bit 
 SNIN.             11145527463:  SN Insert 
 DFB .ft              0.000000:  Dist From Bit 
 OTY .              Jet Oil II:  Oil Type 
 SNC .                 1127515:  SN Collar 
 SNIN.                  266071:  SN Insert 
 SP1 .sec             2.000000:  Sample Period 1 
 DFB .ft            110.440002:  Dist From Bit 
 DFB .ft             64.690002:  Dist From Bit 
 SNTX.                  270121:  SN Trans Insert 
 SP1 .sec            12.000000:  Sample Period 1 
~Curve Information Block
#MNEM.UNIT                 API CODE     Curve Description
#---------               -----------    ---------------------------
 DEPT.F                 00 000 000 000:  Depth
 SROP.fph               00 000 000 000:  Avg Rate of Penetration
 TVD .ft                00 000 000 000:  ROP True Vertical Depth
 SGRC.api               00 000 000 000:  DGR Combined Gamma Ray
 CALI.in                00 000 000 000:  ALD Hole Size Indicator
 DPHF.ohmm              00 000 000 000:  DP HF Res
 MDHF.ohmm              00 000 000 000:  MD HF Res
 SHHF.ohmm              00 000 000 000:  SH HF Res
 AMR .ohmm              00 000 000 000:  AFR Mud Resistivity
 SEDP.ohmm              00 000 000 000:  EWR Deep Phase Res
 SEMP.ohmm              00 000 000 000:  EWR Medium EWR Phase Res
 SESP.ohmm              00 000 000 000:  EWR Shallow EWR Phase Res
 SEXP.ohmm              00 000 000 000:  EWR Ext Shallow Phase Res
 SPLF.pu                00 000 000 000:  CTN Porosity Limestone
 SBD2.g/cc              00 000 000 000:  ALD LCRB Comp Density
 SNP2.b/e               00 000 000 000:  ALD LCRB Pe Factor
 SCO2.g/cc              00 000 000 000:  ALD LCRB Den Correction
~A   DEPT      SROP       TVD      SGRC      CALI       DPHF       MDHF      SHHF       AMR      SEDP      SEMP      SESP      SEXP      SPLF      SBD2      SNP2      SCO2    
# ...
   5378.0000  123.1006 4105.1543   84.7569    6.0734    14.8666    13.1509   12.8618    0.0821   24.8785   22.7050   22.5231   20.1250   28.6236    2.2435    3.1922    0.0612 
   5378.5000  133.5993 4105.1709   81.9597    6.1252    15.4972    13.4237   13.2168    0.0821   25.5115   22.7641   22.4483   19.9154   28.3478    2.2519    3.2578    0.0625 
   5379.0000  130.7954 4105.1870   82.5987    6.1625    16.4870    14.1359   13.7610    0.0821   25.6509   22.6659   21.9663   19.8548   27.9854    2.2605    3.2760    0.0601 
   5379.5000  120.0186 4105.2036   83.3457    6.1663    16.4748    14.3841   13.6921    0.0821   25.7333   23.1409   21.8893   19.7952   27.5994    2.2636    3.3319    0.0520 
   5380.0000  107.3295 4105.2202   82.7180    6.1280    16.3480    14.6135   13.7291    0.0821   25.6749   23.8803   21.7298   19.4913   27.0944    2.2554    3.4593    0.0445 
   5380.5000   95.0395 4105.2368   82.2001    6.0991    16.1151    14.3754   13.6888    0.0822   25.5260   25.0061   21.5733   19.7829   26.9437    2.2621    3.4977    0.0468 
   5381.0000   88.6970 4105.2529   80.1900    6.0970    15.7127    13.7316   13.4170    0.0822   26.0768   26.2023   22.3192   20.2641   26.6647    2.2776    3.4759    0.0577 
   5381.5000   88.6963 4105.2695   78.7903    6.1193    15.4188    14.0552   13.0184    0.0821   26.5840   26.3381   22.8785   20.8887   25.6517    2.3032    3.4462    0.0668 
   5382.0000   92.7065 4105.2861   80.4708    6.1634    16.5286    15.8421   13.5213    0.0820   27.1377   25.5025   23.6038   21.1502   24.4528    2.3321    3.4228    0.0697 
   5382.5000   94.3612 4105.3027   81.7394    6.1786    15.8358    15.0325   12.7683    0.0819   28.1802   25.1224   24.3745   21.0593   23.3777    2.3502    3.4581    0.0679 
   5383.0000   90.0353 4105.3188   81.8420    6.1384    14.9633    13.5594   12.2340    0.0818   28.3360   25.3260   24.6927   20.8566   22.6622    2.3444    3.5157    0.0619 
   5383.5000   76.0317 4105.3354   83.0069    6.0874    16.4264    14.0927   13.5173    0.0817   27.4559   24.9115   24.4200   21.1271   22.4275    2.3401    3.5164    0.0622 
   5384.0000   63.3760 4105.3521   83.4055    6.0842    17.3415    14.7002   14.2371    0.0816   27.0883   24.4044   24.6528   21.2634   22.7288    2.3504    3.4815    0.0690 
   5384.5000   53.1483 4105.3682   82.2210    6.1226    16.4880    14.2291   13.4945    0.0814   27.3369   24.2786   24.8447   20.8326   22.8716    2.3604    3.4918    0.0599 
   5385.0000   45.9023 4105.3848   82.6603    6.0835    15.6118    13.8393   12.9624    0.0812   27.3260   24.2891   24.2241   20.3969   23.0176    2.3387    3.5082    0.0491 
   5385.5000   52.1028 4105.4014   80.8196    6.0261    14.4716    12.8193   12.3473    0.0811   27.3214   24.0619   23.5356   20.4074   23.8647    2.3141    3.5042    0.0459 
   5386.0000   61.6175 4105.4175   79.2723    6.0049    13.2635    11.9633   11.5121    0.0811   27.4794   23.8534   23.2791   20.6262   24.5116    2.3032    3.5002    0.0495 
   5386.5000   68.7454 4105.4341   78.4827    6.0141    14.4131    13.5190   12.6208    0.0812   27.4653   23.0966   23.1404   20.3143   24.3638    2.2973    3.5036    0.0484 
   5387.0000   72.3427 4105.4502   80.0248    6.0096    16.6882    15.8948   14.4017    0.0813   27.0956   22.7438   22.7328   20.0717   24.6629    2.2830    3.5031    0.0511 
   5387.5000   74.8432 4105.4668   80.6404    6.0237    17.0562    16.3223   14.5982    0.0814   26.7099   23.4739   22.5242   19.4426   25.1756    2.2720    3.4503    0.0600 
   5388.0000   74.8019 4105.4834   81.7496    6.0760    16.4299    15.6160   14.1288    0.0814   25.9590   24.4270   21.9503   19.4339   25.5679    2.2746    3.4855    0.0567 
   5388.5000   74.5110 4105.4995   80.8909    6.0736    16.5920    15.4627   14.4079    0.0814   25.4695   24.7214   21.8957   20.5977   26.0725    2.2716    3.5856    0.0566 
   5389.0000   76.6463 4105.5161   80.1353    6.0923    15.9900    14.6401   13.8882    0.0814   25.7144   24.9098   23.0411   21.4916   25.9917    2.2881    3.5255    0.0608 
   5389.5000   80.9195 4105.5322   79.3443    6.1293    15.1255    13.8238   13.2239    0.0815   26.3989   25.1742   24.1698   21.7594   24.7232    2.3127    3.4645    0.0574 
   5390.0000   84.1319 4105.5488   79.7545    6.1395    15.3765    14.2132   13.4974    0.0816   26.6484   25.2877   24.6858   22.0841   23.9482    2.3220    3.4202    0.0505 
   5390.5000   87.2840 4105.5649   79.2766    6.1149    15.9312    14.8876   13.8451    0.0819   26.7593   25.5317   24.9752   22.3642   24.4978    2.3152    3.3516    0.0564 
   5391.0000   91.7850 4105.5815   80.8980    6.1356    16.4705    15.0761   14.1367    0.0821   27.0218   25.9002   25.0997   22.4023   24.8214    2.3138    3.3227    0.0620 
   5391.5000   95.2470 4105.5977   81.1646    6.1510    16.1766    14.6499   13.8486    0.0823   27.4113   26.0386   25.0239   22.5110   24.8442    2.3091    3.3740    0.0689 
   5392.0000   97.4225 4105.6143   80.3408    6.1706    16.3618    14.9846   13.8949    0.0825   27.8673   25.2884   24.8707   22.2942   25.3523    2.2983    3.4212    0.0728 
   5392.5000   97.6994 4105.6304   79.8621    6.1773    17.4807    16.2210   14.6316    0.0828   28.3130   24.8525   24.7239   21.8848   25.6391    2.2912    3.4202    0.0683 
   5393.0000   93.4763 4105.6470   78.1438    6.1643    16.9571    16.2457   14.1088    0.0832   28.4923   25.2959   24.5548   21.0340   25.8634    2.2795    3.4019    0.0524 
   5393.5000   85.7738 4105.6631   76.8211    6.1014    16.5656    15.6022   13.8653    0.0835   27.9090   26.1702   23.6563   20.6322   25.8497    2.2612    3.4396    0.0417 
   5394.0000   80.9302 4105.6797   76.2559    6.0696    17.0911    15.5180   14.3701    0.0835   27.5025   27.0274   23.1783   21.3192   25.7531    2.2659    3.4888    0.0406 
   5394.5000   80.9506 4105.6958   74.9004    6.0676    16.9920    15.5692   14.2916    0.0834   27.6766   27.8467   23.8502   22.2648   25.5208    2.2845    3.5164    0.0538 
   5395.0000   84.1383 4105.7124   74.4706    6.1105    16.9970    15.7036   14.3688    0.0833   28.1043   28.0820   24.8750   23.0686   25.1009    2.3068    3.5164    0.0652 
   5395.5000   87.9112 4105.7285   74.8159    6.1512    17.3454    15.7827   14.6576    0.0833   28.5656   28.2226   26.0232   23.9709   24.8563    2.3212    3.4606    0.0696 
   5396.0000   87.7228 4105.7451   75.1568    6.1592    19.1870    17.0672   16.0021    0.0833   29.1636   28.4071   27.3605   23.9116   24.8597    2.3179    3.4004    0.0653 
   5396.5000   85.8831 4105.7612   76.8835    6.1289    21.7935    19.6329   18.0296    0.0831   29.3225   28.3814   27.8013   23.6413   25.2037    2.3016    3.4012    0.0501 
   5397.0000   84.0939 4105.7773   77.7712    6.0640    21.3332    19.6289   17.7693    0.0829   29.7314   28.8065   28.1184   23.6991   25.4957    2.2787    3.4021    0.0418 
   5397.5000   80.9085 4105.7939   77.8996    6.0441    18.2466    17.9065   15.5255    0.0828   30.2307   29.3757   28.1103   24.0498   25.1131    2.2760    3.4370    0.0399 
   5398.0000   75.9606 4105.8101   79.0087    6.0462    17.6153    18.0059   15.0241    0.0827   30.3609   28.9897   27.9230   25.1755   24.4292    2.2907    3.5379    0.0354 
   5398.5000   72.7176 4105.8262   78.6154    6.0115    18.1211    18.2104   15.3998    0.0827   30.8807   28.8408   28.5228   26.1229   23.4230    2.3037    3.5703    0.0422 
   5399.0000   73.7619 4105.8428   78.2231    6.0417    19.3229    18.6958   16.5490    0.0826   31.4035   28.8805   29.1316   25.9981   22.4639    2.3283    3.5554    0.0534 
   5399.5000   77.7988 4105.8589   77.0682    6.0982    19.4906    18.6484   16.7637    0.0825   30.9797   28.5247   28.6010   26.2088   22.0108    2.3436    3.5711    0.0540 
   5400.0000   81.1217 4105.8750   77.6513    6.0942    17.9532    16.9211   15.5630    0.0824   30.7155   28.8148   28.4141   26.2738   22.3760    2.3372    3.5773    0.0510 
   5400.5000   79.7221 4105.8916   77.7433    6.0709    17.7609    16.4952   15.5157    0.0824   30.7137   28.9480   28.5210   25.6413   22.7678    2.3335    3.5838    0.0442 
