~Version Information
 VERS.                  2.0:   CWLS log ASCII Standard -VERSION 2.0
 WRAP.                   NO:   One line per depth step
~Well Information Block
#MNEM.UNIT     VALUE/NAME     DESCRIPTION
#---------     -----------    ---------------------------
 STRT.F              4550.0000: START DEPTH
 STOP.F              7650.0000: STOP DEPTH
 STEP.F                 0.5000: STEP DEPTH
 NULL.               -999.2500: NULL VALUE
 FTOP.          Formation Tops:  FORM TOPS DESC
 ILTD.               Lithology:  INTERP LTH DESC
 SVYD.               Survey_DS:  SURVEY DESC
 DMOD.             Drill Model:  DRILL MOD DESC
 DATE.      00.00.00 03-Apr-10:  END TIME
 STIM.      00.00.00 28-Mar-10:  START TIME
 DMF .           Kelly Bushing:  DRILL MEAS FROM
 PDAT.          Mean Sea Level:  PERMANENT DATUM
 DFST.                        :  DIST FSL TEXT
 DFWT.                        :  DIST FWL TEXT
 MMDL.            bggm2009.dat:  MAGNETIC MODEL
 MDS .              Win MagUTM:  MAG DATA SOURCE
 XYGR.     UTM Zones, Northern Hemisphere, Meters:  XYGROUP
 CGSY.               SS CLRK51:  CART GRID SYS
 CREF.     Ellipsoid Clarke - 1880:  CART REFERENCE
 CPJM.                        :  CART PROJ METHD
 CCDE.     UTM Clarke 1880 (CM 51), Meters:  CART COORD DESC
 LLGR.      Latitude/Longitude:  LLGROUP
 GGSY.                      LL:  GEO GRID SYS
 GREF.     Ellipsoid World Geodetic System :  GEO REFERENCE
 GPMT.                        :  GEO PROJ METHOD
 GCDE.     Generic Lat/Long's, Degrees, -180 ==> +180:  GEO COORD DESC
 SPUD.               20-Mar-10:  SPUD DATE
 MWDS.                   Dubai:  MWD SHOP
 JOBN.        AD-FE-0007255267:  JOB TICKET NUMB
 BASE.               Abu Dhabi:  LOGGING EQUIPMENT BASE LOCATION
 REGN.               Abu Dhabi:  REGION
 CULG.                        :  CUSTOMER LOGO
 COLG.           186HAL_lg.bmp:  COMPANY LOGO
 UNIT.                  166264:  LOGGING EQUIPMENT ID
 DOE .        AD-FE-0007255267:  DOE NUMBER
 UWI .        AD-FE-0007255267:  UNIQUE WELL IDENTIFIER
 API .        AD-FE-0007255267:  API NUMBER
 SON .        AD-FE-0007255267:  JOB NUMBER
 RANG.                        :  RANGE
 TOWN.                        :  TOWNSHIP
 SECT.                        :  SECTION
 DCON.             Al-Mansoory:  DIRECTNL CONTR
 LEAS.                        :  LEASE NAME
 SRVC.                     NDC:  CONTRACTOR
 CTRY.     United Arab Emirates:  COUNTRY NAME
 PROV.               Abu Dhabi:  PROVINCE
 STAT.               Abu Dhabi:  STATE NAME
 CNTY.               Abu Dhabi:  COUNTY NAME
 FLD .                    Shah:  FIELD NAME
 RIG .                   ND-50:  RIG NAME
 COMP.                    ADCO:  COMPANY
 WELL.            SY-027-1-04H:  WELL NAME
 LOC .                        :  LOCATION
 LMF .           Kelly Bushing:  LOG MEASURED FROM
 AZTC.deg             0.383835:  AZM TOTAL CORR
 GRDC.deg             1.093917:  GRID CORRECTION
 MDEC.deg             1.477752:  MAGNETIC DECL
 GVFD.g               1.000000:  GRAVITY FIELD
 MDIP.deg            34.939442:  MAGNETIC DIP
 MFLD.nT          42523.898438:  MAGNETIC FIELD
 VSDR.deg            55.740002:  VERT SEC DIRECT
 TDD .ft           7648.000000:  TOTAL DEPTH (DRILLER)
 STRD.ft           4648.000000:  START DEPTH
 APD .ft            429.000000:  DEPTH ABOVE PD
 EPD .ft              0.000000:  ELEVATION
 DFSL.ft              0.000000:  DISTANCE FSL
 DFWL.ft              0.000000:  DISTANCE FWL
 UTMY.m         2535096.000000:  UTM Y
 UTMX.m          788186.312500:  UTM X
 WHEW.ft              0.000000:  WELL HEAD E/W
 WHNS.ft              0.000000:  WELL HEAD N/S
 WDMS.ft              0.000000:  WD ELEV
 EGL .ft            407.799988:  GROUND ELEVATION
 TVDS.ft            429.000000:  TVDSS CORRECTN
 LONG.deg            53.809174:  LONGITUDE
 LATI.deg            22.900974:  LATITUDE
 VSEW.ft              0.000000:  VERT SEC E/W
 VSNS.ft              0.000000:  VERT SEC N/S
 CMER.deg            51.000000:  CENTRL MERIDIAN
 AGAP.ft              0.000000:  AIR GAP
 RCST.$/da            0.000000:  RIG COST
 EKB .ft            429.000000:  KB ELEVATION
 EDF .ft            428.000031:  DF ELEVATION
 TDL .ft           3000.000000:  TOTAL DEPTH (LOGGER)
 CSGD.ft           4170.000000:  CASING BOTTOM (DRILLER)
 CSGL.ft           4170.000000:  CASING BOTTOM (LOGGER)
 CSGS.in              9.625000:  CASING SIZE
 CSGW.lbpf           47.000000:  CASING WEIGHT
 HPTY.                       0:  HOLE POS TYPE
 NREF.                       2:  NORTH REFERENCE
 MAGU.                 1453103:  MAGUTM CHECKSUM
 VSC .                       0:  VS TO CLOSURE
 WTYP.                       2:  WELL TYPE
~Parameter Information Block
#MNEM.UNIT       Value        Description
#---------     -----------    ---------------------------
 R1  .     ‘ÁHDrilled 6" horizontal hole F/4648' T/7655'.:  Run Comments 1 
 TDL .ft           3000.000000:  Tot Depth Loggd 
 RRUN.                       4:  Rig Run Number 
 STRD.ft           4648.000000:  Start Depth 
 EDEP.ft           7648.000000:  End Depth 
 STIM.      22.00.32 30-Mar-10:  Start Time 
 ETIM.      20.37.20 04-Apr-10:  End Time 
 TLAB.      00.00.00 31-Mar-10:  Log Start Time 
 TLAT.      14.00.32 03-Apr-10:  Log End Time 
 ENG2.             Ahmed Samir:  Engineer 2 
 ENG3.       Sherif Abdel Aziz:  Engineer 3 
 WITN.        Hamed Abu Shanab:  Customer Rep 
 ORT .hr            129.396225:  Time Operating 
 DFT .                   Other:  Mud Type 
 DFV .spqt           40.000000:  Mud Viscosity 
 PH  .pH             10.000000:  Mud pH 
 DFL .mptm            7.000000:  Fluid Loss 
 RMS .ohmm            0.180000:  Mud Resistivity 
 MST .degF           74.000000:  Mud Sample Temperature 
 RMFS.ohmm            0.120000:  Mud Filtrate Resistivity 
 RMFT.degF           77.000000:  Mud Filtrate Sample Temperature 
 RMCS.ohmm            0.240000:  Mud Cake Resistivity 
 MCST.degF           70.000000:  Mud Cake Sample Temperature 
 RMB .ohmm            0.000000:  Rm @ Max Temp 
 ROP .fph            40.000000:  ROP Avg 
 ROP .fph            20.000000:  ROP Min 
 ROP .fph            60.000004:  ROP Max 
 BS  .in              0.000000:  Bit Size 
 TCS .hr             91.370071:  Time Ciculation Ended 
 RUN .                     400:  Run Number 
 DFD .ppg             8.690000:  Mud Density 
 MRT .                    HCIM:  Maximum Recorded Temperature 
~Parameter Information Block
#MNEM.UNIT       Value        Description
#---------     -----------    ---------------------------
 DFB .ft             50.060001:  Dist From Bit 
 SNIN.                  157772:  SN Insert 
 SP1 .sec            14.000000:  Sample Period 1 
 NOB .                8.000000:  Number Of Bins 
 DFB .ft             83.949997:  Dist From Bit 
 DFB .ft             98.709999:  Dist From Bit 
 SP1 .sec            14.000000:  Sample Period 1 
 SNIN.                  109091:  SN Insert 
 DDSV.sec            25.400002:  DDS AgvZ Total 
 DDSV.sec          4074.400391:  DDS AgvY Total 
 DDSV.sec          3504.600098:  DDS AgvX Total 
 DDSV.               90.000000:  DDS PkZ 10-15g 
 DDSV.              252.000000:  DDS PkY 25-40g 
 DDSV.              267.000000:  DDS PkX 25-40g 
 DDSV.sec            24.800001:  DDS AvgZ 1-2g 
 DDSV.sec          3932.800293:  DDS AvgY 1-2g 
 DDSV.sec             7.000000:  DDS AvgX 4-6g 
 DFB .ft             74.589996:  Dist From Bit 
 SNIN.                10990582:  SN Insert 
 SP1 .sec            12.000000:  Sample Period 1 
 DDSV.g              44.400002:  DDS AvgX Max 
 DDSV.sec             3.400000:  DDS AvgX 15+g 
 DDSV.sec             0.800000:  DDS AvgY 10-15g 
 DDSV.sec             0.000000:  DDS AvgZ 6-10g 
 DDSV.                6.000000:  DDS PkX 90-130g 
 DDSV.                3.000000:  DDS PkY 90-130g 
 DDSV.              213.000000:  DDS PkZ 30-50g 
 DDSV.sec             4.400000:  DDS AvgX 6-10g 
 DDSV.sec             6.800000:  DDS AvgY 4-6g 
 DDSV.sec             0.000000:  DDS AvgZ 4-6g 
 DDSV.               24.000000:  DDS PkX 60-90g 
 DDSV.                0.000000:  DDS PkZ 50+g 
 SP1 .sec            12.000000:  Sample Period 1 
 SNIN.                  105840:  SN Insert 
 DFB .ft             71.680000:  Dist From Bit 
 SNIN.                  TL-028:  SN Insert 
 SNC .                  TL-028:  SN Collar 
 TID .               28.000000:  Tool Identifier 
 DFB .ft             10.000000:  Dist From Bit 
 SNIN.                  270968:  SN Insert 
 SNIN.                  300324:  SN Insert 
 DFB .ft             36.639999:  Dist From Bit 
 SNIN.             11145527463:  SN Insert 
 DFB .ft              0.000000:  Dist From Bit 
 OTY .              Jet Oil II:  Oil Type 
 SNC .                 1127515:  SN Collar 
 SNIN.                  266071:  SN Insert 
 SP1 .sec             2.000000:  Sample Period 1 
 DFB .ft            110.440002:  Dist From Bit 
 DFB .ft             64.690002:  Dist From Bit 
 SNTX.                  270121:  SN Trans Insert 
 SP1 .sec            12.000000:  Sample Period 1 
~Curve Information Block
#MNEM.UNIT                 API CODE     Curve Description
#---------               -----------    ---------------------------
 DEPT.F                 00 000 000 000:  Depth
 SROP.fph               00 000 000 000:  Avg Rate of Penetration
 TVD .ft                00 000 000 000:  ROP True Vertical Depth
 SGRC.api               00 000 000 000:  DGR Combined Gamma Ray
 CALI.in                00 000 000 000:  ALD Hole Size Indicator
 DPHF.ohmm              00 000 000 000:  DP HF Res
 MDHF.ohmm              00 000 000 000:  MD HF Res
 SHHF.ohmm              00 000 000 000:  SH HF Res
 AMR .ohmm              00 000 000 000:  AFR Mud Resistivity
 SEDP.ohmm              00 000 000 000:  EWR Deep Phase Res
 SEMP.ohmm              00 000 000 000:  EWR Medium EWR Phase Res
 SESP.ohmm              00 000 000 000:  EWR Shallow EWR Phase Res
 SEXP.ohmm              00 000 000 000:  EWR Ext Shallow Phase Res
 SPLF.pu                00 000 000 000:  CTN Porosity Limestone
 SBD2.g/cc              00 000 000 000:  ALD LCRB Comp Density
 SNP2.b/e               00 000 000 000:  ALD LCRB Pe Factor
 SCO2.g/cc              00 000 000 000:  ALD LCRB Den Correction
~A   DEPT      SROP       TVD      SGRC      CALI       DPHF       MDHF      SHHF       AMR      SEDP      SEMP      SESP      SEXP      SPLF      SBD2      SNP2      SCO2    
# ...
   6574.0000   65.7047 4148.4268   38.6611    6.1483    12.7942    10.6058   13.6252    0.0787   13.9907   12.5014   11.6732   11.4283   13.7906    2.5156    3.6876    0.0519 
   6574.5000   71.6806 4148.4453   39.0801    6.1262    12.8427    10.4379   13.7117    0.0788   13.5315   12.6126   11.5206   11.7272   13.5965    2.5128    3.7050    0.0519 
   6575.0000   73.2727 4148.4634   39.2650    6.1202    12.6497    10.1789   13.4361    0.0788   13.4855   12.7059   11.6686   11.9579   13.4687    2.5184    3.7115    0.0534 
   6575.5000   70.9037 4148.4819   39.1693    6.1183    12.1862     9.8710   12.8185    0.0788   13.4493   12.7508   11.8271   12.1704   13.4825    2.5190    3.7036    0.0509 
   6576.0000   68.8199 4148.5000   38.6159    6.0961    11.8375     9.5574   12.3969    0.0788   13.5071   12.7856   11.9467   12.2479   13.6165    2.5132    3.6756    0.0494 
   6576.5000   67.2390 4148.5181   38.0075    6.0862    11.7838     9.6281   12.3116    0.0787   13.6207   12.8008   12.0140   12.1858   13.9522    2.5117    3.6559    0.0505 
   6577.0000   68.0235 4148.5361   37.0831    6.0886    11.7365     9.8655   12.2041    0.0785   13.6882   12.7917   12.0228   12.0784   14.1843    2.5136    3.6282    0.0505 
   6577.5000   70.6368 4148.5542   37.3839    6.0840    11.4993    10.0275   11.9168    0.0784   13.7585   12.7964   11.9832   11.8160   14.3851    2.5086    3.6136    0.0485 
   6578.0000   72.5815 4148.5723   37.1601    6.0693    10.0541     9.2676   10.5219    0.0784   13.8383   12.7504   11.8707   11.5597   14.3970    2.4990    3.6715    0.0458 
   6578.5000   72.4417 4148.5903   37.2879    6.0690     7.9979     7.2265    8.4951    0.0784   13.8338   12.8273   11.7456   11.3388   14.6763    2.4939    3.6610    0.0456 
   6579.0000   70.8999 4148.6084   37.5298    6.0829     7.1992     6.2655    7.6687    0.0784   13.7303   12.8642   11.6171   10.9791   15.1787    2.4737    3.5885    0.0508 
   6579.5000   71.3007 4148.6265   38.5335    6.1086     7.4462     6.4513    7.9188    0.0785   13.6430   12.7707   11.4589   10.7558   16.0276    2.4566    3.4192    0.0596 
   6580.0000   73.4184 4148.6445   39.4562    6.1360     8.2175     7.0185    8.5123    0.0785   13.7091   12.6556   11.4541   10.5398   17.0423    2.4262    3.2704    0.0595 
   6580.5000   76.1592 4148.6621   40.2011    6.1297    10.2796     8.4462   10.2106    0.0785   13.8322   12.3324   11.4259   10.3049   18.1012    2.3864    3.2317    0.0546 
   6581.0000   82.8524 4148.6802   41.2230    6.1056    12.3281    10.2652   11.9443    0.0785   13.8787   12.0531   11.2780   10.2710   19.4287    2.3651    3.2868    0.0492 
   6581.5000   82.0048 4148.6978   40.9645    6.0984    12.4640    10.7293   11.9163    0.0785   13.7470   12.2446   11.2171   10.3179   20.3200    2.3722    3.4354    0.0396 
   6582.0000   73.0470 4148.7158   41.2058    6.0826    11.9476    10.0226   11.4638    0.0786   13.2728   12.5305   11.0897   10.5110   20.4454    2.3893    3.5871    0.0333 
   6582.5000   57.6547 4148.7334   39.7834    6.0638    11.8090     9.5582   11.4753    0.0788   12.8482   12.7153   11.0043   11.0531   19.6683    2.4202    3.7189    0.0376 
   6583.0000   41.9454 4148.7515   37.7977    6.0783    11.6702     9.7210   11.4885    0.0789   12.8738   12.7827   11.3245   11.6712   18.4019    2.4683    3.7282    0.0467 
   6583.5000   33.8793 4148.7690   37.5956    6.1096    11.1276     9.7344   11.0795    0.0789   12.9951   12.8013   11.7706   11.9408   17.3447    2.4929    3.6481    0.0460 
   6584.0000   37.1501 4148.7871   36.7921    6.1047    10.5575     9.4954   10.5903    0.0788   13.1243   12.8926   12.0222   12.0893   16.5774    2.4942    3.5948    0.0455 
   6584.5000   48.5237 4148.8047   35.6228    6.1013    10.5252     9.5012   10.5206    0.0786   13.1457   12.9324   12.1512   12.1461   16.4152    2.4912    3.5088    0.0473 
   6585.0000   58.6442 4148.8223   35.0839    6.1094    10.6312     9.5463   10.5487    0.0784   13.1633   12.9693   12.2421   12.2659   16.5212    2.4873    3.4963    0.0526 
   6585.5000   66.0517 4148.8398   35.3404    6.1356    10.5866     9.4384   10.4433    0.0783   13.1903   12.9809   12.3810   12.3197   16.5580    2.4958    3.4392    0.0570 
   6586.0000   70.6250 4148.8574   36.1745    6.1638    10.4958     9.3003   10.2747    0.0782   13.1041   12.9811   12.4633   12.4097   16.6373    2.5027    3.4058    0.0583 
   6586.5000   71.8153 4148.8750   37.3143    6.1799    10.4982     9.3050   10.2435    0.0782   13.0432   12.9665   12.5809   12.3860   16.8181    2.5026    3.3750    0.0554 
   6587.0000   71.1096 4148.8926   37.4240    6.1667    10.7301     9.4985   10.4077    0.0782   13.0063   12.9269   12.6434   12.3595   17.2034    2.4894    3.4014    0.0531 
   6587.5000   70.1856 4148.9102   36.3185    6.1583    10.9138     9.7055   10.4656    0.0781   13.0426   12.9157   12.6371   12.2823   17.7603    2.4819    3.4288    0.0534 
   6588.0000   70.3617 4148.9277   36.5004    6.1641    10.9171     9.7450   10.4533    0.0781   13.0918   13.0011   12.5816   12.3053   17.9913    2.4796    3.4146    0.0491 
   6588.5000   71.9336 4148.9448   37.0252    6.1568    10.9615     9.7290   10.5294    0.0781   13.0621   13.0704   12.5091   12.3397   17.9834    2.4729    3.4086    0.0526 
   6589.0000   73.0877 4148.9624   36.5547    6.1737    10.6717     9.5639   10.2224    0.0782   13.0266   13.1244   12.4888   12.5160   17.9171    2.4756    3.4054    0.0528 
   6589.5000   72.8232 4148.9800   36.4443    6.1688     9.9186     8.9988    9.4824    0.0782   13.0603   13.1894   12.6012   12.5256   17.8499    2.4754    3.3780    0.0471 
   6590.0000   71.4786 4148.9976   35.0840    6.1338     9.3348     8.4953    8.9937    0.0782   13.0623   13.0953   12.6723   12.4889   18.1556    2.4682    3.3223    0.0386 
   6590.5000   70.5310 4149.0146   34.2059    6.0950     8.9111     8.1387    8.6912    0.0782   13.1208   12.8834   12.6881   12.4038   18.3776    2.4557    3.3413    0.0358 
   6591.0000   71.5528 4149.0322   35.8261    6.0896     8.6969     7.9926    8.4638    0.0781   13.2436   12.6394   12.7109   12.0849   18.6090    2.4474    3.3722    0.0342 
   6591.5000   74.6239 4149.0493   35.8056    6.1060     8.9409     8.3071    8.4655    0.0780   13.2906   12.3390   12.5356   11.7221   18.8073    2.4452    3.3804    0.0372 
   6592.0000   78.0645 4149.0664   35.8321    6.1368     9.1742     8.4916    8.5512    0.0780   13.2399   12.0494   12.2449   11.4054   19.2681    2.4448    3.3514    0.0425 
   6592.5000   80.6185 4149.0835   36.1327    6.1631     9.2094     8.1436    8.7187    0.0779   13.1122   11.8759   11.9608   11.1210   19.4213    2.4442    3.4019    0.0439 
   6593.0000   77.9033 4149.1011   36.7500    6.1742     9.8499     8.3858    9.3982    0.0779   12.9038   11.8076   11.6821   10.9969   19.6143    2.4435    3.4725    0.0461 
   6593.5000   74.0395 4149.1182   37.0799    6.1879    10.7583     8.8803   10.1555    0.0780   12.6324   11.8018   11.4532   11.0300   19.9185    2.4442    3.4783    0.0490 
   6594.0000   64.2464 4149.1353   37.4882    6.2000    10.6504     8.7315   10.0844    0.0781   12.4418   11.9199   11.3954   11.0951   20.0271    2.4428    3.4084    0.0459 
   6594.5000   52.1290 4149.1523   38.2870    6.1680    10.3168     8.6598    9.8810    0.0782   12.3641   12.0565   11.3893   11.2348   20.2364    2.4286    3.3496    0.0385 
   6595.0000   42.5039 4149.1699   39.1848    6.1137     9.7850     8.2538    9.5444    0.0783   12.2811   12.1352   11.4551   11.5325   20.7324    2.4166    3.3288    0.0342 
   6595.5000   44.1198 4149.1865   39.4970    6.0922     9.8380     8.2816    9.6469    0.0783   12.2362   12.1277   11.7037   11.7738   20.7836    2.4203    3.3089    0.0348 
   6596.0000   56.5240 4149.2036   39.3701    6.1118    10.5182     8.8748   10.2104    0.0783   12.1934   11.9353   11.9515   11.8910   20.6765    2.4288    3.1950    0.0368 
   6596.5000   73.0119 4149.2207   38.3867    6.1388    10.8472     8.9599   10.4079    0.0783   12.1323   11.9798   12.0838   11.9188   20.5076    2.4299    3.1444    0.0437 
