~Version Information
 VERS.                  2.0:   CWLS log ASCII Standard -VERSION 2.0
 WRAP.                   NO:   One line per depth step
~Well Information Block
#MNEM.UNIT     VALUE/NAME     DESCRIPTION
#---------     -----------    ---------------------------
 STRT.F              4550.0000: START DEPTH
 STOP.F              7650.0000: STOP DEPTH
 STEP.F                 0.5000: STEP DEPTH
 NULL.               -999.2500: NULL VALUE
 FTOP.          Formation Tops:  FORM TOPS DESC
 ILTD.               Lithology:  INTERP LTH DESC
 SVYD.               Survey_DS:  SURVEY DESC
 DMOD.             Drill Model:  DRILL MOD DESC
 DATE.      00.00.00 03-Apr-10:  END TIME
 STIM.      00.00.00 28-Mar-10:  START TIME
 DMF .           Kelly Bushing:  DRILL MEAS FROM
 PDAT.          Mean Sea Level:  PERMANENT DATUM
 DFST.                        :  DIST FSL TEXT
 DFWT.                        :  DIST FWL TEXT
 MMDL.            bggm2009.dat:  MAGNETIC MODEL
 MDS .              Win MagUTM:  MAG DATA SOURCE
 XYGR.     UTM Zones, Northern Hemisphere, Meters:  XYGROUP
 CGSY.               SS CLRK51:  CART GRID SYS
 CREF.     Ellipsoid Clarke - 1880:  CART REFERENCE
 CPJM.                        :  CART PROJ METHD
 CCDE.     UTM Clarke 1880 (CM 51), Meters:  CART COORD DESC
 LLGR.      Latitude/Longitude:  LLGROUP
 GGSY.                      LL:  GEO GRID SYS
 GREF.     Ellipsoid World Geodetic System :  GEO REFERENCE
 GPMT.                        :  GEO PROJ METHOD
 GCDE.     Generic Lat/Long's, Degrees, -180 ==> +180:  GEO COORD DESC
 SPUD.               20-Mar-10:  SPUD DATE
 MWDS.                   Dubai:  MWD SHOP
 JOBN.        AD-FE-0007255267:  JOB TICKET NUMB
 BASE.               Abu Dhabi:  LOGGING EQUIPMENT BASE LOCATION
 REGN.               Abu Dhabi:  REGION
 CULG.                        :  CUSTOMER LOGO
 COLG.           186HAL_lg.bmp:  COMPANY LOGO
 UNIT.                  166264:  LOGGING EQUIPMENT ID
 DOE .        AD-FE-0007255267:  DOE NUMBER
 UWI .        AD-FE-0007255267:  UNIQUE WELL IDENTIFIER
 API .        AD-FE-0007255267:  API NUMBER
 SON .        AD-FE-0007255267:  JOB NUMBER
 RANG.                        :  RANGE
 TOWN.                        :  TOWNSHIP
 SECT.                        :  SECTION
 DCON.             Al-Mansoory:  DIRECTNL CONTR
 LEAS.                        :  LEASE NAME
 SRVC.                     NDC:  CONTRACTOR
 CTRY.     United Arab Emirates:  COUNTRY NAME
 PROV.               Abu Dhabi:  PROVINCE
 STAT.               Abu Dhabi:  STATE NAME
 CNTY.               Abu Dhabi:  COUNTY NAME
 FLD .                    Shah:  FIELD NAME
 RIG .                   ND-50:  RIG NAME
 COMP.                    ADCO:  COMPANY
 WELL.            SY-027-1-04H:  WELL NAME
 LOC .                        :  LOCATION
 LMF .           Kelly Bushing:  LOG MEASURED FROM
 AZTC.deg             0.383835:  AZM TOTAL CORR
 GRDC.deg             1.093917:  GRID CORRECTION
 MDEC.deg             1.477752:  MAGNETIC DECL
 GVFD.g               1.000000:  GRAVITY FIELD
 MDIP.deg            34.939442:  MAGNETIC DIP
 MFLD.nT          42523.898438:  MAGNETIC FIELD
 VSDR.deg            55.740002:  VERT SEC DIRECT
 TDD .ft           7648.000000:  TOTAL DEPTH (DRILLER)
 STRD.ft           4648.000000:  START DEPTH
 APD .ft            429.000000:  DEPTH ABOVE PD
 EPD .ft              0.000000:  ELEVATION
 DFSL.ft              0.000000:  DISTANCE FSL
 DFWL.ft              0.000000:  DISTANCE FWL
 UTMY.m         2535096.000000:  UTM Y
 UTMX.m          788186.312500:  UTM X
 WHEW.ft              0.000000:  WELL HEAD E/W
 WHNS.ft              0.000000:  WELL HEAD N/S
 WDMS.ft              0.000000:  WD ELEV
 EGL .ft            407.799988:  GROUND ELEVATION
 TVDS.ft            429.000000:  TVDSS CORRECTN
 LONG.deg            53.809174:  LONGITUDE
 LATI.deg            22.900974:  LATITUDE
 VSEW.ft              0.000000:  VERT SEC E/W
 VSNS.ft              0.000000:  VERT SEC N/S
 CMER.deg            51.000000:  CENTRL MERIDIAN
 AGAP.ft              0.000000:  AIR GAP
 RCST.$/da            0.000000:  RIG COST
 EKB .ft            429.000000:  KB ELEVATION
 EDF .ft            428.000031:  DF ELEVATION
 TDL .ft           3000.000000:  TOTAL DEPTH (LOGGER)
 CSGD.ft           4170.000000:  CASING BOTTOM (DRILLER)
 CSGL.ft           4170.000000:  CASING BOTTOM (LOGGER)
 CSGS.in              9.625000:  CASING SIZE
 CSGW.lbpf           47.000000:  CASING WEIGHT
 HPTY.                       0:  HOLE POS TYPE
 NREF.                       2:  NORTH REFERENCE
 MAGU.                 1453103:  MAGUTM CHECKSUM
 VSC .                       0:  VS TO CLOSURE
 WTYP.                       2:  WELL TYPE
~Parameter Information Block
#MNEM.UNIT       Value        Description
#---------     -----------    ---------------------------
 R1  .     ‘ÁHDrilled 6" horizontal hole F/4648' T/7655'.:  Run Comments 1 
 TDL .ft           3000.000000:  Tot Depth Loggd 
 RRUN.                       4:  Rig Run Number 
 STRD.ft           4648.000000:  Start Depth 
 EDEP.ft           7648.000000:  End Depth 
 STIM.      22.00.32 30-Mar-10:  Start Time 
 ETIM.      20.37.20 04-Apr-10:  End Time 
 TLAB.      00.00.00 31-Mar-10:  Log Start Time 
 TLAT.      14.00.32 03-Apr-10:  Log End Time 
 ENG2.             Ahmed Samir:  Engineer 2 
 ENG3.       Sherif Abdel Aziz:  Engineer 3 
 WITN.        Hamed Abu Shanab:  Customer Rep 
 ORT .hr            129.396225:  Time Operating 
 DFT .                   Other:  Mud Type 
 DFV .spqt           40.000000:  Mud Viscosity 
 PH  .pH             10.000000:  Mud pH 
 DFL .mptm            7.000000:  Fluid Loss 
 RMS .ohmm            0.180000:  Mud Resistivity 
 MST .degF           74.000000:  Mud Sample Temperature 
 RMFS.ohmm            0.120000:  Mud Filtrate Resistivity 
 RMFT.degF           77.000000:  Mud Filtrate Sample Temperature 
 RMCS.ohmm            0.240000:  Mud Cake Resistivity 
 MCST.degF           70.000000:  Mud Cake Sample Temperature 
 RMB .ohmm            0.000000:  Rm @ Max Temp 
 ROP .fph            40.000000:  ROP Avg 
 ROP .fph            20.000000:  ROP Min 
 ROP .fph            60.000004:  ROP Max 
 BS  .in              0.000000:  Bit Size 
 TCS .hr             91.370071:  Time Ciculation Ended 
 RUN .                     400:  Run Number 
 DFD .ppg             8.690000:  Mud Density 
 MRT .                    HCIM:  Maximum Recorded Temperature 
~Parameter Information Block
#MNEM.UNIT       Value        Description
#---------     -----------    ---------------------------
 DFB .ft             50.060001:  Dist From Bit 
 SNIN.                  157772:  SN Insert 
 SP1 .sec            14.000000:  Sample Period 1 
 NOB .                8.000000:  Number Of Bins 
 DFB .ft             83.949997:  Dist From Bit 
 DFB .ft             98.709999:  Dist From Bit 
 SP1 .sec            14.000000:  Sample Period 1 
 SNIN.                  109091:  SN Insert 
 DDSV.sec            25.400002:  DDS AgvZ Total 
 DDSV.sec          4074.400391:  DDS AgvY Total 
 DDSV.sec          3504.600098:  DDS AgvX Total 
 DDSV.               90.000000:  DDS PkZ 10-15g 
 DDSV.              252.000000:  DDS PkY 25-40g 
 DDSV.              267.000000:  DDS PkX 25-40g 
 DDSV.sec            24.800001:  DDS AvgZ 1-2g 
 DDSV.sec          3932.800293:  DDS AvgY 1-2g 
 DDSV.sec             7.000000:  DDS AvgX 4-6g 
 DFB .ft             74.589996:  Dist From Bit 
 SNIN.                10990582:  SN Insert 
 SP1 .sec            12.000000:  Sample Period 1 
 DDSV.g              44.400002:  DDS AvgX Max 
 DDSV.sec             3.400000:  DDS AvgX 15+g 
 DDSV.sec             0.800000:  DDS AvgY 10-15g 
 DDSV.sec             0.000000:  DDS AvgZ 6-10g 
 DDSV.                6.000000:  DDS PkX 90-130g 
 DDSV.                3.000000:  DDS PkY 90-130g 
 DDSV.              213.000000:  DDS PkZ 30-50g 
 DDSV.sec             4.400000:  DDS AvgX 6-10g 
 DDSV.sec             6.800000:  DDS AvgY 4-6g 
 DDSV.sec             0.000000:  DDS AvgZ 4-6g 
 DDSV.               24.000000:  DDS PkX 60-90g 
 DDSV.                0.000000:  DDS PkZ 50+g 
 SP1 .sec            12.000000:  Sample Period 1 
 SNIN.                  105840:  SN Insert 
 DFB .ft             71.680000:  Dist From Bit 
 SNIN.                  TL-028:  SN Insert 
 SNC .                  TL-028:  SN Collar 
 TID .               28.000000:  Tool Identifier 
 DFB .ft             10.000000:  Dist From Bit 
 SNIN.                  270968:  SN Insert 
 SNIN.                  300324:  SN Insert 
 DFB .ft             36.639999:  Dist From Bit 
 SNIN.             11145527463:  SN Insert 
 DFB .ft              0.000000:  Dist From Bit 
 OTY .              Jet Oil II:  Oil Type 
 SNC .                 1127515:  SN Collar 
 SNIN.                  266071:  SN Insert 
 SP1 .sec             2.000000:  Sample Period 1 
 DFB .ft            110.440002:  Dist From Bit 
 DFB .ft             64.690002:  Dist From Bit 
 SNTX.                  270121:  SN Trans Insert 
 SP1 .sec            12.000000:  Sample Period 1 
~Curve Information Block
#MNEM.UNIT                 API CODE     Curve Description
#---------               -----------    ---------------------------
 DEPT.F                 00 000 000 000:  Depth
 SROP.fph               00 000 000 000:  Avg Rate of Penetration
 TVD .ft                00 000 000 000:  ROP True Vertical Depth
 SGRC.api               00 000 000 000:  DGR Combined Gamma Ray
 CALI.in                00 000 000 000:  ALD Hole Size Indicator
 DPHF.ohmm              00 000 000 000:  DP HF Res
 MDHF.ohmm              00 000 000 000:  MD HF Res
 SHHF.ohmm              00 000 000 000:  SH HF Res
 AMR .ohmm              00 000 000 000:  AFR Mud Resistivity
 SEDP.ohmm              00 000 000 000:  EWR Deep Phase Res
 SEMP.ohmm              00 000 000 000:  EWR Medium EWR Phase Res
 SESP.ohmm              00 000 000 000:  EWR Shallow EWR Phase Res
 SEXP.ohmm              00 000 000 000:  EWR Ext Shallow Phase Res
 SPLF.pu                00 000 000 000:  CTN Porosity Limestone
 SBD2.g/cc              00 000 000 000:  ALD LCRB Comp Density
 SNP2.b/e               00 000 000 000:  ALD LCRB Pe Factor
 SCO2.g/cc              00 000 000 000:  ALD LCRB Den Correction
~A   DEPT      SROP       TVD      SGRC      CALI       DPHF       MDHF      SHHF       AMR      SEDP      SEMP      SESP      SEXP      SPLF      SBD2      SNP2      SCO2    
# ...
   5769.0000   73.5578 4118.6855   97.5190    6.0842    17.3172    15.7099   11.9495    0.0817   35.9338   31.3710   25.9085   20.9347   25.0027    2.2964    3.4080    0.0451 
   5769.5000   64.0813 4118.7046   96.6302    6.0802    15.7937    13.8817   11.1051    0.0819   36.0560   31.6991   25.6995   21.4388   24.4694    2.3091    3.4196    0.0479 
   5770.0000   52.6434 4118.7236   96.7945    6.0933    15.6903    13.6400   10.9313    0.0819   36.9013   31.5330   26.1527   21.3897   24.4950    2.3202    3.4309    0.0480 
   5770.5000   41.2667 4118.7432   96.6017    6.0992    16.4516    14.1266   11.2049    0.0819   37.4918   30.8072   26.1292   21.0368   24.8716    2.3259    3.3965    0.0530 
   5771.0000   36.3606 4118.7622   95.7237    6.1263    17.8219    14.8076   11.8683    0.0817   37.8343   30.3050   26.2412   20.6350   25.6016    2.3298    3.3657    0.0543 
   5771.5000   40.5711 4118.7813   95.2022    6.1243    18.4720    15.5084   12.1065    0.0816   37.7548   30.0545   26.1545   20.2458   26.3014    2.3165    3.3782    0.0485 
   5772.0000   46.0581 4118.8008   93.5939    6.0987    18.3518    15.4334   11.9686    0.0815   36.9981   29.9705   25.6688   20.1420   26.4120    2.3028    3.3925    0.0465 
   5772.5000   43.9805 4118.8198   91.9667    6.0841    18.0999    14.4660   11.8649    0.0814   36.4369   29.9331   25.4079   20.1829   26.2549    2.3025    3.4444    0.0437 
   5773.0000   36.9473 4118.8389   94.0109    6.0568    17.2602    13.5648   11.4121    0.0814   36.2591   30.0017   25.2995   20.2316   25.9745    2.3066    3.4637    0.0416 
   5773.5000   29.1866 4118.8584   97.8332    6.0333    16.9333    14.1795   11.2000    0.0812   36.1856   30.0803   25.2674   20.2294   25.1917    2.3149    3.4615    0.0433 
   5774.0000   28.7992 4118.8774   98.1295    6.0327    17.2822    15.4875   11.2733    0.0811   36.1118   29.4598   25.1735   20.2773   24.6105    2.3225    3.4032    0.0472 
   5774.5000   36.9149 4118.8965   95.6350    6.0438    17.0993    15.0194   11.0711    0.0810   36.2580   29.0442   25.2303   20.1566   24.2809    2.3293    3.3497    0.0487 
   5775.0000   52.5677 4118.9155   95.2451    6.0568    16.4964    13.8574   10.7005    0.0810   36.4145   29.0418   25.1410   19.4778   23.8447    2.3291    3.3126    0.0532 
   5775.5000   66.6099 4118.9351   97.4467    6.0792    15.9668    13.4937   10.3741    0.0810   36.2115   28.1843   24.1869   19.0140   23.7562    2.3257    3.2973    0.0608 
   5776.0000   81.8267 4118.9541   96.9053    6.1119    15.2791    13.6004    9.8587    0.0809   35.9635   27.5329   23.6239   18.5037   23.8890    2.3245    3.2841    0.0638 
   5776.5000   87.2658 4118.9736   94.2724    6.1167    14.4235    13.1159    9.2113    0.0809   35.8256   27.3128   23.3289   17.3899   24.5764    2.3146    3.2869    0.0633 
   5777.0000   88.7583 4118.9927   93.2432    6.0995    14.8983    13.0069    9.3654    0.0810   34.9913   26.3455   22.1954   16.6179   25.6352    2.3044    3.2677    0.0621 
   5777.5000   88.3690 4119.0122   93.7111    6.0897    15.9213    13.3521    9.8244    0.0813   34.4984   26.2142   21.5958   16.2619   26.3178    2.2989    3.2510    0.0585 
   5778.0000   88.0949 4119.0313   94.5435    6.0717    15.8355    13.0758    9.7122    0.0816   33.9679   26.5652   21.4943   15.7977   26.9161    2.2870    3.2505    0.0507 
   5778.5000   88.3247 4119.0508   97.2398    6.0320    15.0235    12.3607    9.3191    0.0818   32.7200   26.1861   20.7643   16.0084   27.5580    2.2715    3.2922    0.0457 
   5779.0000   88.1980 4119.0698   97.5373    6.0129    14.5232    11.9054    9.0290    0.0817   32.4830   25.9177   20.8777   16.4327   27.5292    2.2642    3.3392    0.0437 
   5779.5000   85.8292 4119.0894   97.8140    6.0098    14.8890    12.0313    9.2028    0.0816   32.7070   25.3258   21.4018   16.1634   27.3103    2.2622    3.3355    0.0498 
   5780.0000   85.2649 4119.1084   99.2187    6.0415    15.8778    12.6015    9.7425    0.0814   32.0291   25.0119   21.3003   16.1035   27.4820    2.2635    3.3315    0.0554 
   5780.5000   90.8436 4119.1279   99.7561    6.0688    16.7162    13.0785   10.1236    0.0814   31.5893   25.4070   21.3748   16.1692   27.5123    2.2643    3.2770    0.0580 
   5781.0000   97.0261 4119.1475   98.1079    6.0771    16.1710    12.7199    9.7197    0.0814   30.8522   26.4219   21.2400   16.5804   27.5894    2.2658    3.2181    0.0630 
   5781.5000   96.1985 4119.1665   96.3666    6.1003    14.8787    12.1805    9.0235    0.0815   30.3347   27.1090   21.2364   17.2286   27.7980    2.2721    3.1619    0.0660 
   5782.0000   89.8558 4119.1860   93.6664    6.1120    14.1782    12.2229    8.6963    0.0816   30.5728   26.8909   21.7499   17.5701   28.0086    2.2734    3.0879    0.0676 
   5782.5000   87.6003 4119.2056   91.6061    6.1139    13.6272    12.2644    8.3841    0.0816   31.6387   26.1252   22.5461   17.3209   28.3966    2.2637    3.0779    0.0625 
   5783.0000   89.1179 4119.2251   90.6445    6.0913    13.2833    11.6074    8.1742    0.0817   32.5985   25.6755   22.8980   16.4424   28.8954    2.2441    3.0739    0.0550 
   5783.5000   89.4117 4119.2441   90.7461    6.0551    13.9704    11.3848    8.6040    0.0818   32.8557   25.0353   22.3532   15.7099   29.7447    2.2261    3.0449    0.0517 
   5784.0000   92.6733 4119.2637   89.5639    6.0406    15.0931    12.1150    9.3509    0.0818   32.2148   24.4784   21.6025   15.6045   29.9577    2.2176    3.0333    0.0442 
   5784.5000   96.7203 4119.2832   88.5132    6.0006    15.4941    12.7388    9.7078    0.0816   31.4105   25.0392   21.3037   15.7655   29.7815    2.2095    3.1303    0.0394 
   5785.0000   95.2543 4119.3022   88.4465    5.9691    15.7268    13.4906   10.0329    0.0813   30.2104   25.6760   20.7834   16.1997   29.8434    2.2150    3.1700    0.0430 
   5785.5000   90.9541 4119.3218   86.3695    5.9827    16.0098    14.0070   10.4120    0.0812   29.3421   26.7035   20.6255   17.2815   29.2550    2.2326    3.2160    0.0498 
   5786.0000   85.9464 4119.3413   85.4043    6.0177    16.1176    13.8454   10.6091    0.0814   29.4853   28.0957   21.5680   18.2759   28.0609    2.2560    3.2470    0.0536 
   5786.5000   82.5010 4119.3608   84.3672    6.0354    15.9948    13.5727   10.5510    0.0815   29.8333   29.2918   22.5584   19.2905   27.4154    2.2692    3.2702    0.0560 
   5787.0000   80.8924 4119.3799   83.9749    6.0448    15.4345    12.9200   10.2781    0.0816   30.5557   30.3680   23.8037   20.2632   27.2598    2.2782    3.2983    0.0529 
   5787.5000   81.5799 4119.3994   83.0749    6.0252    15.6805    12.9910   10.4796    0.0817   31.6843   30.7416   25.2353   20.7759   27.0613    2.2770    3.3195    0.0547 
   5788.0000   83.7000 4119.4189   81.5101    6.0352    16.9439    14.1013   11.0365    0.0817   32.6514   30.0073   26.3181   21.1253   27.2078    2.2774    3.3129    0.0575 
   5788.5000   85.8283 4119.4385   77.3368    6.0570    18.1409    15.2418   11.5420    0.0817   33.0248   29.8184   27.2606   21.0435   27.3795    2.2724    3.3006    0.0497 
   5789.0000   86.5934 4119.4575   75.2634    6.0268    18.0752    15.3772   11.4519    0.0817   33.3691   30.1873   27.4464   20.5041   27.5959    2.2546    3.3591    0.0490 
   5789.5000   92.4420 4119.4771   74.7334    6.0220    16.9906    14.5482   10.8310    0.0817   33.3034   30.8166   26.4928   20.6592   28.2110    2.2544    3.4113    0.0517 
   5790.0000  104.1148 4119.4966   73.3054    6.0329    16.5591    13.9090   10.7923    0.0818   33.4389   31.4492   26.1122   21.1182   28.1001    2.2618    3.4450    0.0534 
   5790.5000  105.3375 4119.5156   71.6414    6.0412    13.9826    11.9829    9.6341    0.0818   33.8040   31.3998   26.1855   21.2832   27.5695    2.2682    3.4142    0.0574 
   5791.0000   95.6660 4119.5352   71.9474    6.0833    11.8332    10.6680    8.6086    0.0819   34.3230   30.3233   26.1962   20.5947   27.4049    2.2705    3.3823    0.0569 
   5791.5000   93.7496 4119.5542   72.5403    6.1231    13.1179    12.3183    9.5956    0.0818   34.6429   28.6516   26.2258   19.6828   27.2575    2.2630    3.3403    0.0524 
