~Version Information
 VERS.                  2.0:   CWLS log ASCII Standard -VERSION 2.0
 WRAP.                   NO:   One line per depth step
~Well Information Block
#MNEM.UNIT     VALUE/NAME     DESCRIPTION
#---------     -----------    ---------------------------
 STRT.F              4550.0000: START DEPTH
 STOP.F              7650.0000: STOP DEPTH
 STEP.F                 0.5000: STEP DEPTH
 NULL.               -999.2500: NULL VALUE
 FTOP.          Formation Tops:  FORM TOPS DESC
 ILTD.               Lithology:  INTERP LTH DESC
 SVYD.               Survey_DS:  SURVEY DESC
 DMOD.             Drill Model:  DRILL MOD DESC
 DATE.      00.00.00 03-Apr-10:  END TIME
 STIM.      00.00.00 28-Mar-10:  START TIME
 DMF .           Kelly Bushing:  DRILL MEAS FROM
 PDAT.          Mean Sea Level:  PERMANENT DATUM
 DFST.                        :  DIST FSL TEXT
 DFWT.                        :  DIST FWL TEXT
 MMDL.            bggm2009.dat:  MAGNETIC MODEL
 MDS .              Win MagUTM:  MAG DATA SOURCE
 XYGR.     UTM Zones, Northern Hemisphere, Meters:  XYGROUP
 CGSY.               SS CLRK51:  CART GRID SYS
 CREF.     Ellipsoid Clarke - 1880:  CART REFERENCE
 CPJM.                        :  CART PROJ METHD
 CCDE.     UTM Clarke 1880 (CM 51), Meters:  CART COORD DESC
 LLGR.      Latitude/Longitude:  LLGROUP
 GGSY.                      LL:  GEO GRID SYS
 GREF.     Ellipsoid World Geodetic System :  GEO REFERENCE
 GPMT.                        :  GEO PROJ METHOD
 GCDE.     Generic Lat/Long's, Degrees, -180 ==> +180:  GEO COORD DESC
 SPUD.               20-Mar-10:  SPUD DATE
 MWDS.                   Dubai:  MWD SHOP
 JOBN.        AD-FE-0007255267:  JOB TICKET NUMB
 BASE.               Abu Dhabi:  LOGGING EQUIPMENT BASE LOCATION
 REGN.               Abu Dhabi:  REGION
 CULG.                        :  CUSTOMER LOGO
 COLG.           186HAL_lg.bmp:  COMPANY LOGO
 UNIT.                  166264:  LOGGING EQUIPMENT ID
 DOE .        AD-FE-0007255267:  DOE NUMBER
 UWI .        AD-FE-0007255267:  UNIQUE WELL IDENTIFIER
 API .        AD-FE-0007255267:  API NUMBER
 SON .        AD-FE-0007255267:  JOB NUMBER
 RANG.                        :  RANGE
 TOWN.                        :  TOWNSHIP
 SECT.                        :  SECTION
 DCON.             Al-Mansoory:  DIRECTNL CONTR
 LEAS.                        :  LEASE NAME
 SRVC.                     NDC:  CONTRACTOR
 CTRY.     United Arab Emirates:  COUNTRY NAME
 PROV.               Abu Dhabi:  PROVINCE
 STAT.               Abu Dhabi:  STATE NAME
 CNTY.               Abu Dhabi:  COUNTY NAME
 FLD .                    Shah:  FIELD NAME
 RIG .                   ND-50:  RIG NAME
 COMP.                    ADCO:  COMPANY
 WELL.            SY-027-1-04H:  WELL NAME
 LOC .                        :  LOCATION
 LMF .           Kelly Bushing:  LOG MEASURED FROM
 AZTC.deg             0.383835:  AZM TOTAL CORR
 GRDC.deg             1.093917:  GRID CORRECTION
 MDEC.deg             1.477752:  MAGNETIC DECL
 GVFD.g               1.000000:  GRAVITY FIELD
 MDIP.deg            34.939442:  MAGNETIC DIP
 MFLD.nT          42523.898438:  MAGNETIC FIELD
 VSDR.deg            55.740002:  VERT SEC DIRECT
 TDD .ft           7648.000000:  TOTAL DEPTH (DRILLER)
 STRD.ft           4648.000000:  START DEPTH
 APD .ft            429.000000:  DEPTH ABOVE PD
 EPD .ft              0.000000:  ELEVATION
 DFSL.ft              0.000000:  DISTANCE FSL
 DFWL.ft              0.000000:  DISTANCE FWL
 UTMY.m         2535096.000000:  UTM Y
 UTMX.m          788186.312500:  UTM X
 WHEW.ft              0.000000:  WELL HEAD E/W
 WHNS.ft              0.000000:  WELL HEAD N/S
 WDMS.ft              0.000000:  WD ELEV
 EGL .ft            407.799988:  GROUND ELEVATION
 TVDS.ft            429.000000:  TVDSS CORRECTN
 LONG.deg            53.809174:  LONGITUDE
 LATI.deg            22.900974:  LATITUDE
 VSEW.ft              0.000000:  VERT SEC E/W
 VSNS.ft              0.000000:  VERT SEC N/S
 CMER.deg            51.000000:  CENTRL MERIDIAN
 AGAP.ft              0.000000:  AIR GAP
 RCST.$/da            0.000000:  RIG COST
 EKB .ft            429.000000:  KB ELEVATION
 EDF .ft            428.000031:  DF ELEVATION
 TDL .ft           3000.000000:  TOTAL DEPTH (LOGGER)
 CSGD.ft           4170.000000:  CASING BOTTOM (DRILLER)
 CSGL.ft           4170.000000:  CASING BOTTOM (LOGGER)
 CSGS.in              9.625000:  CASING SIZE
 CSGW.lbpf           47.000000:  CASING WEIGHT
 HPTY.                       0:  HOLE POS TYPE
 NREF.                       2:  NORTH REFERENCE
 MAGU.                 1453103:  MAGUTM CHECKSUM
 VSC .                       0:  VS TO CLOSURE
 WTYP.                       2:  WELL TYPE
~Parameter Information Block
#MNEM.UNIT       Value        Description
#---------     -----------    ---------------------------
 R1  .     ‘ÁHDrilled 6" horizontal hole F/4648' T/7655'.:  Run Comments 1 
 TDL .ft           3000.000000:  Tot Depth Loggd 
 RRUN.                       4:  Rig Run Number 
 STRD.ft           4648.000000:  Start Depth 
 EDEP.ft           7648.000000:  End Depth 
 STIM.      22.00.32 30-Mar-10:  Start Time 
 ETIM.      20.37.20 04-Apr-10:  End Time 
 TLAB.      00.00.00 31-Mar-10:  Log Start Time 
 TLAT.      14.00.32 03-Apr-10:  Log End Time 
 ENG2.             Ahmed Samir:  Engineer 2 
 ENG3.       Sherif Abdel Aziz:  Engineer 3 
 WITN.        Hamed Abu Shanab:  Customer Rep 
 ORT .hr            129.396225:  Time Operating 
 DFT .                   Other:  Mud Type 
 DFV .spqt           40.000000:  Mud Viscosity 
 PH  .pH             10.000000:  Mud pH 
 DFL .mptm            7.000000:  Fluid Loss 
 RMS .ohmm            0.180000:  Mud Resistivity 
 MST .degF           74.000000:  Mud Sample Temperature 
 RMFS.ohmm            0.120000:  Mud Filtrate Resistivity 
 RMFT.degF           77.000000:  Mud Filtrate Sample Temperature 
 RMCS.ohmm            0.240000:  Mud Cake Resistivity 
 MCST.degF           70.000000:  Mud Cake Sample Temperature 
 RMB .ohmm            0.000000:  Rm @ Max Temp 
 ROP .fph            40.000000:  ROP Avg 
 ROP .fph            20.000000:  ROP Min 
 ROP .fph            60.000004:  ROP Max 
 BS  .in              0.000000:  Bit Size 
 TCS .hr             91.370071:  Time Ciculation Ended 
 RUN .                     400:  Run Number 
 DFD .ppg             8.690000:  Mud Density 
 MRT .                    HCIM:  Maximum Recorded Temperature 
~Parameter Information Block
#MNEM.UNIT       Value        Description
#---------     -----------    ---------------------------
 DFB .ft             50.060001:  Dist From Bit 
 SNIN.                  157772:  SN Insert 
 SP1 .sec            14.000000:  Sample Period 1 
 NOB .                8.000000:  Number Of Bins 
 DFB .ft             83.949997:  Dist From Bit 
 DFB .ft             98.709999:  Dist From Bit 
 SP1 .sec            14.000000:  Sample Period 1 
 SNIN.                  109091:  SN Insert 
 DDSV.sec            25.400002:  DDS AgvZ Total 
 DDSV.sec          4074.400391:  DDS AgvY Total 
 DDSV.sec          3504.600098:  DDS AgvX Total 
 DDSV.               90.000000:  DDS PkZ 10-15g 
 DDSV.              252.000000:  DDS PkY 25-40g 
 DDSV.              267.000000:  DDS PkX 25-40g 
 DDSV.sec            24.800001:  DDS AvgZ 1-2g 
 DDSV.sec          3932.800293:  DDS AvgY 1-2g 
 DDSV.sec             7.000000:  DDS AvgX 4-6g 
 DFB .ft             74.589996:  Dist From Bit 
 SNIN.                10990582:  SN Insert 
 SP1 .sec            12.000000:  Sample Period 1 
 DDSV.g              44.400002:  DDS AvgX Max 
 DDSV.sec             3.400000:  DDS AvgX 15+g 
 DDSV.sec             0.800000:  DDS AvgY 10-15g 
 DDSV.sec             0.000000:  DDS AvgZ 6-10g 
 DDSV.                6.000000:  DDS PkX 90-130g 
 DDSV.                3.000000:  DDS PkY 90-130g 
 DDSV.              213.000000:  DDS PkZ 30-50g 
 DDSV.sec             4.400000:  DDS AvgX 6-10g 
 DDSV.sec             6.800000:  DDS AvgY 4-6g 
 DDSV.sec             0.000000:  DDS AvgZ 4-6g 
 DDSV.               24.000000:  DDS PkX 60-90g 
 DDSV.                0.000000:  DDS PkZ 50+g 
 SP1 .sec            12.000000:  Sample Period 1 
 SNIN.                  105840:  SN Insert 
 DFB .ft             71.680000:  Dist From Bit 
 SNIN.                  TL-028:  SN Insert 
 SNC .                  TL-028:  SN Collar 
 TID .               28.000000:  Tool Identifier 
 DFB .ft             10.000000:  Dist From Bit 
 SNIN.                  270968:  SN Insert 
 SNIN.                  300324:  SN Insert 
 DFB .ft             36.639999:  Dist From Bit 
 SNIN.             11145527463:  SN Insert 
 DFB .ft              0.000000:  Dist From Bit 
 OTY .              Jet Oil II:  Oil Type 
 SNC .                 1127515:  SN Collar 
 SNIN.                  266071:  SN Insert 
 SP1 .sec             2.000000:  Sample Period 1 
 DFB .ft            110.440002:  Dist From Bit 
 DFB .ft             64.690002:  Dist From Bit 
 SNTX.                  270121:  SN Trans Insert 
 SP1 .sec            12.000000:  Sample Period 1 
~Curve Information Block
#MNEM.UNIT                 API CODE     Curve Description
#---------               -----------    ---------------------------
 DEPT.F                 00 000 000 000:  Depth
 SROP.fph               00 000 000 000:  Avg Rate of Penetration
 TVD .ft                00 000 000 000:  ROP True Vertical Depth
 SGRC.api               00 000 000 000:  DGR Combined Gamma Ray
 CALI.in                00 000 000 000:  ALD Hole Size Indicator
 DPHF.ohmm              00 000 000 000:  DP HF Res
 MDHF.ohmm              00 000 000 000:  MD HF Res
 SHHF.ohmm              00 000 000 000:  SH HF Res
 AMR .ohmm              00 000 000 000:  AFR Mud Resistivity
 SEDP.ohmm              00 000 000 000:  EWR Deep Phase Res
 SEMP.ohmm              00 000 000 000:  EWR Medium EWR Phase Res
 SESP.ohmm              00 000 000 000:  EWR Shallow EWR Phase Res
 SEXP.ohmm              00 000 000 000:  EWR Ext Shallow Phase Res
 SPLF.pu                00 000 000 000:  CTN Porosity Limestone
 SBD2.g/cc              00 000 000 000:  ALD LCRB Comp Density
 SNP2.b/e               00 000 000 000:  ALD LCRB Pe Factor
 SCO2.g/cc              00 000 000 000:  ALD LCRB Den Correction
~A   DEPT      SROP       TVD      SGRC      CALI       DPHF       MDHF      SHHF       AMR      SEDP      SEMP      SESP      SEXP      SPLF      SBD2      SNP2      SCO2    
# ...
   7356.0000   84.9667 4168.5889   83.4039    6.2272     2.1207     1.7330    1.2275    0.0738    3.5962    2.8073    2.1540    1.6995   26.7866    2.4845    2.9464    0.0774 
   7356.5000   82.5718 4168.5928   82.2570    6.2297     2.0057     1.4450    1.1658    0.0738    3.3669    2.4371    2.0310    1.5800   27.7503    2.4795    2.9282    0.0712 
   7357.0000   84.5423 4168.5967   82.3882    6.2032     2.1697     1.7643    1.3345    0.0738    2.9552    2.1364    1.9034    1.5151   28.8033    2.4628    2.9311    0.0766 
   7357.5000   91.7417 4168.6001   86.3254    6.2101     2.6698     2.3704    1.6362    0.0738    2.6071    1.9548    1.8119    1.5027   29.1030    2.4520    2.9181    0.0722 
   7358.0000   98.8247 4168.6040   92.2030    6.1720     3.1054     2.6717    1.9016    0.0739    2.3742    2.2594    1.7238    1.5508   28.6798    2.4286    2.9587    0.0571 
   7358.5000   97.7671 4168.6079   99.6063    6.0966     3.0098     2.3732    1.8959    0.0740    2.3878    2.9111    1.6943    1.7001   28.2996    2.4126    3.0591    0.0574 
   7359.0000   93.8244 4168.6113  102.7408    6.1137     2.5662     1.8816    1.6244    0.0741    2.7717    3.7215    1.7988    1.8945   27.3611    2.4480    3.0962    0.0676 
   7359.5000   90.5031 4168.6152  105.1499    6.1545     2.4095     1.5863    1.5477    0.0741    3.5855    4.1269    1.9832    1.9873   26.2352    2.4929    3.0476    0.0742 
   7360.0000   87.4808 4168.6191  107.2079    6.1507     2.7746     1.7953    1.8450    0.0740    4.6718    3.4782    2.1496    1.9420   25.2094    2.5076    2.9744    0.0739 
   7360.5000   86.8796 4168.6235  107.1142    6.1142     3.2243     2.4728    2.2912    0.0739    5.2155    2.8205    2.1995    1.8172   25.0323    2.4910    2.9479    0.0739 
   7361.0000   88.4984 4168.6279  106.4141    6.0893     3.3458     2.9170    2.4625    0.0736    4.5327    2.7322    2.0923    1.7932   25.4608    2.4700    2.9785    0.0728 
   7361.5000   90.0466 4168.6323  106.2726    6.0757     3.1686     2.7392    2.4207    0.0735    3.8026    2.9821    2.0025    1.9950   25.9023    2.4571    3.0830    0.0679 
   7362.0000   90.4486 4168.6372  105.1001    6.0544     2.9340     2.3665    2.2735    0.0735    3.7560    3.4954    2.1406    2.3580   26.2299    2.4617    3.1721    0.0682 
   7362.5000   88.1819 4168.6416  104.6853    6.0600     2.8909     2.3528    2.2567    0.0734    4.1334    3.8619    2.4677    2.7078   25.7806    2.4861    3.2090    0.0745 
   7363.0000   86.3191 4168.6460  103.1052    6.0985     3.2034     2.7465    2.5140    0.0734    4.8061    4.0153    2.8522    2.8953   24.5437    2.5107    3.2012    0.0775 
   7363.5000   86.4896 4168.6504  100.8184    6.1153     3.5848     3.1463    2.8741    0.0734    5.1485    3.9985    3.1429    3.0051   23.7523    2.5168    3.1823    0.0717 
   7364.0000   86.5808 4168.6553   98.3270    6.0941     3.7283     3.3764    3.1008    0.0734    5.1723    3.9834    3.3655    3.0635   23.6224    2.5043    3.1706    0.0612 
   7364.5000   86.1406 4168.6597   96.0393    6.0568     3.7427     3.4398    3.1927    0.0736    5.0393    4.5905    3.4888    3.1772   23.6253    2.4907    3.1486    0.0587 
   7365.0000   84.9637 4168.6646   95.6582    6.0482     3.7370     3.4241    3.1861    0.0739    4.8536    5.0181    3.5902    3.4194   23.7251    2.4876    3.0741    0.0581 
   7365.5000   83.7326 4168.6694   96.4233    6.0425     3.6696     3.4447    3.1968    0.0740    4.9271    5.3084    3.8160    3.7063   23.3276    2.4880    2.9761    0.0576 
   7366.0000   84.1730 4168.6743   93.8639    6.0351     3.5886     3.3157    3.1748    0.0740    5.3246    5.5250    4.1376    3.9491   22.6482    2.4886    2.9181    0.0589 
   7366.5000   85.0576 4168.6792   90.0114    6.0237     3.4379     3.1516    3.1270    0.0740    5.6470    5.6272    4.4302    4.0822   22.5478    2.4802    2.8344    0.0612 
   7367.0000   87.2393 4168.6841   89.4253    6.0199     3.3148     2.9547    2.9851    0.0740    5.8210    5.6776    4.6286    4.0703   22.9196    2.4713    2.8009    0.0618 
   7367.5000   87.0185 4168.6890   88.6838    6.0193     3.3722     3.0242    3.0750    0.0740    6.0459    5.7070    4.6958    3.9720   23.3832    2.4614    2.7968    0.0647 
   7368.0000   84.7360 4168.6938   86.0444    6.0325     3.9710     3.5560    3.6811    0.0739    6.3162    5.7299    4.6535    3.8978   24.1382    2.4543    2.8228    0.0682 
   7368.5000   84.2118 4168.6987   83.6786    6.0518     4.1788     3.9089    4.0419    0.0739    6.5468    5.7570    4.5932    3.8736   24.8337    2.4461    2.8884    0.0764 
   7369.0000   81.6905 4168.7036   79.8151    6.0949     4.1203     3.8499    3.9311    0.0739    6.7474    5.8439    4.5292    3.9342   25.0290    2.4450    2.9252    0.0758 
   7369.5000   75.7881 4168.7085   77.4635    6.0972     4.0599     3.7742    3.8954    0.0740    6.8613    6.0011    4.4952    4.0023   24.8164    2.4467    2.9333    0.0718 
   7370.0000   69.8454 4168.7134   75.6261    6.0731     4.1360     3.8042    3.9930    0.0740    6.8663    6.2162    4.5111    4.1208   24.6725    2.4586    2.9664    0.0771 
   7370.5000   64.2221 4168.7183   77.3793    6.0839     4.1716     3.8044    4.0000    0.0741    6.8907    6.3752    4.6052    4.2653   24.2493    2.4856    3.0286    0.0835 
   7371.0000   53.9465 4168.7227   78.3090    6.0975     4.0077     3.8052    3.9307    0.0741    6.9923    6.4698    4.7386    4.3738   23.5755    2.5070    3.0744    0.0804 
   7371.5000   45.9111 4168.7275   76.8189    6.0828     4.0240     3.8502    3.9852    0.0742    7.2684    6.4588    4.8385    4.4055   22.7314    2.5078    3.0655    0.0779 
   7372.0000   56.2457 4168.7324   75.2007    6.0713     3.9353     3.7906    4.0345    0.0744    7.6384    6.4080    4.8669    4.4248   22.6104    2.5100    3.0522    0.0766 
   7372.5000   67.6709 4168.7373   74.1348    6.0671     4.0781     3.7691    4.1199    0.0746    7.9486    6.3110    4.8807    4.4661   22.6834    2.5090    3.0256    0.0745 
   7373.0000   70.7278 4168.7422   68.9761    6.0645     4.3330     3.9522    4.3981    0.0746    8.0681    6.1736    4.9225    4.5266   22.6080    2.5020    3.0119    0.0721 
   7373.5000   68.7098 4168.7471   65.7895    6.0609     4.4450     4.1267    4.6177    0.0747    8.1842    6.1105    4.9726    4.5970   22.7706    2.4947    2.9693    0.0720 
   7374.0000   66.2887 4168.7520   63.5981    6.0689     4.4533     4.1743    4.7397    0.0747    8.1921    6.0877    5.0027    4.6712   22.6561    2.4933    2.9281    0.0703 
   7374.5000   64.9634 4168.7568   64.8197    6.0850     4.2865     4.2043    4.8648    0.0746    8.0212    6.0291    5.0064    4.7835   22.4689    2.4929    2.8951    0.0672 
   7375.0000   64.7825 4168.7617   65.7794    6.0889     4.6302     4.5285    5.1946    0.0746    7.9353    5.9268    5.0496    4.9815   22.3843    2.4877    2.9169    0.0671 
   7375.5000   65.3621 4168.7666   65.3516    6.0953     5.1691     5.0564    5.7520    0.0746    7.8087    5.9163    5.1535    5.1619   22.2018    2.4828    2.9239    0.0682 
   7376.0000   66.2371 4168.7715   66.5618    6.0956     5.7337     5.2529    6.0281    0.0746    7.5789    5.7999    5.2511    5.2779   22.1939    2.4795    2.9584    0.0711 
   7376.5000   67.6947 4168.7764   66.2488    6.0977     5.6045     5.1798    5.8708    0.0746    7.4105    5.6748    5.3009    5.3717   22.3094    2.4756    3.0146    0.0742 
   7377.0000   70.0856 4168.7808   66.8306    6.1040     5.1946     5.2297    5.7292    0.0747    7.2914    5.5690    5.3211    5.4650   22.3490    2.4767    2.9936    0.0750 
   7377.5000   73.9002 4168.7856   67.6830    6.0905     5.2194     5.2603    5.5564    0.0748    7.2318    5.4899    5.3164    5.5476   22.4685    2.4780    2.9425    0.0742 
   7378.0000   77.8831 4168.7905   67.2577    6.0728     4.8385     5.0578    5.3627    0.0748    7.2189    5.4812    5.3097    5.5692   22.6195    2.4774    2.9394    0.0755 
   7378.5000   80.2733 4168.7954   66.9868    6.0713     4.7652     4.7678    5.2170    0.0748    7.1369    5.3773    5.2695    5.5177   22.9825    2.4773    2.9286    0.0771 
