~Version Information
 VERS.                  2.0:   CWLS log ASCII Standard -VERSION 2.0
 WRAP.                   NO:   One line per depth step
~Well Information Block
#MNEM.UNIT     VALUE/NAME     DESCRIPTION
#---------     -----------    ---------------------------
 STRT.F              4550.0000: START DEPTH
 STOP.F              7650.0000: STOP DEPTH
 STEP.F                 0.5000: STEP DEPTH
 NULL.               -999.2500: NULL VALUE
 FTOP.          Formation Tops:  FORM TOPS DESC
 ILTD.               Lithology:  INTERP LTH DESC
 SVYD.               Survey_DS:  SURVEY DESC
 DMOD.             Drill Model:  DRILL MOD DESC
 DATE.      00.00.00 03-Apr-10:  END TIME
 STIM.      00.00.00 28-Mar-10:  START TIME
 DMF .           Kelly Bushing:  DRILL MEAS FROM
 PDAT.          Mean Sea Level:  PERMANENT DATUM
 DFST.                        :  DIST FSL TEXT
 DFWT.                        :  DIST FWL TEXT
 MMDL.            bggm2009.dat:  MAGNETIC MODEL
 MDS .              Win MagUTM:  MAG DATA SOURCE
 XYGR.     UTM Zones, Northern Hemisphere, Meters:  XYGROUP
 CGSY.               SS CLRK51:  CART GRID SYS
 CREF.     Ellipsoid Clarke - 1880:  CART REFERENCE
 CPJM.                        :  CART PROJ METHD
 CCDE.     UTM Clarke 1880 (CM 51), Meters:  CART COORD DESC
 LLGR.      Latitude/Longitude:  LLGROUP
 GGSY.                      LL:  GEO GRID SYS
 GREF.     Ellipsoid World Geodetic System :  GEO REFERENCE
 GPMT.                        :  GEO PROJ METHOD
 GCDE.     Generic Lat/Long's, Degrees, -180 ==> +180:  GEO COORD DESC
 SPUD.               20-Mar-10:  SPUD DATE
 MWDS.                   Dubai:  MWD SHOP
 JOBN.        AD-FE-0007255267:  JOB TICKET NUMB
 BASE.               Abu Dhabi:  LOGGING EQUIPMENT BASE LOCATION
 REGN.               Abu Dhabi:  REGION
 CULG.                        :  CUSTOMER LOGO
 COLG.           186HAL_lg.bmp:  COMPANY LOGO
 UNIT.                  166264:  LOGGING EQUIPMENT ID
 DOE .        AD-FE-0007255267:  DOE NUMBER
 UWI .        AD-FE-0007255267:  UNIQUE WELL IDENTIFIER
 API .        AD-FE-0007255267:  API NUMBER
 SON .        AD-FE-0007255267:  JOB NUMBER
 RANG.                        :  RANGE
 TOWN.                        :  TOWNSHIP
 SECT.                        :  SECTION
 DCON.             Al-Mansoory:  DIRECTNL CONTR
 LEAS.                        :  LEASE NAME
 SRVC.                     NDC:  CONTRACTOR
 CTRY.     United Arab Emirates:  COUNTRY NAME
 PROV.               Abu Dhabi:  PROVINCE
 STAT.               Abu Dhabi:  STATE NAME
 CNTY.               Abu Dhabi:  COUNTY NAME
 FLD .                    Shah:  FIELD NAME
 RIG .                   ND-50:  RIG NAME
 COMP.                    ADCO:  COMPANY
 WELL.            SY-027-1-04H:  WELL NAME
 LOC .                        :  LOCATION
 LMF .           Kelly Bushing:  LOG MEASURED FROM
 AZTC.deg             0.383835:  AZM TOTAL CORR
 GRDC.deg             1.093917:  GRID CORRECTION
 MDEC.deg             1.477752:  MAGNETIC DECL
 GVFD.g               1.000000:  GRAVITY FIELD
 MDIP.deg            34.939442:  MAGNETIC DIP
 MFLD.nT          42523.898438:  MAGNETIC FIELD
 VSDR.deg            55.740002:  VERT SEC DIRECT
 TDD .ft           7648.000000:  TOTAL DEPTH (DRILLER)
 STRD.ft           4648.000000:  START DEPTH
 APD .ft            429.000000:  DEPTH ABOVE PD
 EPD .ft              0.000000:  ELEVATION
 DFSL.ft              0.000000:  DISTANCE FSL
 DFWL.ft              0.000000:  DISTANCE FWL
 UTMY.m         2535096.000000:  UTM Y
 UTMX.m          788186.312500:  UTM X
 WHEW.ft              0.000000:  WELL HEAD E/W
 WHNS.ft              0.000000:  WELL HEAD N/S
 WDMS.ft              0.000000:  WD ELEV
 EGL .ft            407.799988:  GROUND ELEVATION
 TVDS.ft            429.000000:  TVDSS CORRECTN
 LONG.deg            53.809174:  LONGITUDE
 LATI.deg            22.900974:  LATITUDE
 VSEW.ft              0.000000:  VERT SEC E/W
 VSNS.ft              0.000000:  VERT SEC N/S
 CMER.deg            51.000000:  CENTRL MERIDIAN
 AGAP.ft              0.000000:  AIR GAP
 RCST.$/da            0.000000:  RIG COST
 EKB .ft            429.000000:  KB ELEVATION
 EDF .ft            428.000031:  DF ELEVATION
 TDL .ft           3000.000000:  TOTAL DEPTH (LOGGER)
 CSGD.ft           4170.000000:  CASING BOTTOM (DRILLER)
 CSGL.ft           4170.000000:  CASING BOTTOM (LOGGER)
 CSGS.in              9.625000:  CASING SIZE
 CSGW.lbpf           47.000000:  CASING WEIGHT
 HPTY.                       0:  HOLE POS TYPE
 NREF.                       2:  NORTH REFERENCE
 MAGU.                 1453103:  MAGUTM CHECKSUM
 VSC .                       0:  VS TO CLOSURE
 WTYP.                       2:  WELL TYPE
~Parameter Information Block
#MNEM.UNIT       Value        Description
#---------     -----------    ---------------------------
 R1  .     ‘ÁHDrilled 6" horizontal hole F/4648' T/7655'.:  Run Comments 1 
 TDL .ft           3000.000000:  Tot Depth Loggd 
 RRUN.                       4:  Rig Run Number 
 STRD.ft           4648.000000:  Start Depth 
 EDEP.ft           7648.000000:  End Depth 
 STIM.      22.00.32 30-Mar-10:  Start Time 
 ETIM.      20.37.20 04-Apr-10:  End Time 
 TLAB.      00.00.00 31-Mar-10:  Log Start Time 
 TLAT.      14.00.32 03-Apr-10:  Log End Time 
 ENG2.             Ahmed Samir:  Engineer 2 
 ENG3.       Sherif Abdel Aziz:  Engineer 3 
 WITN.        Hamed Abu Shanab:  Customer Rep 
 ORT .hr            129.396225:  Time Operating 
 DFT .                   Other:  Mud Type 
 DFV .spqt           40.000000:  Mud Viscosity 
 PH  .pH             10.000000:  Mud pH 
 DFL .mptm            7.000000:  Fluid Loss 
 RMS .ohmm            0.180000:  Mud Resistivity 
 MST .degF           74.000000:  Mud Sample Temperature 
 RMFS.ohmm            0.120000:  Mud Filtrate Resistivity 
 RMFT.degF           77.000000:  Mud Filtrate Sample Temperature 
 RMCS.ohmm            0.240000:  Mud Cake Resistivity 
 MCST.degF           70.000000:  Mud Cake Sample Temperature 
 RMB .ohmm            0.000000:  Rm @ Max Temp 
 ROP .fph            40.000000:  ROP Avg 
 ROP .fph            20.000000:  ROP Min 
 ROP .fph            60.000004:  ROP Max 
 BS  .in              0.000000:  Bit Size 
 TCS .hr             91.370071:  Time Ciculation Ended 
 RUN .                     400:  Run Number 
 DFD .ppg             8.690000:  Mud Density 
 MRT .                    HCIM:  Maximum Recorded Temperature 
~Parameter Information Block
#MNEM.UNIT       Value        Description
#---------     -----------    ---------------------------
 DFB .ft             50.060001:  Dist From Bit 
 SNIN.                  157772:  SN Insert 
 SP1 .sec            14.000000:  Sample Period 1 
 NOB .                8.000000:  Number Of Bins 
 DFB .ft             83.949997:  Dist From Bit 
 DFB .ft             98.709999:  Dist From Bit 
 SP1 .sec            14.000000:  Sample Period 1 
 SNIN.                  109091:  SN Insert 
 DDSV.sec            25.400002:  DDS AgvZ Total 
 DDSV.sec          4074.400391:  DDS AgvY Total 
 DDSV.sec          3504.600098:  DDS AgvX Total 
 DDSV.               90.000000:  DDS PkZ 10-15g 
 DDSV.              252.000000:  DDS PkY 25-40g 
 DDSV.              267.000000:  DDS PkX 25-40g 
 DDSV.sec            24.800001:  DDS AvgZ 1-2g 
 DDSV.sec          3932.800293:  DDS AvgY 1-2g 
 DDSV.sec             7.000000:  DDS AvgX 4-6g 
 DFB .ft             74.589996:  Dist From Bit 
 SNIN.                10990582:  SN Insert 
 SP1 .sec            12.000000:  Sample Period 1 
 DDSV.g              44.400002:  DDS AvgX Max 
 DDSV.sec             3.400000:  DDS AvgX 15+g 
 DDSV.sec             0.800000:  DDS AvgY 10-15g 
 DDSV.sec             0.000000:  DDS AvgZ 6-10g 
 DDSV.                6.000000:  DDS PkX 90-130g 
 DDSV.                3.000000:  DDS PkY 90-130g 
 DDSV.              213.000000:  DDS PkZ 30-50g 
 DDSV.sec             4.400000:  DDS AvgX 6-10g 
 DDSV.sec             6.800000:  DDS AvgY 4-6g 
 DDSV.sec             0.000000:  DDS AvgZ 4-6g 
 DDSV.               24.000000:  DDS PkX 60-90g 
 DDSV.                0.000000:  DDS PkZ 50+g 
 SP1 .sec            12.000000:  Sample Period 1 
 SNIN.                  105840:  SN Insert 
 DFB .ft             71.680000:  Dist From Bit 
 SNIN.                  TL-028:  SN Insert 
 SNC .                  TL-028:  SN Collar 
 TID .               28.000000:  Tool Identifier 
 DFB .ft             10.000000:  Dist From Bit 
 SNIN.                  270968:  SN Insert 
 SNIN.                  300324:  SN Insert 
 DFB .ft             36.639999:  Dist From Bit 
 SNIN.             11145527463:  SN Insert 
 DFB .ft              0.000000:  Dist From Bit 
 OTY .              Jet Oil II:  Oil Type 
 SNC .                 1127515:  SN Collar 
 SNIN.                  266071:  SN Insert 
 SP1 .sec             2.000000:  Sample Period 1 
 DFB .ft            110.440002:  Dist From Bit 
 DFB .ft             64.690002:  Dist From Bit 
 SNTX.                  270121:  SN Trans Insert 
 SP1 .sec            12.000000:  Sample Period 1 
~Curve Information Block
#MNEM.UNIT                 API CODE     Curve Description
#---------               -----------    ---------------------------
 DEPT.F                 00 000 000 000:  Depth
 SROP.fph               00 000 000 000:  Avg Rate of Penetration
 TVD .ft                00 000 000 000:  ROP True Vertical Depth
 SGRC.api               00 000 000 000:  DGR Combined Gamma Ray
 CALI.in                00 000 000 000:  ALD Hole Size Indicator
 DPHF.ohmm              00 000 000 000:  DP HF Res
 MDHF.ohmm              00 000 000 000:  MD HF Res
 SHHF.ohmm              00 000 000 000:  SH HF Res
 AMR .ohmm              00 000 000 000:  AFR Mud Resistivity
 SEDP.ohmm              00 000 000 000:  EWR Deep Phase Res
 SEMP.ohmm              00 000 000 000:  EWR Medium EWR Phase Res
 SESP.ohmm              00 000 000 000:  EWR Shallow EWR Phase Res
 SEXP.ohmm              00 000 000 000:  EWR Ext Shallow Phase Res
 SPLF.pu                00 000 000 000:  CTN Porosity Limestone
 SBD2.g/cc              00 000 000 000:  ALD LCRB Comp Density
 SNP2.b/e               00 000 000 000:  ALD LCRB Pe Factor
 SCO2.g/cc              00 000 000 000:  ALD LCRB Den Correction
~A   DEPT      SROP       TVD      SGRC      CALI       DPHF       MDHF      SHHF       AMR      SEDP      SEMP      SESP      SEXP      SPLF      SBD2      SNP2      SCO2    
# ...
   5562.0000   99.2324 4111.4814   68.7145    6.1670    17.9736    17.6509   17.0460    0.0820   24.0478   24.7494   24.1567   24.2369   17.6849    2.3878    3.6900    0.0576 
   5562.5000  100.2632 4111.4985   68.7410    6.1273    17.9873    18.0460   17.0839    0.0819   24.4122   24.9533   24.8683   24.8786   17.5591    2.3949    3.7944    0.0550 
   5563.0000   99.4503 4111.5151   68.8815    6.1087    19.1727    18.8540   17.9984    0.0819   24.8452   25.0617   25.6830   25.2006   17.4849    2.4027    3.8515    0.0558 
   5563.5000   93.4659 4111.5322   70.3361    6.1119    19.9262    18.8701   18.2885    0.0819   24.8861   25.0110   26.1720   25.6655   17.2393    2.4133    3.8527    0.0520 
   5564.0000   85.0453 4111.5493   70.9045    6.1195    19.1701    17.5637   17.1810    0.0819   24.9141   25.0050   26.4637   26.1601   16.7379    2.4199    3.8030    0.0453 
   5564.5000   80.4160 4111.5659   72.0134    6.1190    20.0168    18.2581   17.7182    0.0820   25.0167   24.9663   26.7277   25.9861   16.6617    2.4194    3.7606    0.0444 
   5565.0000   77.4781 4111.5830   72.1919    6.1295    20.5257    19.2004   17.7853    0.0820   25.0916   24.8202   26.7035   25.7586   16.9929    2.4186    3.7161    0.0513 
   5565.5000   69.2603 4111.6001   71.3547    6.1627    18.3494    16.6807   15.4769    0.0821   25.1281   24.8150   26.5632   25.3525   17.1504    2.4172    3.6040    0.0556 
   5566.0000   60.7163 4111.6167   71.5881    6.1761    17.7334    15.4845   14.7502    0.0821   25.3057   25.0217   26.2622   24.7228   17.4613    2.4062    3.5947    0.0550 
   5566.5000   51.1351 4111.6338   73.0487    6.1300    16.1488    13.2741   12.9245    0.0821   25.6612   25.3090   25.7810   24.3139   18.8637    2.3842    3.6104    0.0673 
   5567.0000   43.6312 4111.6504   75.5961    6.1276    14.7139     9.4050   11.6963    0.0821   26.1639   25.6817   25.3036   23.6137   20.1819    2.3723    3.6201    0.0645 
   5567.5000   41.7990 4111.6675   78.4678    6.0863    12.1127     8.0421   10.0244    0.0822   26.6919   25.8670   24.7673   21.8024   21.3730    2.3461    3.6766    0.0499 
   5568.0000   45.9147 4111.6841   79.6960    6.0222    10.8623     9.4830    8.7613    0.0822   27.0128   24.9782   23.6896   19.7486   22.6774    2.3162    3.7501    0.0460 
   5568.5000   58.3056 4111.7012   78.1458    6.0303    14.6904    13.2619   10.9742    0.0822   27.2666   23.7077   22.7192   18.2805   22.9311    2.3107    3.7385    0.0493 
   5569.0000   64.5735 4111.7178   76.4373    6.1129    18.3150    16.2452   13.1306    0.0822   27.3884   21.4474   22.3274   16.7525   22.8063    2.3289    3.7553    0.0498 
   5569.5000   65.0109 4111.7349   75.0061    6.2273    18.1044    16.9852   12.9529    0.0823   26.9918   21.1985   21.9755   16.4087   22.3056    2.3540    3.6691    0.0499 
   5570.0000   62.2593 4111.7515   74.7098    6.3083    19.0818    17.9880   14.0160    0.0823   26.2833   22.4729   21.7393   16.0206   21.7828    2.3649    3.5745    0.0586 
   5570.5000   63.3419 4111.7681   74.6299    6.3382    18.0919    17.8221   13.9053    0.0824   24.0854   23.5488   20.1582   17.3668   21.3073    2.3644    3.5264    0.0700 
   5571.0000   65.3541 4111.7847   75.9388    6.3047    15.6680    15.9885   12.4964    0.0825   23.3098   24.1699   20.4724   19.3969   21.3356    2.3561    3.5431    0.0644 
   5571.5000   66.1773 4111.8018   78.2380    6.2068    15.7044    16.1621   12.9772    0.0825   24.0557   24.7299   22.2191   20.8002   21.1257    2.3321    3.5936    0.0531 
   5572.0000   65.9152 4111.8184   80.7409    6.0909    15.3886    15.3681   13.1554    0.0825   24.8110   25.1774   23.7055   21.4604   20.8906    2.3075    3.5185    0.0543 
   5572.5000   63.1037 4111.8350   82.7599    6.0739    14.7748    14.1292   12.9295    0.0824   25.2089   25.5540   24.5725   22.0641   21.2996    2.3011    3.4302    0.0604 
   5573.0000   60.4448 4111.8516   84.9619    6.1197    15.7467    14.9095   13.5984    0.0824   25.7545   24.8715   25.4107   22.6676   21.5281    2.3014    3.3909    0.0729 
   5573.5000   57.2818 4111.8687   86.4743    6.2041    16.3173    14.2597   13.6954    0.0823   26.1297   24.3029   26.1673   23.3349   21.2698    2.3054    3.2862    0.0853 
   5574.0000   49.3477 4111.8853   87.4157    6.2753    19.5191    16.0534   15.8502    0.0824   26.4061   24.4415   26.6478   22.8179   21.2896    2.2999    3.3198    0.0745 
   5574.5000   39.6724 4111.9019   85.3396    6.2207    22.6692    20.1650   17.7150    0.0826   25.9036   24.6503   25.6446   22.8836   21.2536    2.2772    3.4819    0.0594 
   5575.0000   36.7004 4111.9185   83.8049    6.1290    18.8883    17.1951   14.7622    0.0829   25.4930   24.7224   24.9173   23.4524   21.3397    2.2783    3.6397    0.0558 
   5575.5000   50.6716 4111.9351   84.6691    6.0655    16.5883    14.8045   13.0162    0.0831   25.8236   25.2042   24.9355   23.7001   22.1531    2.2957    3.7175    0.0634 
   5576.0000   66.7559 4111.9517   82.9504    6.0791    16.5056    15.0102   12.8067    0.0832   26.2326   25.7200   25.0301   22.9704   22.5847    2.3242    3.7046    0.0646 
   5576.5000   76.4189 4111.9683   82.1814    6.0787    13.7067    12.5581   10.9511    0.0832   26.6064   26.1452   24.7271   21.9556   22.1670    2.3344    3.6214    0.0577 
   5577.0000   80.4683 4111.9849   81.8420    6.0592     9.5842     9.2746    7.9987    0.0832   27.0383   26.3796   24.2925   20.8608   21.7182    2.3155    3.5508    0.0568 
   5577.5000   84.1386 4112.0015   80.5046    6.0654     8.9349    10.5951    7.3645    0.0833   27.4359   26.0536   23.9178   19.9531   22.1303    2.2926    3.4860    0.0598 
   5578.0000   88.2129 4112.0181   81.4559    6.0926    13.5477    15.7369   10.4147    0.0832   27.9399   24.0236   24.2836   19.3229   23.5394    2.2630    3.4223    0.0682 
   5578.5000   92.5872 4112.0347   82.2017    6.1558    16.0767    15.9225   11.6822    0.0831   28.1743   24.6100   25.0940   18.8119   24.8239    2.2383    3.3957    0.0661 
   5579.0000   95.1832 4112.0513   80.6082    6.1820    12.9147    11.7523    9.8716    0.0828   27.9889   26.3237   24.7694   17.0941   26.2126    2.2116    3.4742    0.0506 
   5579.5000   92.3121 4112.0679   79.6599    6.1255    13.3310    11.6523   10.7089    0.0826   26.4029   25.3832   22.1254   17.3254   26.8034    2.2021    3.4998    0.0552 
   5580.0000   87.3021 4112.0845   78.7239    6.1570    17.1219    15.6066   13.7372    0.0827   26.8911   23.8267   22.4897   18.1522   27.5388    2.2318    3.4608    0.0651 
   5580.5000   84.9408 4112.1011   77.3466    6.1858    18.7607    17.0538   14.8421    0.0826   28.3106   24.4932   24.0546   17.8736   28.3355    2.2493    3.5234    0.0590 
   5581.0000   85.0930 4112.1177   79.0393    6.1282    20.6314    18.4964   16.7159    0.0827   27.7712   25.3317   23.1626   18.5636   26.8535    2.2470    3.6412    0.0568 
   5581.5000   84.2277 4112.1343   79.2631    6.1271    20.6792    19.7780   17.3780    0.0828   26.2774   26.6012   22.6199   21.2423   24.8084    2.2872    3.7032    0.0568 
   5582.0000   80.8699 4112.1504   76.7614    6.1523    18.4630    18.1400   16.1742    0.0828   26.6854   27.9836   24.3893   23.3620   23.5807    2.3377    3.8315    0.0455 
   5582.5000   77.1274 4112.1670   74.8857    6.1677    18.3746    18.3009   16.5549    0.0827   27.4533   29.2115   25.8360   25.4165   22.1385    2.3935    3.9059    0.0387 
   5583.0000   78.3343 4112.1836   72.0048    6.2078    19.7539    20.6375   18.0378    0.0826   28.5419   29.8337   27.3287   26.9432   19.5522    2.4437    3.9289    0.0358 
   5583.5000   82.6669 4112.2002   70.4626    6.2123    20.8214    21.6608   19.2382    0.0825   29.5968   30.0947   28.4061   28.1002   17.4832    2.4586    4.0013    0.0369 
   5584.0000   83.4046 4112.2163   69.5328    6.2193    21.0933    21.4617   19.5905    0.0824   30.6277   30.2575   29.1508   28.7969   15.3141    2.4715    4.1054    0.0421 
   5584.5000   81.6408 4112.2329   68.3542    6.2458    20.2531    20.8146   19.1669    0.0824   31.2395   30.3136   29.5491   28.8963   13.9903    2.4959    4.1664    0.0444 
