~Version Information
 VERS.                  2.0:   CWLS log ASCII Standard -VERSION 2.0
 WRAP.                   NO:   One line per depth step
~Well Information Block
#MNEM.UNIT     VALUE/NAME     DESCRIPTION
#---------     -----------    ---------------------------
 STRT.F              4550.0000: START DEPTH
 STOP.F              7650.0000: STOP DEPTH
 STEP.F                 0.5000: STEP DEPTH
 NULL.               -999.2500: NULL VALUE
 FTOP.          Formation Tops:  FORM TOPS DESC
 ILTD.               Lithology:  INTERP LTH DESC
 SVYD.               Survey_DS:  SURVEY DESC
 DMOD.             Drill Model:  DRILL MOD DESC
 DATE.      00.00.00 03-Apr-10:  END TIME
 STIM.      00.00.00 28-Mar-10:  START TIME
 DMF .           Kelly Bushing:  DRILL MEAS FROM
 PDAT.          Mean Sea Level:  PERMANENT DATUM
 DFST.                        :  DIST FSL TEXT
 DFWT.                        :  DIST FWL TEXT
 MMDL.            bggm2009.dat:  MAGNETIC MODEL
 MDS .              Win MagUTM:  MAG DATA SOURCE
 XYGR.     UTM Zones, Northern Hemisphere, Meters:  XYGROUP
 CGSY.               SS CLRK51:  CART GRID SYS
 CREF.     Ellipsoid Clarke - 1880:  CART REFERENCE
 CPJM.                        :  CART PROJ METHD
 CCDE.     UTM Clarke 1880 (CM 51), Meters:  CART COORD DESC
 LLGR.      Latitude/Longitude:  LLGROUP
 GGSY.                      LL:  GEO GRID SYS
 GREF.     Ellipsoid World Geodetic System :  GEO REFERENCE
 GPMT.                        :  GEO PROJ METHOD
 GCDE.     Generic Lat/Long's, Degrees, -180 ==> +180:  GEO COORD DESC
 SPUD.               20-Mar-10:  SPUD DATE
 MWDS.                   Dubai:  MWD SHOP
 JOBN.        AD-FE-0007255267:  JOB TICKET NUMB
 BASE.               Abu Dhabi:  LOGGING EQUIPMENT BASE LOCATION
 REGN.               Abu Dhabi:  REGION
 CULG.                        :  CUSTOMER LOGO
 COLG.           186HAL_lg.bmp:  COMPANY LOGO
 UNIT.                  166264:  LOGGING EQUIPMENT ID
 DOE .        AD-FE-0007255267:  DOE NUMBER
 UWI .        AD-FE-0007255267:  UNIQUE WELL IDENTIFIER
 API .        AD-FE-0007255267:  API NUMBER
 SON .        AD-FE-0007255267:  JOB NUMBER
 RANG.                        :  RANGE
 TOWN.                        :  TOWNSHIP
 SECT.                        :  SECTION
 DCON.             Al-Mansoory:  DIRECTNL CONTR
 LEAS.                        :  LEASE NAME
 SRVC.                     NDC:  CONTRACTOR
 CTRY.     United Arab Emirates:  COUNTRY NAME
 PROV.               Abu Dhabi:  PROVINCE
 STAT.               Abu Dhabi:  STATE NAME
 CNTY.               Abu Dhabi:  COUNTY NAME
 FLD .                    Shah:  FIELD NAME
 RIG .                   ND-50:  RIG NAME
 COMP.                    ADCO:  COMPANY
 WELL.            SY-027-1-04H:  WELL NAME
 LOC .                        :  LOCATION
 LMF .           Kelly Bushing:  LOG MEASURED FROM
 AZTC.deg             0.383835:  AZM TOTAL CORR
 GRDC.deg             1.093917:  GRID CORRECTION
 MDEC.deg             1.477752:  MAGNETIC DECL
 GVFD.g               1.000000:  GRAVITY FIELD
 MDIP.deg            34.939442:  MAGNETIC DIP
 MFLD.nT          42523.898438:  MAGNETIC FIELD
 VSDR.deg            55.740002:  VERT SEC DIRECT
 TDD .ft           7648.000000:  TOTAL DEPTH (DRILLER)
 STRD.ft           4648.000000:  START DEPTH
 APD .ft            429.000000:  DEPTH ABOVE PD
 EPD .ft              0.000000:  ELEVATION
 DFSL.ft              0.000000:  DISTANCE FSL
 DFWL.ft              0.000000:  DISTANCE FWL
 UTMY.m         2535096.000000:  UTM Y
 UTMX.m          788186.312500:  UTM X
 WHEW.ft              0.000000:  WELL HEAD E/W
 WHNS.ft              0.000000:  WELL HEAD N/S
 WDMS.ft              0.000000:  WD ELEV
 EGL .ft            407.799988:  GROUND ELEVATION
 TVDS.ft            429.000000:  TVDSS CORRECTN
 LONG.deg            53.809174:  LONGITUDE
 LATI.deg            22.900974:  LATITUDE
 VSEW.ft              0.000000:  VERT SEC E/W
 VSNS.ft              0.000000:  VERT SEC N/S
 CMER.deg            51.000000:  CENTRL MERIDIAN
 AGAP.ft              0.000000:  AIR GAP
 RCST.$/da            0.000000:  RIG COST
 EKB .ft            429.000000:  KB ELEVATION
 EDF .ft            428.000031:  DF ELEVATION
 TDL .ft           3000.000000:  TOTAL DEPTH (LOGGER)
 CSGD.ft           4170.000000:  CASING BOTTOM (DRILLER)
 CSGL.ft           4170.000000:  CASING BOTTOM (LOGGER)
 CSGS.in              9.625000:  CASING SIZE
 CSGW.lbpf           47.000000:  CASING WEIGHT
 HPTY.                       0:  HOLE POS TYPE
 NREF.                       2:  NORTH REFERENCE
 MAGU.                 1453103:  MAGUTM CHECKSUM
 VSC .                       0:  VS TO CLOSURE
 WTYP.                       2:  WELL TYPE
~Parameter Information Block
#MNEM.UNIT       Value        Description
#---------     -----------    ---------------------------
 R1  .     ‘ÁHDrilled 6" horizontal hole F/4648' T/7655'.:  Run Comments 1 
 TDL .ft           3000.000000:  Tot Depth Loggd 
 RRUN.                       4:  Rig Run Number 
 STRD.ft           4648.000000:  Start Depth 
 EDEP.ft           7648.000000:  End Depth 
 STIM.      22.00.32 30-Mar-10:  Start Time 
 ETIM.      20.37.20 04-Apr-10:  End Time 
 TLAB.      00.00.00 31-Mar-10:  Log Start Time 
 TLAT.      14.00.32 03-Apr-10:  Log End Time 
 ENG2.             Ahmed Samir:  Engineer 2 
 ENG3.       Sherif Abdel Aziz:  Engineer 3 
 WITN.        Hamed Abu Shanab:  Customer Rep 
 ORT .hr            129.396225:  Time Operating 
 DFT .                   Other:  Mud Type 
 DFV .spqt           40.000000:  Mud Viscosity 
 PH  .pH             10.000000:  Mud pH 
 DFL .mptm            7.000000:  Fluid Loss 
 RMS .ohmm            0.180000:  Mud Resistivity 
 MST .degF           74.000000:  Mud Sample Temperature 
 RMFS.ohmm            0.120000:  Mud Filtrate Resistivity 
 RMFT.degF           77.000000:  Mud Filtrate Sample Temperature 
 RMCS.ohmm            0.240000:  Mud Cake Resistivity 
 MCST.degF           70.000000:  Mud Cake Sample Temperature 
 RMB .ohmm            0.000000:  Rm @ Max Temp 
 ROP .fph            40.000000:  ROP Avg 
 ROP .fph            20.000000:  ROP Min 
 ROP .fph            60.000004:  ROP Max 
 BS  .in              0.000000:  Bit Size 
 TCS .hr             91.370071:  Time Ciculation Ended 
 RUN .                     400:  Run Number 
 DFD .ppg             8.690000:  Mud Density 
 MRT .                    HCIM:  Maximum Recorded Temperature 
~Parameter Information Block
#MNEM.UNIT       Value        Description
#---------     -----------    ---------------------------
 DFB .ft             50.060001:  Dist From Bit 
 SNIN.                  157772:  SN Insert 
 SP1 .sec            14.000000:  Sample Period 1 
 NOB .                8.000000:  Number Of Bins 
 DFB .ft             83.949997:  Dist From Bit 
 DFB .ft             98.709999:  Dist From Bit 
 SP1 .sec            14.000000:  Sample Period 1 
 SNIN.                  109091:  SN Insert 
 DDSV.sec            25.400002:  DDS AgvZ Total 
 DDSV.sec          4074.400391:  DDS AgvY Total 
 DDSV.sec          3504.600098:  DDS AgvX Total 
 DDSV.               90.000000:  DDS PkZ 10-15g 
 DDSV.              252.000000:  DDS PkY 25-40g 
 DDSV.              267.000000:  DDS PkX 25-40g 
 DDSV.sec            24.800001:  DDS AvgZ 1-2g 
 DDSV.sec          3932.800293:  DDS AvgY 1-2g 
 DDSV.sec             7.000000:  DDS AvgX 4-6g 
 DFB .ft             74.589996:  Dist From Bit 
 SNIN.                10990582:  SN Insert 
 SP1 .sec            12.000000:  Sample Period 1 
 DDSV.g              44.400002:  DDS AvgX Max 
 DDSV.sec             3.400000:  DDS AvgX 15+g 
 DDSV.sec             0.800000:  DDS AvgY 10-15g 
 DDSV.sec             0.000000:  DDS AvgZ 6-10g 
 DDSV.                6.000000:  DDS PkX 90-130g 
 DDSV.                3.000000:  DDS PkY 90-130g 
 DDSV.              213.000000:  DDS PkZ 30-50g 
 DDSV.sec             4.400000:  DDS AvgX 6-10g 
 DDSV.sec             6.800000:  DDS AvgY 4-6g 
 DDSV.sec             0.000000:  DDS AvgZ 4-6g 
 DDSV.               24.000000:  DDS PkX 60-90g 
 DDSV.                0.000000:  DDS PkZ 50+g 
 SP1 .sec            12.000000:  Sample Period 1 
 SNIN.                  105840:  SN Insert 
 DFB .ft             71.680000:  Dist From Bit 
 SNIN.                  TL-028:  SN Insert 
 SNC .                  TL-028:  SN Collar 
 TID .               28.000000:  Tool Identifier 
 DFB .ft             10.000000:  Dist From Bit 
 SNIN.                  270968:  SN Insert 
 SNIN.                  300324:  SN Insert 
 DFB .ft             36.639999:  Dist From Bit 
 SNIN.             11145527463:  SN Insert 
 DFB .ft              0.000000:  Dist From Bit 
 OTY .              Jet Oil II:  Oil Type 
 SNC .                 1127515:  SN Collar 
 SNIN.                  266071:  SN Insert 
 SP1 .sec             2.000000:  Sample Period 1 
 DFB .ft            110.440002:  Dist From Bit 
 DFB .ft             64.690002:  Dist From Bit 
 SNTX.                  270121:  SN Trans Insert 
 SP1 .sec            12.000000:  Sample Period 1 
~Curve Information Block
#MNEM.UNIT                 API CODE     Curve Description
#---------               -----------    ---------------------------
 DEPT.F                 00 000 000 000:  Depth
 SROP.fph               00 000 000 000:  Avg Rate of Penetration
 TVD .ft                00 000 000 000:  ROP True Vertical Depth
 SGRC.api               00 000 000 000:  DGR Combined Gamma Ray
 CALI.in                00 000 000 000:  ALD Hole Size Indicator
 DPHF.ohmm              00 000 000 000:  DP HF Res
 MDHF.ohmm              00 000 000 000:  MD HF Res
 SHHF.ohmm              00 000 000 000:  SH HF Res
 AMR .ohmm              00 000 000 000:  AFR Mud Resistivity
 SEDP.ohmm              00 000 000 000:  EWR Deep Phase Res
 SEMP.ohmm              00 000 000 000:  EWR Medium EWR Phase Res
 SESP.ohmm              00 000 000 000:  EWR Shallow EWR Phase Res
 SEXP.ohmm              00 000 000 000:  EWR Ext Shallow Phase Res
 SPLF.pu                00 000 000 000:  CTN Porosity Limestone
 SBD2.g/cc              00 000 000 000:  ALD LCRB Comp Density
 SNP2.b/e               00 000 000 000:  ALD LCRB Pe Factor
 SCO2.g/cc              00 000 000 000:  ALD LCRB Den Correction
~A   DEPT      SROP       TVD      SGRC      CALI       DPHF       MDHF      SHHF       AMR      SEDP      SEMP      SESP      SEXP      SPLF      SBD2      SNP2      SCO2    
# ...
   6965.0000   71.9097 4162.6226  109.7258    6.0425     1.3821     1.0561    0.8535    0.0769    4.2584    3.5533    1.9431    1.3403   30.3980    2.4325    2.8220    0.0641 
   6965.5000   66.5850 4162.6304  111.4134    6.0670     1.5575     1.0823    0.8520    0.0768    4.0419    3.5028    1.7144    1.2553   31.1546    2.4153    2.8758    0.0661 
   6966.0000   61.9113 4162.6382  106.4618    6.0941     1.6429     1.1214    0.8590    0.0766    3.7835    3.0359    1.6061    1.2610   31.0836    2.4147    2.8887    0.0666 
   6966.5000   59.4777 4162.6465  103.8716    6.1114     1.4822     1.1066    0.8378    0.0762    3.1401    2.7577    1.5959    1.3119   30.3960    2.4274    2.8773    0.0619 
   6967.0000   61.1492 4162.6543  103.0425    6.1039     1.3744     1.0533    0.8102    0.0762    2.9274    2.5482    1.6517    1.3675   29.7468    2.4370    2.8672    0.0554 
   6967.5000   65.3892 4162.6621  103.3661    6.0909     1.3415     1.0045    0.8058    0.0762    3.0468    2.3522    1.7553    1.3993   29.2333    2.4445    2.9041    0.0597 
   6968.0000   68.6885 4162.6704  104.2938    6.1322     1.4084     0.9963    0.8268    0.0762    2.9527    2.3748    1.8094    1.4191   28.7358    2.4669    2.9355    0.0692 
   6968.5000   70.1424 4162.6782  105.1409    6.1832     1.2695     0.9965    0.8329    0.0764    2.8764    2.5571    1.8409    1.4703   28.5433    2.4843    2.9626    0.0769 
   6969.0000   72.8379 4162.6860  107.9080    6.2143     1.2509     0.9978    0.8296    0.0766    3.2294    2.5614    1.9558    1.5228   28.7917    2.4853    2.9550    0.0791 
   6969.5000   76.8413 4162.6943  113.3655    6.2355     1.4046     1.0601    0.8584    0.0767    3.7582    2.5467    2.0887    1.5971   28.9878    2.4809    2.9559    0.0728 
   6970.0000   79.9645 4162.7021  122.7120    6.2158     1.4368     1.1419    0.8982    0.0767    4.2708    2.8259    2.2282    1.6671   28.7335    2.4708    2.9833    0.0638 
   6970.5000   78.9592 4162.7100  121.4781    6.2063     1.5416     1.1717    0.9238    0.0767    4.8383    3.1788    2.3454    1.6526   28.4205    2.4705    3.0396    0.0582 
   6971.0000   76.5471 4162.7173  118.9978    6.2270     1.5155     1.1333    0.9125    0.0766    5.0084    3.4887    2.3158    1.6056   28.1177    2.4828    3.0640    0.0573 
   6971.5000   77.1359 4162.7251  113.9244    6.2324     1.4032     1.0204    0.8487    0.0765    5.0347    3.7671    2.2529    1.6208   27.6982    2.4879    3.0437    0.0655 
   6972.0000   79.4745 4162.7324  108.6327    6.2426     1.2385     0.9704    0.8041    0.0764    5.3778    3.7740    2.2995    1.6175   27.4586    2.4905    3.0556    0.0868 
   6972.5000   80.3657 4162.7402  107.3706    6.3079     1.2539     1.0259    0.8348    0.0764    5.6274    3.7465    2.3103    1.6733   27.9332    2.5026    3.0648    0.1242 
   6973.0000   80.7194 4162.7476  109.2896    6.4460     1.4873     1.1371    0.9122    0.0764    5.6539    3.9054    2.4457    1.6999   28.2333    2.5257    3.0299    0.1505 
   6973.5000   81.2832 4162.7549  111.9070    6.5121     1.5634     1.2307    0.9860    0.0764    5.7101    4.1620    2.5132    1.7314   28.8209    2.5206    3.0027    0.1256 
   6974.0000   81.5515 4162.7627  114.0050    6.4354     1.6493     1.2692    1.0338    0.0764    5.5117    4.5114    2.5433    1.7645   29.7930    2.5099    3.0007    0.1036 
   6974.5000   81.9120 4162.7700  115.1735    6.3861     1.7628     1.2615    1.0493    0.0764    5.4202    4.6552    2.5771    1.7974   29.9138    2.5245    2.9991    0.0885 
   6975.0000   82.3137 4162.7778  115.4569    6.3620     1.7162     1.2546    1.0568    0.0764    5.4343    4.5584    2.6218    1.8213   29.3208    2.5416    3.0060    0.0802 
   6975.5000   82.4523 4162.7847  115.5361    6.3576     1.6136     1.2436    1.0408    0.0764    5.3857    4.5212    2.6486    1.8870   28.6442    2.5521    3.0195    0.0806 
   6976.0000   82.5368 4162.7920  114.3739    6.3673     1.6933     1.2141    0.9999    0.0764    5.2516    4.5673    2.7316    2.0004   27.9949    2.5553    3.0161    0.0924 
   6976.5000   82.1701 4162.7993  114.0696    6.4127     1.5676     1.1378    0.9302    0.0763    5.0338    4.5895    2.8948    2.1270   27.4317    2.5587    2.9958    0.1042 
   6977.0000   81.3314 4162.8062  113.3363    6.4613     1.4301     1.0162    0.8303    0.0763    4.4011    4.6732    3.0143    2.0307   27.4365    2.5563    2.9312    0.1058 
   6977.5000   80.7687 4162.8135  113.5971    6.4746     1.2342     0.9451    0.7628    0.0763    3.8946    4.8302    2.7899    1.8828   27.7666    2.5403    2.8326    0.1149 
   6978.0000   80.6302 4162.8203  110.2299    6.5189     1.1572     0.9723    0.7610    0.0763    3.4326    4.7169    2.4957    1.7235   27.7507    2.5216    2.7816    0.0975 
   6978.5000   80.7206 4162.8276  108.7745    6.4492     1.2799     1.0393    0.7903    0.0763    3.1216    4.1415    2.2626    1.5188   28.0361    2.4862    2.7740    0.0765 
   6979.0000   80.2564 4162.8345  109.4461    6.3439     1.2642     1.0703    0.8053    0.0763    2.7340    3.5487    1.9687    1.3568   29.2371    2.4539    2.7592    0.0700 
   6979.5000   78.6584 4162.8418  104.6340    6.2943     1.3290     1.0486    0.7970    0.0763    2.4568    3.1125    1.7015    1.2738   30.6262    2.4554    2.8020    0.0758 
   6980.0000   76.8476 4162.8491   98.8644    6.2885     1.2925     1.0245    0.8056    0.0762    2.4254    2.6271    1.5288    1.2448   30.3545    2.4696    2.8761    0.0874 
   6980.5000   75.6579 4162.8555   95.6114    6.3105     1.3914     1.0556    0.8540    0.0762    2.6104    2.1982    1.4776    1.2406   30.0459    2.4826    2.8942    0.0925 
   6981.0000   75.7301 4162.8623   90.4108    6.3144     1.4948     1.0900    0.9007    0.0762    2.8061    1.9470    1.4659    1.2307   29.9929    2.4853    2.8873    0.0945 
   6981.5000   75.4547 4162.8691   86.3951    6.3032     1.3989     1.0796    0.9094    0.0762    2.7929    1.8802    1.4595    1.2258   29.8788    2.4817    2.9058    0.0991 
   6982.0000   72.9167 4162.8755   85.9005    6.3006     1.5198     1.0880    0.9206    0.0762    2.5320    1.9059    1.4422    1.2411   29.5097    2.4842    2.9273    0.1037 
   6982.5000   71.6157 4162.8823   86.9313    6.3091     1.5020     1.1256    0.9432    0.0763    2.2712    1.9367    1.4408    1.3289   29.2311    2.4976    2.9671    0.1045 
   6983.0000   72.1400 4162.8892   87.7256    6.3251     1.3539     1.1247    0.9379    0.0763    2.2301    1.8850    1.5543    1.4843   28.8109    2.5139    3.0088    0.0948 
   6983.5000   70.2041 4162.8960   90.4958    6.3139     1.3224     1.1073    0.9152    0.0763    2.4145    1.8348    1.7727    1.6622   28.1997    2.5255    3.0107    0.0849 
   6984.0000   68.8329 4162.9023   93.4114    6.3264     1.4570     1.1066    0.9032    0.0764    2.8490    2.0028    2.0372    1.8529   27.6262    2.5433    3.0411    0.0850 
   6984.5000   70.8520 4162.9092   93.9236    6.3580     1.3565     1.0845    0.8780    0.0764    3.5812    2.3354    2.3768    2.0181   26.3716    2.5633    3.0179    0.0849 
   6985.0000   71.8115 4162.9160   91.5157    6.3901     1.3234     1.0226    0.8255    0.0765    4.2214    2.8052    2.6649    2.0755   25.6169    2.5747    2.9284    0.0820 
   6985.5000   71.7588 4162.9219   89.9532    6.3764     1.2666     0.9491    0.7663    0.0765    4.5531    3.4995    2.7355    2.0326   25.4783    2.5648    2.9630    0.0826 
   6986.0000   72.8397 4162.9282   87.0726    6.3732     1.3217     0.9122    0.7391    0.0765    4.5390    4.0507    2.6308    1.8479   25.7229    2.5573    3.0032    0.0914 
   6986.5000   73.7092 4162.9346   84.2956    6.4051     1.0794     0.8980    0.7216    0.0765    4.0237    4.1994    2.3595    1.6258   26.2550    2.5533    2.9641    0.0866 
   6987.0000   74.6955 4162.9409   81.6244    6.3949     1.0525     0.8921    0.7180    0.0763    3.4044    4.0612    2.0464    1.4417   26.7702    2.5329    2.8937    0.0773 
   6987.5000   75.1698 4162.9473   79.6658    6.3723     1.2097     0.9243    0.7472    0.0761    2.8100    3.6791    1.7979    1.3132   27.1192    2.5119    2.8430    0.0731 
