~Version Information
 VERS.                  2.0:   CWLS log ASCII Standard -VERSION 2.0
 WRAP.                   NO:   One line per depth step
~Well Information Block
#MNEM.UNIT     VALUE/NAME     DESCRIPTION
#---------     -----------    ---------------------------
 STRT.F              4550.0000: START DEPTH
 STOP.F              7650.0000: STOP DEPTH
 STEP.F                 0.5000: STEP DEPTH
 NULL.               -999.2500: NULL VALUE
 FTOP.          Formation Tops:  FORM TOPS DESC
 ILTD.               Lithology:  INTERP LTH DESC
 SVYD.               Survey_DS:  SURVEY DESC
 DMOD.             Drill Model:  DRILL MOD DESC
 DATE.      00.00.00 03-Apr-10:  END TIME
 STIM.      00.00.00 28-Mar-10:  START TIME
 DMF .           Kelly Bushing:  DRILL MEAS FROM
 PDAT.          Mean Sea Level:  PERMANENT DATUM
 DFST.                        :  DIST FSL TEXT
 DFWT.                        :  DIST FWL TEXT
 MMDL.            bggm2009.dat:  MAGNETIC MODEL
 MDS .              Win MagUTM:  MAG DATA SOURCE
 XYGR.     UTM Zones, Northern Hemisphere, Meters:  XYGROUP
 CGSY.               SS CLRK51:  CART GRID SYS
 CREF.     Ellipsoid Clarke - 1880:  CART REFERENCE
 CPJM.                        :  CART PROJ METHD
 CCDE.     UTM Clarke 1880 (CM 51), Meters:  CART COORD DESC
 LLGR.      Latitude/Longitude:  LLGROUP
 GGSY.                      LL:  GEO GRID SYS
 GREF.     Ellipsoid World Geodetic System :  GEO REFERENCE
 GPMT.                        :  GEO PROJ METHOD
 GCDE.     Generic Lat/Long's, Degrees, -180 ==> +180:  GEO COORD DESC
 SPUD.               20-Mar-10:  SPUD DATE
 MWDS.                   Dubai:  MWD SHOP
 JOBN.        AD-FE-0007255267:  JOB TICKET NUMB
 BASE.               Abu Dhabi:  LOGGING EQUIPMENT BASE LOCATION
 REGN.               Abu Dhabi:  REGION
 CULG.                        :  CUSTOMER LOGO
 COLG.           186HAL_lg.bmp:  COMPANY LOGO
 UNIT.                  166264:  LOGGING EQUIPMENT ID
 DOE .        AD-FE-0007255267:  DOE NUMBER
 UWI .        AD-FE-0007255267:  UNIQUE WELL IDENTIFIER
 API .        AD-FE-0007255267:  API NUMBER
 SON .        AD-FE-0007255267:  JOB NUMBER
 RANG.                        :  RANGE
 TOWN.                        :  TOWNSHIP
 SECT.                        :  SECTION
 DCON.             Al-Mansoory:  DIRECTNL CONTR
 LEAS.                        :  LEASE NAME
 SRVC.                     NDC:  CONTRACTOR
 CTRY.     United Arab Emirates:  COUNTRY NAME
 PROV.               Abu Dhabi:  PROVINCE
 STAT.               Abu Dhabi:  STATE NAME
 CNTY.               Abu Dhabi:  COUNTY NAME
 FLD .                    Shah:  FIELD NAME
 RIG .                   ND-50:  RIG NAME
 COMP.                    ADCO:  COMPANY
 WELL.            SY-027-1-04H:  WELL NAME
 LOC .                        :  LOCATION
 LMF .           Kelly Bushing:  LOG MEASURED FROM
 AZTC.deg             0.383835:  AZM TOTAL CORR
 GRDC.deg             1.093917:  GRID CORRECTION
 MDEC.deg             1.477752:  MAGNETIC DECL
 GVFD.g               1.000000:  GRAVITY FIELD
 MDIP.deg            34.939442:  MAGNETIC DIP
 MFLD.nT          42523.898438:  MAGNETIC FIELD
 VSDR.deg            55.740002:  VERT SEC DIRECT
 TDD .ft           7648.000000:  TOTAL DEPTH (DRILLER)
 STRD.ft           4648.000000:  START DEPTH
 APD .ft            429.000000:  DEPTH ABOVE PD
 EPD .ft              0.000000:  ELEVATION
 DFSL.ft              0.000000:  DISTANCE FSL
 DFWL.ft              0.000000:  DISTANCE FWL
 UTMY.m         2535096.000000:  UTM Y
 UTMX.m          788186.312500:  UTM X
 WHEW.ft              0.000000:  WELL HEAD E/W
 WHNS.ft              0.000000:  WELL HEAD N/S
 WDMS.ft              0.000000:  WD ELEV
 EGL .ft            407.799988:  GROUND ELEVATION
 TVDS.ft            429.000000:  TVDSS CORRECTN
 LONG.deg            53.809174:  LONGITUDE
 LATI.deg            22.900974:  LATITUDE
 VSEW.ft              0.000000:  VERT SEC E/W
 VSNS.ft              0.000000:  VERT SEC N/S
 CMER.deg            51.000000:  CENTRL MERIDIAN
 AGAP.ft              0.000000:  AIR GAP
 RCST.$/da            0.000000:  RIG COST
 EKB .ft            429.000000:  KB ELEVATION
 EDF .ft            428.000031:  DF ELEVATION
 TDL .ft           3000.000000:  TOTAL DEPTH (LOGGER)
 CSGD.ft           4170.000000:  CASING BOTTOM (DRILLER)
 CSGL.ft           4170.000000:  CASING BOTTOM (LOGGER)
 CSGS.in              9.625000:  CASING SIZE
 CSGW.lbpf           47.000000:  CASING WEIGHT
 HPTY.                       0:  HOLE POS TYPE
 NREF.                       2:  NORTH REFERENCE
 MAGU.                 1453103:  MAGUTM CHECKSUM
 VSC .                       0:  VS TO CLOSURE
 WTYP.                       2:  WELL TYPE
~Parameter Information Block
#MNEM.UNIT       Value        Description
#---------     -----------    ---------------------------
 R1  .     ‘ÁHDrilled 6" horizontal hole F/4648' T/7655'.:  Run Comments 1 
 TDL .ft           3000.000000:  Tot Depth Loggd 
 RRUN.                       4:  Rig Run Number 
 STRD.ft           4648.000000:  Start Depth 
 EDEP.ft           7648.000000:  End Depth 
 STIM.      22.00.32 30-Mar-10:  Start Time 
 ETIM.      20.37.20 04-Apr-10:  End Time 
 TLAB.      00.00.00 31-Mar-10:  Log Start Time 
 TLAT.      14.00.32 03-Apr-10:  Log End Time 
 ENG2.             Ahmed Samir:  Engineer 2 
 ENG3.       Sherif Abdel Aziz:  Engineer 3 
 WITN.        Hamed Abu Shanab:  Customer Rep 
 ORT .hr            129.396225:  Time Operating 
 DFT .                   Other:  Mud Type 
 DFV .spqt           40.000000:  Mud Viscosity 
 PH  .pH             10.000000:  Mud pH 
 DFL .mptm            7.000000:  Fluid Loss 
 RMS .ohmm            0.180000:  Mud Resistivity 
 MST .degF           74.000000:  Mud Sample Temperature 
 RMFS.ohmm            0.120000:  Mud Filtrate Resistivity 
 RMFT.degF           77.000000:  Mud Filtrate Sample Temperature 
 RMCS.ohmm            0.240000:  Mud Cake Resistivity 
 MCST.degF           70.000000:  Mud Cake Sample Temperature 
 RMB .ohmm            0.000000:  Rm @ Max Temp 
 ROP .fph            40.000000:  ROP Avg 
 ROP .fph            20.000000:  ROP Min 
 ROP .fph            60.000004:  ROP Max 
 BS  .in              0.000000:  Bit Size 
 TCS .hr             91.370071:  Time Ciculation Ended 
 RUN .                     400:  Run Number 
 DFD .ppg             8.690000:  Mud Density 
 MRT .                    HCIM:  Maximum Recorded Temperature 
~Parameter Information Block
#MNEM.UNIT       Value        Description
#---------     -----------    ---------------------------
 DFB .ft             50.060001:  Dist From Bit 
 SNIN.                  157772:  SN Insert 
 SP1 .sec            14.000000:  Sample Period 1 
 NOB .                8.000000:  Number Of Bins 
 DFB .ft             83.949997:  Dist From Bit 
 DFB .ft             98.709999:  Dist From Bit 
 SP1 .sec            14.000000:  Sample Period 1 
 SNIN.                  109091:  SN Insert 
 DDSV.sec            25.400002:  DDS AgvZ Total 
 DDSV.sec          4074.400391:  DDS AgvY Total 
 DDSV.sec          3504.600098:  DDS AgvX Total 
 DDSV.               90.000000:  DDS PkZ 10-15g 
 DDSV.              252.000000:  DDS PkY 25-40g 
 DDSV.              267.000000:  DDS PkX 25-40g 
 DDSV.sec            24.800001:  DDS AvgZ 1-2g 
 DDSV.sec          3932.800293:  DDS AvgY 1-2g 
 DDSV.sec             7.000000:  DDS AvgX 4-6g 
 DFB .ft             74.589996:  Dist From Bit 
 SNIN.                10990582:  SN Insert 
 SP1 .sec            12.000000:  Sample Period 1 
 DDSV.g              44.400002:  DDS AvgX Max 
 DDSV.sec             3.400000:  DDS AvgX 15+g 
 DDSV.sec             0.800000:  DDS AvgY 10-15g 
 DDSV.sec             0.000000:  DDS AvgZ 6-10g 
 DDSV.                6.000000:  DDS PkX 90-130g 
 DDSV.                3.000000:  DDS PkY 90-130g 
 DDSV.              213.000000:  DDS PkZ 30-50g 
 DDSV.sec             4.400000:  DDS AvgX 6-10g 
 DDSV.sec             6.800000:  DDS AvgY 4-6g 
 DDSV.sec             0.000000:  DDS AvgZ 4-6g 
 DDSV.               24.000000:  DDS PkX 60-90g 
 DDSV.                0.000000:  DDS PkZ 50+g 
 SP1 .sec            12.000000:  Sample Period 1 
 SNIN.                  105840:  SN Insert 
 DFB .ft             71.680000:  Dist From Bit 
 SNIN.                  TL-028:  SN Insert 
 SNC .                  TL-028:  SN Collar 
 TID .               28.000000:  Tool Identifier 
 DFB .ft             10.000000:  Dist From Bit 
 SNIN.                  270968:  SN Insert 
 SNIN.                  300324:  SN Insert 
 DFB .ft             36.639999:  Dist From Bit 
 SNIN.             11145527463:  SN Insert 
 DFB .ft              0.000000:  Dist From Bit 
 OTY .              Jet Oil II:  Oil Type 
 SNC .                 1127515:  SN Collar 
 SNIN.                  266071:  SN Insert 
 SP1 .sec             2.000000:  Sample Period 1 
 DFB .ft            110.440002:  Dist From Bit 
 DFB .ft             64.690002:  Dist From Bit 
 SNTX.                  270121:  SN Trans Insert 
 SP1 .sec            12.000000:  Sample Period 1 
~Curve Information Block
#MNEM.UNIT                 API CODE     Curve Description
#---------               -----------    ---------------------------
 DEPT.F                 00 000 000 000:  Depth
 SROP.fph               00 000 000 000:  Avg Rate of Penetration
 TVD .ft                00 000 000 000:  ROP True Vertical Depth
 SGRC.api               00 000 000 000:  DGR Combined Gamma Ray
 CALI.in                00 000 000 000:  ALD Hole Size Indicator
 DPHF.ohmm              00 000 000 000:  DP HF Res
 MDHF.ohmm              00 000 000 000:  MD HF Res
 SHHF.ohmm              00 000 000 000:  SH HF Res
 AMR .ohmm              00 000 000 000:  AFR Mud Resistivity
 SEDP.ohmm              00 000 000 000:  EWR Deep Phase Res
 SEMP.ohmm              00 000 000 000:  EWR Medium EWR Phase Res
 SESP.ohmm              00 000 000 000:  EWR Shallow EWR Phase Res
 SEXP.ohmm              00 000 000 000:  EWR Ext Shallow Phase Res
 SPLF.pu                00 000 000 000:  CTN Porosity Limestone
 SBD2.g/cc              00 000 000 000:  ALD LCRB Comp Density
 SNP2.b/e               00 000 000 000:  ALD LCRB Pe Factor
 SCO2.g/cc              00 000 000 000:  ALD LCRB Den Correction
~A   DEPT      SROP       TVD      SGRC      CALI       DPHF       MDHF      SHHF       AMR      SEDP      SEMP      SESP      SEXP      SPLF      SBD2      SNP2      SCO2    
# ...
   4573.0000 -999.2500 4077.3162 -999.2500    5.7500 20000.0000  -999.2500 -999.2500 -999.2500 -999.2500 -999.2500 -999.2500 -999.2500   14.4894    2.1923   12.0217   -0.7466 
   4573.5000 -999.2500 4077.3806 -999.2500    5.7500 20000.0000  -999.2500 -999.2500 -999.2500 -999.2500 -999.2500 -999.2500 -999.2500   14.8430    2.1877   12.1816   -0.7569 
   4574.0000 -999.2500 4077.4451 -999.2500    5.7500 20000.0000  -999.2500 -999.2500 -999.2500 -999.2500 -999.2500 -999.2500 -999.2500   15.3200    2.1771   12.1128   -0.7507 
   4574.5000 -999.2500 4077.5095 -999.2500    5.7500 20000.0000  -999.2500 -999.2500 -999.2500 -999.2500 -999.2500 -999.2500 -999.2500   16.2118    2.1752   11.8856   -0.7349 
   4575.0000 -999.2500 4077.5737 -999.2500    5.7500 20000.0000  -999.2500 -999.2500 -999.2500 -999.2500 -999.2500 -999.2500 -999.2500   16.9460    2.1727   11.7240   -0.7089 
   4575.5000 -999.2500 4077.6350 -999.2500    5.7500 20000.0000  -999.2500 -999.2500 -999.2500 -999.2500 -999.2500 -999.2500 -999.2500   17.9298    2.1792   11.5431   -0.6792 
   4576.0000 -999.2500 4077.6963 -999.2500    5.7500 20000.0000  -999.2500 -999.2500 -999.2500 -999.2500 -999.2500 -999.2500 -999.2500   18.7005    2.1733   11.6393   -0.6560 
   4576.5000 -999.2500 4077.7576 -999.2500    5.7500 20000.0000  -999.2500 -999.2500 -999.2500 -999.2500 -999.2500 -999.2500 -999.2500   19.0186    2.1711   11.7018   -0.6260 
   4577.0000 -999.2500 4077.8188 -999.2500    5.7500 20000.0000  -999.2500 -999.2500 -999.2500 -999.2500 -999.2500 -999.2500 -999.2500   19.1958    2.1971   11.7219   -0.6169 
   4577.5000 -999.2500 4077.8801 -999.2500    5.7500 20000.0000  -999.2500 -999.2500 -999.2500 -999.2500 -999.2500 -999.2500 -999.2500   18.9984    2.2053   11.6991   -0.6237 
   4578.0000 -999.2500 4077.9395 -999.2500    5.7500 20000.0000  -999.2500 -999.2500 -999.2500 -999.2500 -999.2500 -999.2500 -999.2500   18.8468    2.1992   11.7043   -0.6327 
   4578.5000 -999.2500 4077.9988   69.0040    5.7500 20000.0000  -999.2500 -999.2500 -999.2500 -999.2500 -999.2500 -999.2500 -999.2500   18.8263    2.1856   11.7285   -0.6355 
   4579.0000 -999.2500 4078.0581   68.0203    5.7500 20000.0000  -999.2500 -999.2500 -999.2500 -999.2500 -999.2500 -999.2500 -999.2500   18.9562    2.1815   11.6830   -0.6411 
   4579.5000 -999.2500 4078.1177   66.2531    5.7500 20000.0000  -999.2500 -999.2500 -999.2500 -999.2500 -999.2500 -999.2500 -999.2500   19.0083    2.1767   11.7135   -0.6469 
   4580.0000 -999.2500 4078.1770   64.7653    5.7500 20000.0000  -999.2500 -999.2500 -999.2500 -999.2500 -999.2500 -999.2500 -999.2500   19.3088    2.1701   11.7975   -0.6584 
   4580.5000 -999.2500 4078.2341   63.7038    5.7500 20000.0000  -999.2500 -999.2500 -999.2500 -999.2500 -999.2500 -999.2500 -999.2500   19.7583    2.1592   11.8870   -0.6731 
   4581.0000 -999.2500 4078.2910   62.3835    5.7500 20000.0000  -999.2500 -999.2500 -999.2500 -999.2500 -999.2500 -999.2500 -999.2500   19.8358    2.1464   11.8781   -0.6918 
   4581.5000 -999.2500 4078.3481   62.2334    5.7500 20000.0000  -999.2500 -999.2500 -999.2500 -999.2500 -999.2500 -999.2500 -999.2500   19.9114    2.1313   11.8686   -0.7078 
   4582.0000 -999.2500 4078.4053   62.1334    5.7500 20000.0000  -999.2500 -999.2500 -999.2500 -999.2500 -999.2500 -999.2500 -999.2500   20.1579    2.1112   11.8546   -0.7143 
   4582.5000 -999.2500 4078.4624   61.9743    5.7500 20000.0000  -999.2500 -999.2500 -999.2500 -999.2500 -999.2500 -999.2500 -999.2500   20.7494    2.0914   11.7926   -0.7343 
   4583.0000 -999.2500 4078.5195   61.8971    5.7500 20000.0000  -999.2500 -999.2500 -999.2500 -999.2500 -999.2500 -999.2500 -999.2500   21.5096    2.0583   11.7133   -0.7563 
   4583.5000 -999.2500 4078.5767   62.0853    5.7500 20000.0000  -999.2500 -999.2500 -999.2500 -999.2500 -999.2500 -999.2500 -999.2500   22.7666    2.0388   11.6881   -0.8302 
   4584.0000 -999.2500 4078.6335   61.8368    5.7500 20000.0000  -999.2500 -999.2500 -999.2500 -999.2500 1333.7375 -999.2500 -999.2500   23.8908    1.9816   11.7539   -0.9768 
   4584.5000 -999.2500 4078.6907   61.6054    5.7500 20000.0000  -999.2500 -999.2500 -999.2500 -999.2500 1309.0548 -999.2500 -999.2500   24.4134    1.8694   11.7516   -0.9770 
   4585.0000 -999.2500 4078.7476   61.2216    5.7500 20000.0000  -999.2500 -999.2500 -999.2500 -999.2500 1369.4542 -999.2500    0.2110   25.3391    1.8856   11.6081   -0.8152 
   4585.5000 -999.2500 4078.8018   59.2629    5.7500 20000.0000  -999.2500 -999.2500 -999.2500 1426.8669 1311.0022    0.2448    0.2105   25.9362    2.0516   11.5330   -0.7523 
   4586.0000 -999.2500 4078.8560   59.3818    5.7500 20000.0000  -999.2500 -999.2500 -999.2500 1558.5066 1127.7142    0.2452    0.2114   25.8434    2.0907   11.4435   -0.7098 
   4586.5000 -999.2500 4078.9099   60.5032    5.7500 20000.0000  -999.2500 -999.2500 -999.2500 1588.0240 1077.2875    0.2434    0.2107   25.9068    2.0874   11.4311   -0.6435 
   4587.0000 -999.2500 4078.9639   58.6203    5.7500 20000.0000  -999.2500 -999.2500 -999.2500 1560.5957  586.1879    0.2421    0.2108   26.6060    2.1299   11.4275   -0.6368 
   4587.5000 -999.2500 4079.0178   56.9244    5.7500 20000.0000  -999.2500 -999.2500 -999.2500 1587.3417  459.7937    0.2410    0.2129   27.0831    2.1187   11.4445   -0.6451 
   4588.0000 -999.2500 4079.0720   58.6849    5.7500 20000.0000  -999.2500 -999.2500 -999.2500 1385.5056  410.7177    0.2405    0.2061   27.3061    2.1043   11.4077   -0.6547 
   4588.5000 -999.2500 4079.1260   59.7210    5.7500 20000.0000  -999.2500 -999.2500 -999.2500 1125.6510  370.0268    0.2352    0.2039   27.0886    2.0920   11.3226   -0.6736 
   4589.0000 -999.2500 4079.1799   58.4297    5.7500 20000.0000  -999.2500 -999.2500 -999.2500 1053.1781  359.8587    0.2337    0.2029   27.2809    2.0662   11.3924   -0.6852 
   4589.5000 -999.2500 4079.2339   57.7780    5.7500 20000.0000  -999.2500 -999.2500 -999.2500 1022.9578  412.8725    0.2332    0.2022   27.5086    2.0478   11.4449   -0.6919 
   4590.0000 -999.2500 4079.2878   56.5733    5.7500 20000.0000  -999.2500 -999.2500 -999.2500 1005.8841  504.3459    0.2329    0.2013   27.4182    2.0349   11.4521   -0.7104 
   4590.5000 -999.2500 4079.3389   55.7658    5.7500 20000.0000  -999.2500 -999.2500 -999.2500 1019.4644  749.1540    0.2323    0.2015   27.0351    2.0216   11.5423   -0.7266 
   4591.0000 -999.2500 4079.3899   55.6475    5.7500 20000.0000  -999.2500 -999.2500 -999.2500 1034.2179 1456.3909    0.2322    0.2014   26.6308    2.0206   11.6348   -0.7399 
   4591.5000 -999.2500 4079.4409   55.5198    5.7500 20000.0000  -999.2500 -999.2500 -999.2500 1061.5044 1606.5559    0.2320    0.2016   25.8552    2.0365   11.7471   -0.7482 
   4592.0000 -999.2500 4079.4917   53.3356    5.7500 20000.0000  -999.2500 -999.2500 -999.2500 1130.5950 1655.1069    0.2321    0.2025   25.5478    2.0565   11.9811   -0.7529 
   4592.5000 -999.2500 4079.5427   52.0489    5.7500 20000.0000  -999.2500 -999.2500 -999.2500 1226.7079 1671.3064    0.2317    0.2026   25.3962    2.0569   11.8713   -0.7644 
   4593.0000 -999.2500 4079.5935   51.6122    5.7500 20000.0000  -999.2500 -999.2500 -999.2500 1191.3607 1670.8734    0.2323    0.2028   25.4102    2.0295   11.7335   -0.7822 
   4593.5000 -999.2500 4079.6445   50.6682    5.7500 20000.0000  -999.2500 -999.2500 -999.2500 1314.6538 1632.8872    0.2334    0.2040   25.0151    1.9949   11.7493   -0.8048 
   4594.0000 -999.2500 4079.6956   50.8448    5.7500 20000.0000  -999.2500 -999.2500 -999.2500 1269.8932 1562.2499    0.2344    0.2045   25.3142    1.9649   11.6524   -0.7864 
   4594.5000 -999.2500 4079.7463   50.4216    5.7500 20000.0000  -999.2500 -999.2500 -999.2500 1027.5321 1475.5833    0.2352    0.2058   25.7168    1.9819   11.5037   -0.7488 
   4595.0000 -999.2500 4079.7971   50.1879    5.7500 20000.0000  -999.2500 -999.2500 -999.2500  979.9095 1587.3119    0.2334    0.2046   26.0702    2.0238   11.5620   -0.7488 
   4595.5000 -999.2500 4079.8452   50.5221    5.7500 20000.0000  -999.2500 -999.2500 -999.2500 1062.6556 1647.7804    0.2330    0.2036   26.3046    2.0285   11.6404   -0.8046 
