~Version Information
 VERS.                  2.0:   CWLS log ASCII Standard -VERSION 2.0
 WRAP.                   NO:   One line per depth step
~Well Information Block
#MNEM.UNIT     VALUE/NAME     DESCRIPTION
#---------     -----------    ---------------------------
 STRT.F              4550.0000: START DEPTH
 STOP.F              7650.0000: STOP DEPTH
 STEP.F                 0.5000: STEP DEPTH
 NULL.               -999.2500: NULL VALUE
 FTOP.          Formation Tops:  FORM TOPS DESC
 ILTD.               Lithology:  INTERP LTH DESC
 SVYD.               Survey_DS:  SURVEY DESC
 DMOD.             Drill Model:  DRILL MOD DESC
 DATE.      00.00.00 03-Apr-10:  END TIME
 STIM.      00.00.00 28-Mar-10:  START TIME
 DMF .           Kelly Bushing:  DRILL MEAS FROM
 PDAT.          Mean Sea Level:  PERMANENT DATUM
 DFST.                        :  DIST FSL TEXT
 DFWT.                        :  DIST FWL TEXT
 MMDL.            bggm2009.dat:  MAGNETIC MODEL
 MDS .              Win MagUTM:  MAG DATA SOURCE
 XYGR.     UTM Zones, Northern Hemisphere, Meters:  XYGROUP
 CGSY.               SS CLRK51:  CART GRID SYS
 CREF.     Ellipsoid Clarke - 1880:  CART REFERENCE
 CPJM.                        :  CART PROJ METHD
 CCDE.     UTM Clarke 1880 (CM 51), Meters:  CART COORD DESC
 LLGR.      Latitude/Longitude:  LLGROUP
 GGSY.                      LL:  GEO GRID SYS
 GREF.     Ellipsoid World Geodetic System :  GEO REFERENCE
 GPMT.                        :  GEO PROJ METHOD
 GCDE.     Generic Lat/Long's, Degrees, -180 ==> +180:  GEO COORD DESC
 SPUD.               20-Mar-10:  SPUD DATE
 MWDS.                   Dubai:  MWD SHOP
 JOBN.        AD-FE-0007255267:  JOB TICKET NUMB
 BASE.               Abu Dhabi:  LOGGING EQUIPMENT BASE LOCATION
 REGN.               Abu Dhabi:  REGION
 CULG.                        :  CUSTOMER LOGO
 COLG.           186HAL_lg.bmp:  COMPANY LOGO
 UNIT.                  166264:  LOGGING EQUIPMENT ID
 DOE .        AD-FE-0007255267:  DOE NUMBER
 UWI .        AD-FE-0007255267:  UNIQUE WELL IDENTIFIER
 API .        AD-FE-0007255267:  API NUMBER
 SON .        AD-FE-0007255267:  JOB NUMBER
 RANG.                        :  RANGE
 TOWN.                        :  TOWNSHIP
 SECT.                        :  SECTION
 DCON.             Al-Mansoory:  DIRECTNL CONTR
 LEAS.                        :  LEASE NAME
 SRVC.                     NDC:  CONTRACTOR
 CTRY.     United Arab Emirates:  COUNTRY NAME
 PROV.               Abu Dhabi:  PROVINCE
 STAT.               Abu Dhabi:  STATE NAME
 CNTY.               Abu Dhabi:  COUNTY NAME
 FLD .                    Shah:  FIELD NAME
 RIG .                   ND-50:  RIG NAME
 COMP.                    ADCO:  COMPANY
 WELL.            SY-027-1-04H:  WELL NAME
 LOC .                        :  LOCATION
 LMF .           Kelly Bushing:  LOG MEASURED FROM
 AZTC.deg             0.383835:  AZM TOTAL CORR
 GRDC.deg             1.093917:  GRID CORRECTION
 MDEC.deg             1.477752:  MAGNETIC DECL
 GVFD.g               1.000000:  GRAVITY FIELD
 MDIP.deg            34.939442:  MAGNETIC DIP
 MFLD.nT          42523.898438:  MAGNETIC FIELD
 VSDR.deg            55.740002:  VERT SEC DIRECT
 TDD .ft           7648.000000:  TOTAL DEPTH (DRILLER)
 STRD.ft           4648.000000:  START DEPTH
 APD .ft            429.000000:  DEPTH ABOVE PD
 EPD .ft              0.000000:  ELEVATION
 DFSL.ft              0.000000:  DISTANCE FSL
 DFWL.ft              0.000000:  DISTANCE FWL
 UTMY.m         2535096.000000:  UTM Y
 UTMX.m          788186.312500:  UTM X
 WHEW.ft              0.000000:  WELL HEAD E/W
 WHNS.ft              0.000000:  WELL HEAD N/S
 WDMS.ft              0.000000:  WD ELEV
 EGL .ft            407.799988:  GROUND ELEVATION
 TVDS.ft            429.000000:  TVDSS CORRECTN
 LONG.deg            53.809174:  LONGITUDE
 LATI.deg            22.900974:  LATITUDE
 VSEW.ft              0.000000:  VERT SEC E/W
 VSNS.ft              0.000000:  VERT SEC N/S
 CMER.deg            51.000000:  CENTRL MERIDIAN
 AGAP.ft              0.000000:  AIR GAP
 RCST.$/da            0.000000:  RIG COST
 EKB .ft            429.000000:  KB ELEVATION
 EDF .ft            428.000031:  DF ELEVATION
 TDL .ft           3000.000000:  TOTAL DEPTH (LOGGER)
 CSGD.ft           4170.000000:  CASING BOTTOM (DRILLER)
 CSGL.ft           4170.000000:  CASING BOTTOM (LOGGER)
 CSGS.in              9.625000:  CASING SIZE
 CSGW.lbpf           47.000000:  CASING WEIGHT
 HPTY.                       0:  HOLE POS TYPE
 NREF.                       2:  NORTH REFERENCE
 MAGU.                 1453103:  MAGUTM CHECKSUM
 VSC .                       0:  VS TO CLOSURE
 WTYP.                       2:  WELL TYPE
~Parameter Information Block
#MNEM.UNIT       Value        Description
#---------     -----------    ---------------------------
 R1  .     ‘ÁHDrilled 6" horizontal hole F/4648' T/7655'.:  Run Comments 1 
 TDL .ft           3000.000000:  Tot Depth Loggd 
 RRUN.                       4:  Rig Run Number 
 STRD.ft           4648.000000:  Start Depth 
 EDEP.ft           7648.000000:  End Depth 
 STIM.      22.00.32 30-Mar-10:  Start Time 
 ETIM.      20.37.20 04-Apr-10:  End Time 
 TLAB.      00.00.00 31-Mar-10:  Log Start Time 
 TLAT.      14.00.32 03-Apr-10:  Log End Time 
 ENG2.             Ahmed Samir:  Engineer 2 
 ENG3.       Sherif Abdel Aziz:  Engineer 3 
 WITN.        Hamed Abu Shanab:  Customer Rep 
 ORT .hr            129.396225:  Time Operating 
 DFT .                   Other:  Mud Type 
 DFV .spqt           40.000000:  Mud Viscosity 
 PH  .pH             10.000000:  Mud pH 
 DFL .mptm            7.000000:  Fluid Loss 
 RMS .ohmm            0.180000:  Mud Resistivity 
 MST .degF           74.000000:  Mud Sample Temperature 
 RMFS.ohmm            0.120000:  Mud Filtrate Resistivity 
 RMFT.degF           77.000000:  Mud Filtrate Sample Temperature 
 RMCS.ohmm            0.240000:  Mud Cake Resistivity 
 MCST.degF           70.000000:  Mud Cake Sample Temperature 
 RMB .ohmm            0.000000:  Rm @ Max Temp 
 ROP .fph            40.000000:  ROP Avg 
 ROP .fph            20.000000:  ROP Min 
 ROP .fph            60.000004:  ROP Max 
 BS  .in              0.000000:  Bit Size 
 TCS .hr             91.370071:  Time Ciculation Ended 
 RUN .                     400:  Run Number 
 DFD .ppg             8.690000:  Mud Density 
 MRT .                    HCIM:  Maximum Recorded Temperature 
~Parameter Information Block
#MNEM.UNIT       Value        Description
#---------     -----------    ---------------------------
 DFB .ft             50.060001:  Dist From Bit 
 SNIN.                  157772:  SN Insert 
 SP1 .sec            14.000000:  Sample Period 1 
 NOB .                8.000000:  Number Of Bins 
 DFB .ft             83.949997:  Dist From Bit 
 DFB .ft             98.709999:  Dist From Bit 
 SP1 .sec            14.000000:  Sample Period 1 
 SNIN.                  109091:  SN Insert 
 DDSV.sec            25.400002:  DDS AgvZ Total 
 DDSV.sec          4074.400391:  DDS AgvY Total 
 DDSV.sec          3504.600098:  DDS AgvX Total 
 DDSV.               90.000000:  DDS PkZ 10-15g 
 DDSV.              252.000000:  DDS PkY 25-40g 
 DDSV.              267.000000:  DDS PkX 25-40g 
 DDSV.sec            24.800001:  DDS AvgZ 1-2g 
 DDSV.sec          3932.800293:  DDS AvgY 1-2g 
 DDSV.sec             7.000000:  DDS AvgX 4-6g 
 DFB .ft             74.589996:  Dist From Bit 
 SNIN.                10990582:  SN Insert 
 SP1 .sec            12.000000:  Sample Period 1 
 DDSV.g              44.400002:  DDS AvgX Max 
 DDSV.sec             3.400000:  DDS AvgX 15+g 
 DDSV.sec             0.800000:  DDS AvgY 10-15g 
 DDSV.sec             0.000000:  DDS AvgZ 6-10g 
 DDSV.                6.000000:  DDS PkX 90-130g 
 DDSV.                3.000000:  DDS PkY 90-130g 
 DDSV.              213.000000:  DDS PkZ 30-50g 
 DDSV.sec             4.400000:  DDS AvgX 6-10g 
 DDSV.sec             6.800000:  DDS AvgY 4-6g 
 DDSV.sec             0.000000:  DDS AvgZ 4-6g 
 DDSV.               24.000000:  DDS PkX 60-90g 
 DDSV.                0.000000:  DDS PkZ 50+g 
 SP1 .sec            12.000000:  Sample Period 1 
 SNIN.                  105840:  SN Insert 
 DFB .ft             71.680000:  Dist From Bit 
 SNIN.                  TL-028:  SN Insert 
 SNC .                  TL-028:  SN Collar 
 TID .               28.000000:  Tool Identifier 
 DFB .ft             10.000000:  Dist From Bit 
 SNIN.                  270968:  SN Insert 
 SNIN.                  300324:  SN Insert 
 DFB .ft             36.639999:  Dist From Bit 
 SNIN.             11145527463:  SN Insert 
 DFB .ft              0.000000:  Dist From Bit 
 OTY .              Jet Oil II:  Oil Type 
 SNC .                 1127515:  SN Collar 
 SNIN.                  266071:  SN Insert 
 SP1 .sec             2.000000:  Sample Period 1 
 DFB .ft            110.440002:  Dist From Bit 
 DFB .ft             64.690002:  Dist From Bit 
 SNTX.                  270121:  SN Trans Insert 
 SP1 .sec            12.000000:  Sample Period 1 
~Curve Information Block
#MNEM.UNIT                 API CODE     Curve Description
#---------               -----------    ---------------------------
 DEPT.F                 00 000 000 000:  Depth
 SROP.fph               00 000 000 000:  Avg Rate of Penetration
 TVD .ft                00 000 000 000:  ROP True Vertical Depth
 SGRC.api               00 000 000 000:  DGR Combined Gamma Ray
 CALI.in                00 000 000 000:  ALD Hole Size Indicator
 DPHF.ohmm              00 000 000 000:  DP HF Res
 MDHF.ohmm              00 000 000 000:  MD HF Res
 SHHF.ohmm              00 000 000 000:  SH HF Res
 AMR .ohmm              00 000 000 000:  AFR Mud Resistivity
 SEDP.ohmm              00 000 000 000:  EWR Deep Phase Res
 SEMP.ohmm              00 000 000 000:  EWR Medium EWR Phase Res
 SESP.ohmm              00 000 000 000:  EWR Shallow EWR Phase Res
 SEXP.ohmm              00 000 000 000:  EWR Ext Shallow Phase Res
 SPLF.pu                00 000 000 000:  CTN Porosity Limestone
 SBD2.g/cc              00 000 000 000:  ALD LCRB Comp Density
 SNP2.b/e               00 000 000 000:  ALD LCRB Pe Factor
 SCO2.g/cc              00 000 000 000:  ALD LCRB Den Correction
~A   DEPT      SROP       TVD      SGRC      CALI       DPHF       MDHF      SHHF       AMR      SEDP      SEMP      SESP      SEXP      SPLF      SBD2      SNP2      SCO2    
# ...
   6758.0000   73.8142 4155.3042   59.2430    6.0932     1.3715     1.0950    0.9974    0.0780    2.5407    2.6595    1.4195    1.2329   30.6548    2.3859    2.9776    0.0631 
   6758.5000   61.9052 4155.3276   56.7933    6.0642     1.3711     1.0975    0.9943    0.0780    2.8593    2.6451    1.4975    1.2419   30.6540    2.3872    2.8564    0.0657 
   6759.0000   63.8365 4155.3511   54.7670    6.0722     1.3647     1.0822    0.9855    0.0780    3.1745    2.6417    1.5508    1.2349   31.0400    2.3930    2.7957    0.0680 
   6759.5000   78.4630 4155.3745   52.5064    6.0915     1.3357     1.0712    0.9624    0.0780    3.3322    2.6112    1.5490    1.2021   31.4088    2.3954    2.7220    0.0689 
   6760.0000   96.2936 4155.3979   52.2755    6.1093     1.3222     1.0945    0.9485    0.0780    3.3639    2.4816    1.5100    1.1688   31.3916    2.3959    2.6741    0.0704 
   6760.5000  106.4362 4155.4214   52.7932    6.1359     1.3349     1.1056    0.9464    0.0781    3.4037    2.3849    1.4794    1.1355   31.4854    2.3969    2.6814    0.0708 
   6761.0000  103.5504 4155.4448   52.6363    6.1586     1.3501     1.1170    0.9517    0.0782    3.3696    2.3770    1.4409    1.0941   31.9336    2.3960    2.6989    0.0675 
   6761.5000  103.3935 4155.4683   52.5263    6.1669     1.3810     1.1460    0.9735    0.0783    3.2212    2.3288    1.3772    1.0745   32.1142    2.3914    2.7154    0.0613 
   6762.0000  102.9051 4155.4912   53.4275    6.1608     1.3896     1.1370    0.9856    0.0782    3.0806    2.2951    1.3426    1.0890   32.1240    2.3840    2.7209    0.0563 
   6762.5000  105.9475 4155.5146   53.6239    6.1429     1.3469     1.0770    0.9681    0.0781    3.0085    2.2249    1.3523    1.1047   32.2165    2.3796    2.7257    0.0581 
   6763.0000  109.9841 4155.5381   52.0471    6.1321     1.2841     1.0229    0.9347    0.0781    2.8777    2.1385    1.3545    1.1200   31.7048    2.3872    2.7688    0.0619 
   6763.5000  108.0517 4155.5615   50.9953    6.1331     1.2641     1.0140    0.9310    0.0780    2.8213    2.0211    1.3642    1.1331   30.8914    2.4003    2.7783    0.0627 
   6764.0000  104.6652 4155.5850   50.6853    6.1330     1.2911     1.0341    0.9544    0.0780    2.7796    1.9049    1.3637    1.1305   30.3651    2.4109    2.8247    0.0667 
   6764.5000  102.1572 4155.6084   49.5477    6.1599     1.3284     1.0636    0.9775    0.0780    2.7309    1.7805    1.3360    1.1132   30.0658    2.4262    2.8294    0.0680 
   6765.0000  102.0320 4155.6318   49.0585    6.1765     1.3601     1.0914    0.9934    0.0780    2.6717    1.6814    1.2786    1.0892   29.7705    2.4384    2.8784    0.0659 
   6765.5000  104.2600 4155.6553   49.6752    6.1720     1.3876     1.0983    1.0030    0.0780    2.6375    1.6373    1.2131    1.0758   29.4116    2.4406    2.9279    0.0588 
   6766.0000  105.0564 4155.6782   48.2698    6.1515     1.3621     1.0728    0.9749    0.0781    2.5307    1.6380    1.1636    1.0683   29.2929    2.4399    2.9078    0.0579 
   6766.5000   99.8715 4155.7017   48.9634    6.1618     1.2866     1.0173    0.9164    0.0781    2.3816    1.6219    1.1309    1.0672   29.2871    2.4502    2.9614    0.0609 
   6767.0000   96.6501 4155.7251   49.8595    6.1853     1.2233     0.9643    0.8620    0.0781    2.2090    1.5321    1.1264    1.0598   29.1756    2.4621    3.0488    0.0628 
   6767.5000   95.7210 4155.7485   50.3464    6.1936     1.2184     0.9274    0.8422    0.0781    2.1101    1.4057    1.1296    1.0392   29.1376    2.4676    2.9860    0.0654 
   6768.0000   90.1967 4155.7720   51.1631    6.2079     1.2447     0.8989    0.8393    0.0781    2.0658    1.2784    1.1168    0.9784   29.2649    2.4689    2.9057    0.0646 
   6768.5000   79.8853 4155.7949   50.8155    6.1984     1.2621     0.8914    0.8341    0.0781    1.9632    1.1629    1.0553    0.9005   29.4585    2.4578    2.8613    0.0669 
   6769.0000   76.9328 4155.8184   50.4877    6.2038     1.2651     0.9054    0.8184    0.0781    1.8371    1.1099    0.9731    0.8266   29.6084    2.4487    2.8351    0.0643 
   6769.5000   88.5178 4155.8418   49.5219    6.1915     1.2771     0.9392    0.8062    0.0781    1.7042    1.0415    0.8938    0.7700   29.8510    2.4391    2.8317    0.0617 
   6770.0000   96.3188 4155.8652   48.2899    6.1816     1.3339     0.9962    0.8233    0.0781    1.5735    0.9727    0.8277    0.7545   30.3967    2.4335    2.8421    0.0595 
   6770.5000   94.3194 4155.8882   49.4414    6.1716     1.3074     1.0010    0.8016    0.0780    1.5113    0.9228    0.8060    0.7405   30.5400    2.4287    2.8940    0.0610 
   6771.0000   80.8607 4155.9116   51.1019    6.1663     1.0809     0.8416    0.6716    0.0780    1.4404    0.8962    0.7824    0.7297   30.9510    2.4292    2.9246    0.0655 
   6771.5000   69.0808 4155.9351   52.5162    6.1666     0.9140     0.6772    0.5749    0.0779    1.3985    0.8950    0.7626    0.7245   31.6775    2.4319    2.9279    0.0706 
   6772.0000   57.1071 4155.9580   55.6389    6.2039     0.9356     0.6697    0.5720    0.0779    1.3958    0.8894    0.7520    0.7258   32.3043    2.4379    2.8934    0.0806 
   6772.5000   56.4665 4155.9814   57.1557    6.2974     1.1183     0.7806    0.6320    0.0779    1.3981    0.8669    0.7435    0.7138   33.2447    2.4456    2.8573    0.0926 
   6773.0000   72.7032 4156.0049   59.7527    6.4291     1.2944     0.8746    0.6942    0.0779    1.3898    0.8143    0.7276    0.6759   34.2755    2.4460    2.8496    0.0753 
   6773.5000   92.5613 4156.0278   63.4717    6.5026     1.3240     0.8889    0.7068    0.0778    1.3353    0.8183    0.7003    0.6217   35.3768    2.4294    2.8982    0.0584 
   6774.0000  106.6986 4156.0513   65.0559    6.5103     1.2577     0.8558    0.6824    0.0778    1.2259    0.8806    0.6624    0.5848   36.6479    2.4120    2.9392    0.0541 
   6774.5000  101.7187 4156.0742   65.1094    6.3855     1.1751     0.7949    0.6498    0.0777    1.0646    0.9381    0.6246    0.5893   37.0083    2.3943    2.9112    0.0535 
   6775.0000   93.8228 4156.0977   64.1766    6.2858     1.1088     0.7458    0.6221    0.0777    0.9837    0.9563    0.6384    0.6298   36.1691    2.3979    2.8250    0.0493 
   6775.5000   89.6273 4156.1211   62.4963    6.2262     1.0699     0.7332    0.6088    0.0777    1.0068    0.9591    0.6955    0.6633   34.7906    2.4084    2.7523    0.0533 
   6776.0000   89.5151 4156.1440   59.7102    6.2024     1.0368     0.7385    0.6011    0.0777    1.0740    0.9524    0.7422    0.6598   34.1435    2.4132    2.6816    0.0627 
   6776.5000   91.2228 4156.1675   57.8368    6.2003     1.0336     0.7523    0.6038    0.0777    1.1150    0.9408    0.7524    0.6394   34.1255    2.4122    2.6346    0.0712 
   6777.0000   95.9492 4156.1904   56.8994    6.2056     1.0644     0.7769    0.6167    0.0777    1.1299    0.9289    0.7452    0.6132   34.1272    2.4014    2.6053    0.0749 
   6777.5000  100.9843 4156.2139   57.4591    6.2095     1.0897     0.8043    0.6252    0.0777    1.1244    0.9268    0.7302    0.5909   34.0085    2.3885    2.6437    0.0775 
   6778.0000  102.6884 4156.2368   59.1536    6.2279     1.0838     0.8072    0.6180    0.0777    1.1185    0.9418    0.7175    0.5879   34.0940    2.3795    2.6723    0.0766 
   6778.5000  103.9485 4156.2603   59.0983    6.2372     1.1006     0.8074    0.6257    0.0777    1.1256    0.9494    0.7164    0.6050   34.5924    2.3715    2.6812    0.0757 
   6779.0000  105.6710 4156.2832   57.6787    6.2314     1.1410     0.8190    0.6490    0.0777    1.1701    0.9361    0.7291    0.6257   34.6689    2.3691    2.7568    0.0766 
   6779.5000  106.5838 4156.3066   57.0458    6.2378     1.1403     0.8089    0.6515    0.0777    1.2406    0.9224    0.7481    0.6408   34.4558    2.3735    2.7918    0.0725 
   6780.0000  108.4647 4156.3296   58.3533    6.2211     1.1244     0.7915    0.6453    0.0777    1.3050    0.9089    0.7607    0.6459   34.4496    2.3752    2.7827    0.0706 
   6780.5000  110.6727 4156.3530   58.8954    6.2165     1.1282     0.7852    0.6467    0.0777    1.3295    0.8784    0.7577    0.6454   34.1914    2.3786    2.7779    0.0711 
