~Version Information
 VERS.                  2.0:   CWLS log ASCII Standard -VERSION 2.0
 WRAP.                   NO:   One line per depth step
~Well Information Block
#MNEM.UNIT     VALUE/NAME     DESCRIPTION
#---------     -----------    ---------------------------
 STRT.F              4550.0000: START DEPTH
 STOP.F              7650.0000: STOP DEPTH
 STEP.F                 0.5000: STEP DEPTH
 NULL.               -999.2500: NULL VALUE
 FTOP.          Formation Tops:  FORM TOPS DESC
 ILTD.               Lithology:  INTERP LTH DESC
 SVYD.               Survey_DS:  SURVEY DESC
 DMOD.             Drill Model:  DRILL MOD DESC
 DATE.      00.00.00 03-Apr-10:  END TIME
 STIM.      00.00.00 28-Mar-10:  START TIME
 DMF .           Kelly Bushing:  DRILL MEAS FROM
 PDAT.          Mean Sea Level:  PERMANENT DATUM
 DFST.                        :  DIST FSL TEXT
 DFWT.                        :  DIST FWL TEXT
 MMDL.            bggm2009.dat:  MAGNETIC MODEL
 MDS .              Win MagUTM:  MAG DATA SOURCE
 XYGR.     UTM Zones, Northern Hemisphere, Meters:  XYGROUP
 CGSY.               SS CLRK51:  CART GRID SYS
 CREF.     Ellipsoid Clarke - 1880:  CART REFERENCE
 CPJM.                        :  CART PROJ METHD
 CCDE.     UTM Clarke 1880 (CM 51), Meters:  CART COORD DESC
 LLGR.      Latitude/Longitude:  LLGROUP
 GGSY.                      LL:  GEO GRID SYS
 GREF.     Ellipsoid World Geodetic System :  GEO REFERENCE
 GPMT.                        :  GEO PROJ METHOD
 GCDE.     Generic Lat/Long's, Degrees, -180 ==> +180:  GEO COORD DESC
 SPUD.               20-Mar-10:  SPUD DATE
 MWDS.                   Dubai:  MWD SHOP
 JOBN.        AD-FE-0007255267:  JOB TICKET NUMB
 BASE.               Abu Dhabi:  LOGGING EQUIPMENT BASE LOCATION
 REGN.               Abu Dhabi:  REGION
 CULG.                        :  CUSTOMER LOGO
 COLG.           186HAL_lg.bmp:  COMPANY LOGO
 UNIT.                  166264:  LOGGING EQUIPMENT ID
 DOE .        AD-FE-0007255267:  DOE NUMBER
 UWI .        AD-FE-0007255267:  UNIQUE WELL IDENTIFIER
 API .        AD-FE-0007255267:  API NUMBER
 SON .        AD-FE-0007255267:  JOB NUMBER
 RANG.                        :  RANGE
 TOWN.                        :  TOWNSHIP
 SECT.                        :  SECTION
 DCON.             Al-Mansoory:  DIRECTNL CONTR
 LEAS.                        :  LEASE NAME
 SRVC.                     NDC:  CONTRACTOR
 CTRY.     United Arab Emirates:  COUNTRY NAME
 PROV.               Abu Dhabi:  PROVINCE
 STAT.               Abu Dhabi:  STATE NAME
 CNTY.               Abu Dhabi:  COUNTY NAME
 FLD .                    Shah:  FIELD NAME
 RIG .                   ND-50:  RIG NAME
 COMP.                    ADCO:  COMPANY
 WELL.            SY-027-1-04H:  WELL NAME
 LOC .                        :  LOCATION
 LMF .           Kelly Bushing:  LOG MEASURED FROM
 AZTC.deg             0.383835:  AZM TOTAL CORR
 GRDC.deg             1.093917:  GRID CORRECTION
 MDEC.deg             1.477752:  MAGNETIC DECL
 GVFD.g               1.000000:  GRAVITY FIELD
 MDIP.deg            34.939442:  MAGNETIC DIP
 MFLD.nT          42523.898438:  MAGNETIC FIELD
 VSDR.deg            55.740002:  VERT SEC DIRECT
 TDD .ft           7648.000000:  TOTAL DEPTH (DRILLER)
 STRD.ft           4648.000000:  START DEPTH
 APD .ft            429.000000:  DEPTH ABOVE PD
 EPD .ft              0.000000:  ELEVATION
 DFSL.ft              0.000000:  DISTANCE FSL
 DFWL.ft              0.000000:  DISTANCE FWL
 UTMY.m         2535096.000000:  UTM Y
 UTMX.m          788186.312500:  UTM X
 WHEW.ft              0.000000:  WELL HEAD E/W
 WHNS.ft              0.000000:  WELL HEAD N/S
 WDMS.ft              0.000000:  WD ELEV
 EGL .ft            407.799988:  GROUND ELEVATION
 TVDS.ft            429.000000:  TVDSS CORRECTN
 LONG.deg            53.809174:  LONGITUDE
 LATI.deg            22.900974:  LATITUDE
 VSEW.ft              0.000000:  VERT SEC E/W
 VSNS.ft              0.000000:  VERT SEC N/S
 CMER.deg            51.000000:  CENTRL MERIDIAN
 AGAP.ft              0.000000:  AIR GAP
 RCST.$/da            0.000000:  RIG COST
 EKB .ft            429.000000:  KB ELEVATION
 EDF .ft            428.000031:  DF ELEVATION
 TDL .ft           3000.000000:  TOTAL DEPTH (LOGGER)
 CSGD.ft           4170.000000:  CASING BOTTOM (DRILLER)
 CSGL.ft           4170.000000:  CASING BOTTOM (LOGGER)
 CSGS.in              9.625000:  CASING SIZE
 CSGW.lbpf           47.000000:  CASING WEIGHT
 HPTY.                       0:  HOLE POS TYPE
 NREF.                       2:  NORTH REFERENCE
 MAGU.                 1453103:  MAGUTM CHECKSUM
 VSC .                       0:  VS TO CLOSURE
 WTYP.                       2:  WELL TYPE
~Parameter Information Block
#MNEM.UNIT       Value        Description
#---------     -----------    ---------------------------
 R1  .     ‘ÁHDrilled 6" horizontal hole F/4648' T/7655'.:  Run Comments 1 
 TDL .ft           3000.000000:  Tot Depth Loggd 
 RRUN.                       4:  Rig Run Number 
 STRD.ft           4648.000000:  Start Depth 
 EDEP.ft           7648.000000:  End Depth 
 STIM.      22.00.32 30-Mar-10:  Start Time 
 ETIM.      20.37.20 04-Apr-10:  End Time 
 TLAB.      00.00.00 31-Mar-10:  Log Start Time 
 TLAT.      14.00.32 03-Apr-10:  Log End Time 
 ENG2.             Ahmed Samir:  Engineer 2 
 ENG3.       Sherif Abdel Aziz:  Engineer 3 
 WITN.        Hamed Abu Shanab:  Customer Rep 
 ORT .hr            129.396225:  Time Operating 
 DFT .                   Other:  Mud Type 
 DFV .spqt           40.000000:  Mud Viscosity 
 PH  .pH             10.000000:  Mud pH 
 DFL .mptm            7.000000:  Fluid Loss 
 RMS .ohmm            0.180000:  Mud Resistivity 
 MST .degF           74.000000:  Mud Sample Temperature 
 RMFS.ohmm            0.120000:  Mud Filtrate Resistivity 
 RMFT.degF           77.000000:  Mud Filtrate Sample Temperature 
 RMCS.ohmm            0.240000:  Mud Cake Resistivity 
 MCST.degF           70.000000:  Mud Cake Sample Temperature 
 RMB .ohmm            0.000000:  Rm @ Max Temp 
 ROP .fph            40.000000:  ROP Avg 
 ROP .fph            20.000000:  ROP Min 
 ROP .fph            60.000004:  ROP Max 
 BS  .in              0.000000:  Bit Size 
 TCS .hr             91.370071:  Time Ciculation Ended 
 RUN .                     400:  Run Number 
 DFD .ppg             8.690000:  Mud Density 
 MRT .                    HCIM:  Maximum Recorded Temperature 
~Parameter Information Block
#MNEM.UNIT       Value        Description
#---------     -----------    ---------------------------
 DFB .ft             50.060001:  Dist From Bit 
 SNIN.                  157772:  SN Insert 
 SP1 .sec            14.000000:  Sample Period 1 
 NOB .                8.000000:  Number Of Bins 
 DFB .ft             83.949997:  Dist From Bit 
 DFB .ft             98.709999:  Dist From Bit 
 SP1 .sec            14.000000:  Sample Period 1 
 SNIN.                  109091:  SN Insert 
 DDSV.sec            25.400002:  DDS AgvZ Total 
 DDSV.sec          4074.400391:  DDS AgvY Total 
 DDSV.sec          3504.600098:  DDS AgvX Total 
 DDSV.               90.000000:  DDS PkZ 10-15g 
 DDSV.              252.000000:  DDS PkY 25-40g 
 DDSV.              267.000000:  DDS PkX 25-40g 
 DDSV.sec            24.800001:  DDS AvgZ 1-2g 
 DDSV.sec          3932.800293:  DDS AvgY 1-2g 
 DDSV.sec             7.000000:  DDS AvgX 4-6g 
 DFB .ft             74.589996:  Dist From Bit 
 SNIN.                10990582:  SN Insert 
 SP1 .sec            12.000000:  Sample Period 1 
 DDSV.g              44.400002:  DDS AvgX Max 
 DDSV.sec             3.400000:  DDS AvgX 15+g 
 DDSV.sec             0.800000:  DDS AvgY 10-15g 
 DDSV.sec             0.000000:  DDS AvgZ 6-10g 
 DDSV.                6.000000:  DDS PkX 90-130g 
 DDSV.                3.000000:  DDS PkY 90-130g 
 DDSV.              213.000000:  DDS PkZ 30-50g 
 DDSV.sec             4.400000:  DDS AvgX 6-10g 
 DDSV.sec             6.800000:  DDS AvgY 4-6g 
 DDSV.sec             0.000000:  DDS AvgZ 4-6g 
 DDSV.               24.000000:  DDS PkX 60-90g 
 DDSV.                0.000000:  DDS PkZ 50+g 
 SP1 .sec            12.000000:  Sample Period 1 
 SNIN.                  105840:  SN Insert 
 DFB .ft             71.680000:  Dist From Bit 
 SNIN.                  TL-028:  SN Insert 
 SNC .                  TL-028:  SN Collar 
 TID .               28.000000:  Tool Identifier 
 DFB .ft             10.000000:  Dist From Bit 
 SNIN.                  270968:  SN Insert 
 SNIN.                  300324:  SN Insert 
 DFB .ft             36.639999:  Dist From Bit 
 SNIN.             11145527463:  SN Insert 
 DFB .ft              0.000000:  Dist From Bit 
 OTY .              Jet Oil II:  Oil Type 
 SNC .                 1127515:  SN Collar 
 SNIN.                  266071:  SN Insert 
 SP1 .sec             2.000000:  Sample Period 1 
 DFB .ft            110.440002:  Dist From Bit 
 DFB .ft             64.690002:  Dist From Bit 
 SNTX.                  270121:  SN Trans Insert 
 SP1 .sec            12.000000:  Sample Period 1 
~Curve Information Block
#MNEM.UNIT                 API CODE     Curve Description
#---------               -----------    ---------------------------
 DEPT.F                 00 000 000 000:  Depth
 SROP.fph               00 000 000 000:  Avg Rate of Penetration
 TVD .ft                00 000 000 000:  ROP True Vertical Depth
 SGRC.api               00 000 000 000:  DGR Combined Gamma Ray
 CALI.in                00 000 000 000:  ALD Hole Size Indicator
 DPHF.ohmm              00 000 000 000:  DP HF Res
 MDHF.ohmm              00 000 000 000:  MD HF Res
 SHHF.ohmm              00 000 000 000:  SH HF Res
 AMR .ohmm              00 000 000 000:  AFR Mud Resistivity
 SEDP.ohmm              00 000 000 000:  EWR Deep Phase Res
 SEMP.ohmm              00 000 000 000:  EWR Medium EWR Phase Res
 SESP.ohmm              00 000 000 000:  EWR Shallow EWR Phase Res
 SEXP.ohmm              00 000 000 000:  EWR Ext Shallow Phase Res
 SPLF.pu                00 000 000 000:  CTN Porosity Limestone
 SBD2.g/cc              00 000 000 000:  ALD LCRB Comp Density
 SNP2.b/e               00 000 000 000:  ALD LCRB Pe Factor
 SCO2.g/cc              00 000 000 000:  ALD LCRB Den Correction
~A   DEPT      SROP       TVD      SGRC      CALI       DPHF       MDHF      SHHF       AMR      SEDP      SEMP      SESP      SEXP      SPLF      SBD2      SNP2      SCO2    
# ...
   5171.0000   50.9058 4097.6602   94.3688    6.0172    13.0138    10.5555   11.2013    0.0849   24.3150   20.6013   19.2587   15.8762   26.2556    2.3271    3.3850    0.0630 
   5171.5000   50.5424 4097.6797   94.6765    6.0532    13.7789    11.2327   12.0113    0.0848   23.8496   19.8882   18.8654   15.0576   25.5436    2.3373    3.2822    0.0679 
   5172.0000   50.8450 4097.6987   96.0495    6.0749    13.9205    11.6411   12.1035    0.0847   23.2633   19.6735   18.2367   14.2921   25.1827    2.3425    3.3003    0.0647 
   5172.5000   50.8024 4097.7183   96.3969    6.0610    13.0099    11.0464   11.2955    0.0845   22.9371   19.7454   17.5926   14.1079   24.9477    2.3373    3.2929    0.0643 
   5173.0000   51.3145 4097.7378  100.8979    6.0613    13.3639    11.7051   11.5236    0.0844   22.5674   19.6806   17.0962   14.8538   24.4065    2.3376    3.2682    0.0623 
   5173.5000   52.3758 4097.7568  108.6761    6.0571    13.2697    12.0978   11.3825    0.0845   22.4230   19.3243   17.4297   15.2041   24.6634    2.3323    3.3218    0.0509 
   5174.0000   53.0219 4097.7764  113.6780    6.0092    12.1764    11.1784   10.2637    0.0846   22.7554   18.8713   17.8264   14.8119   25.1437    2.3139    3.3525    0.0484 
   5174.5000   53.3846 4097.7959  112.4348    5.9981    11.4178    10.2455    9.2545    0.0846   23.0746   17.6348   17.5665   13.9737   24.8898    2.3113    3.3465    0.0494 
   5175.0000   52.9653 4097.8149  109.2211    5.9973    11.5573     9.4908    8.9944    0.0845   22.6150   16.7254   16.6403   12.9829   25.2778    2.3148    3.3450    0.0496 
   5175.5000   51.9553 4097.8345  105.9652    5.9934    12.0813     9.2350    9.0827    0.0844   21.9682   16.9392   15.8447   11.8908   25.9461    2.3173    3.3343    0.0537 
   5176.0000   51.3045 4097.8540  101.4816    6.0102    12.3844     9.6747    9.2110    0.0842   20.7224   17.0820   14.8116   11.5459   26.0129    2.3266    3.3535    0.0565 
   5176.5000   50.3903 4097.8730   95.9425    6.0234    12.3047     9.7642    9.1563    0.0842   20.1331   17.2072   14.0584   12.3842   26.2173    2.3259    3.4022    0.0561 
   5177.0000   50.2762 4097.8926   93.7672    6.0243    12.2549     9.7917    8.8998    0.0843   20.4684   17.4940   14.5914   12.9354   26.7343    2.3167    3.4005    0.0586 
   5177.5000   51.6345 4097.9121   91.2247    6.0421    12.3576    10.4245    8.6207    0.0844   20.5950   17.5139   15.0033   13.1122   27.3464    2.3059    3.3649    0.0622 
   5178.0000   51.9523 4097.9312   86.8255    6.0667    11.1309     9.9660    7.7839    0.0845   20.7310   17.4801   15.1119   13.0412   27.5778    2.2900    3.3209    0.0615 
   5178.5000   53.5783 4097.9507   84.7887    6.0748     9.2907     8.0631    6.7494    0.0845   21.1491   17.1793   15.1733   12.7609   28.3274    2.2641    3.2405    0.0593 
   5179.0000   55.6052 4097.9702   85.1378    6.0739     8.4153     6.8949    6.2943    0.0845   21.1703   17.1617   14.9659   12.3395   29.2925    2.2438    3.1896    0.0532 
   5179.5000   53.7430 4097.9893   85.4984    6.0462     9.0779     7.7924    6.7171    0.0844   20.9390   17.8415   14.6453   11.9129   29.9944    2.2304    3.1687    0.0524 
   5180.0000   50.8794 4098.0088   88.6311    6.0345    10.5507     9.2556    7.7764    0.0844   20.5614   18.0948   14.2260   11.9985   30.1121    2.2341    3.1787    0.0559 
   5180.5000   50.5785 4098.0283   91.3823    6.0469    11.1371     9.3074    8.4340    0.0845   20.3623   17.7854   14.3160   12.2472   29.6833    2.2479    3.2427    0.0507 
   5181.0000   51.4725 4098.0474   92.2423    6.0210    11.2211     8.9673    8.6099    0.0846   20.7802   17.6669   14.8609   12.2468   29.4020    2.2508    3.2341    0.0459 
   5181.5000   51.5134 4098.0669   92.8758    6.0013    11.4597     8.8752    8.8236    0.0847   21.1104   17.3556   15.1066   12.3390   29.3405    2.2496    3.2769    0.0402 
   5182.0000   52.6829 4098.0864   93.4677    5.9783    11.3411     9.3464    8.7336    0.0848   20.7365   16.1369   15.1075   12.5722   29.3259    2.2470    3.3605    0.0397 
   5182.5000   55.1853 4098.1055   94.9728    5.9848    10.8614     9.4920    8.4833    0.0850   20.4419   15.7320   15.2670   12.1380   29.3162    2.2524    3.3524    0.0480 
   5183.0000   53.9111 4098.1250   98.0182    6.0440    10.8413     8.3773    8.6945    0.0852   20.1761   16.1196   14.9551   10.6377   29.1911    2.2650    3.3535    0.0522 
   5183.5000   53.5418 4098.1445  102.6977    6.0870    10.7384     8.1968    8.7391    0.0853   19.2994   17.0308   13.6024   10.1385   29.2713    2.2629    3.4262    0.0518 
   5184.0000   55.5727 4098.1636  105.8387    6.1300    10.9658     8.9697    9.0031    0.0853   19.1290   17.7025   13.1703   10.5635   29.5175    2.2593    3.5338    0.0460 
   5184.5000   53.6361 4098.1831  103.0893    6.1592    11.8495     8.9914    9.7891    0.0853   19.7588   17.8143   13.5592   11.6577   29.7712    2.2620    3.5294    0.0418 
   5185.0000   50.2090 4098.2026   99.6013    6.1191    12.2345     9.2011   10.1434    0.0853   20.9694   17.6204   14.5245   12.6177   29.9249    2.2584    3.4717    0.0455 
   5185.5000   50.8549 4098.2217   98.5109    6.0757    12.6211    10.1250   10.6984    0.0852   21.7487   17.3640   15.2568   12.9057   29.3635    2.2628    3.4343    0.0465 
   5186.0000   52.1958 4098.2412   99.7022    6.0384    13.6834    10.3951   11.8720    0.0851   21.7820   17.3453   15.4109   12.9549   28.2853    2.2685    3.4441    0.0459 
   5186.5000   52.5915 4098.2607   99.5102    6.0070    14.7890    10.0267   13.0100    0.0849   21.3751   17.3353   15.2712   12.8201   27.4493    2.2713    3.5250    0.0486 
   5187.0000   53.9218 4098.2798   97.7742    6.0100    14.7444    10.9179   13.4845    0.0848   20.9556   17.3657   14.9877   12.5889   26.7964    2.2762    3.5820    0.0538 
   5187.5000   55.0992 4098.2993   97.7307    6.0324    13.9183    12.1404   13.1219    0.0849   21.0443   17.3628   14.7263   12.3911   26.1274    2.2846    3.5919    0.0596 
   5188.0000   54.5568 4098.3188   99.2115    6.0575    13.7521    11.5188   12.9128    0.0851   21.4353   17.1227   14.5209   12.1603   25.7798    2.2923    3.6174    0.0638 
   5188.5000   54.1800 4098.3379  100.9357    6.0720    13.8663    10.6993   12.8778    0.0852   21.4861   16.5927   14.3418   11.9121   25.7743    2.2962    3.5765    0.0667 
   5189.0000   53.8816 4098.3574  102.0985    6.0827    13.6129    11.1166   12.6066    0.0853   21.3097   16.5959   14.1312   11.5678   25.9630    2.3007    3.4373    0.0669 
   5189.5000   52.9945 4098.3770  102.7594    6.0885    13.7715    11.7563   12.7482    0.0853   21.0156   17.0787   13.8228   11.0568   26.3736    2.2971    3.3896    0.0635 
   5190.0000   53.4731 4098.3960  102.8681    6.0749    14.1062    11.8460   13.1571    0.0853   20.5537   17.3498   13.3294   11.0542   27.4011    2.2803    3.4217    0.0564 
   5190.5000   54.7677 4098.4155  101.4186    6.0420    14.1699    10.8878   13.1248    0.0852   20.3553   17.1020   13.3069   11.2778   28.4525    2.2625    3.5268    0.0478 
   5191.0000   54.6468 4098.4351   99.6309    5.9993    13.5520     9.8311   12.1368    0.0852   20.4444   17.1926   13.6483   11.2479   29.1059    2.2565    3.5257    0.0503 
   5191.5000   53.3872 4098.4541   98.7365    6.0137    11.6990     9.7478   10.3055    0.0851   20.7186   17.9035   13.9862   11.4975   29.0481    2.2699    3.5098    0.0550 
   5192.0000   53.1004 4098.4736   98.5186    6.0411    11.3583     9.7876   10.0800    0.0850   20.3219   18.6384   14.1351   12.2274   28.1048    2.2816    3.4778    0.0533 
   5192.5000   54.0935 4098.4932   96.9278    6.0319    11.6777     9.9406   10.4183    0.0850   20.0450   19.2873   14.7472   12.9705   27.2850    2.2812    3.4815    0.0501 
   5193.0000   54.7651 4098.5122   95.2987    6.0093    11.7707     9.5613   10.3518    0.0851   20.5514   19.4234   15.6263   13.5150   26.9366    2.2781    3.5674    0.0466 
   5193.5000   54.4583 4098.5317   92.1555    5.9851    12.5416     9.0700   10.8313    0.0852   21.2875   19.3715   16.2656   14.0037   26.9168    2.2839    3.6658    0.0489 
