~Version Information
 VERS.                  2.0:   CWLS log ASCII Standard -VERSION 2.0
 WRAP.                   NO:   One line per depth step
~Well Information Block
#MNEM.UNIT     VALUE/NAME     DESCRIPTION
#---------     -----------    ---------------------------
 STRT.F              4550.0000: START DEPTH
 STOP.F              7650.0000: STOP DEPTH
 STEP.F                 0.5000: STEP DEPTH
 NULL.               -999.2500: NULL VALUE
 FTOP.          Formation Tops:  FORM TOPS DESC
 ILTD.               Lithology:  INTERP LTH DESC
 SVYD.               Survey_DS:  SURVEY DESC
 DMOD.             Drill Model:  DRILL MOD DESC
 DATE.      00.00.00 03-Apr-10:  END TIME
 STIM.      00.00.00 28-Mar-10:  START TIME
 DMF .           Kelly Bushing:  DRILL MEAS FROM
 PDAT.          Mean Sea Level:  PERMANENT DATUM
 DFST.                        :  DIST FSL TEXT
 DFWT.                        :  DIST FWL TEXT
 MMDL.            bggm2009.dat:  MAGNETIC MODEL
 MDS .              Win MagUTM:  MAG DATA SOURCE
 XYGR.     UTM Zones, Northern Hemisphere, Meters:  XYGROUP
 CGSY.               SS CLRK51:  CART GRID SYS
 CREF.     Ellipsoid Clarke - 1880:  CART REFERENCE
 CPJM.                        :  CART PROJ METHD
 CCDE.     UTM Clarke 1880 (CM 51), Meters:  CART COORD DESC
 LLGR.      Latitude/Longitude:  LLGROUP
 GGSY.                      LL:  GEO GRID SYS
 GREF.     Ellipsoid World Geodetic System :  GEO REFERENCE
 GPMT.                        :  GEO PROJ METHOD
 GCDE.     Generic Lat/Long's, Degrees, -180 ==> +180:  GEO COORD DESC
 SPUD.               20-Mar-10:  SPUD DATE
 MWDS.                   Dubai:  MWD SHOP
 JOBN.        AD-FE-0007255267:  JOB TICKET NUMB
 BASE.               Abu Dhabi:  LOGGING EQUIPMENT BASE LOCATION
 REGN.               Abu Dhabi:  REGION
 CULG.                        :  CUSTOMER LOGO
 COLG.           186HAL_lg.bmp:  COMPANY LOGO
 UNIT.                  166264:  LOGGING EQUIPMENT ID
 DOE .        AD-FE-0007255267:  DOE NUMBER
 UWI .        AD-FE-0007255267:  UNIQUE WELL IDENTIFIER
 API .        AD-FE-0007255267:  API NUMBER
 SON .        AD-FE-0007255267:  JOB NUMBER
 RANG.                        :  RANGE
 TOWN.                        :  TOWNSHIP
 SECT.                        :  SECTION
 DCON.             Al-Mansoory:  DIRECTNL CONTR
 LEAS.                        :  LEASE NAME
 SRVC.                     NDC:  CONTRACTOR
 CTRY.     United Arab Emirates:  COUNTRY NAME
 PROV.               Abu Dhabi:  PROVINCE
 STAT.               Abu Dhabi:  STATE NAME
 CNTY.               Abu Dhabi:  COUNTY NAME
 FLD .                    Shah:  FIELD NAME
 RIG .                   ND-50:  RIG NAME
 COMP.                    ADCO:  COMPANY
 WELL.            SY-027-1-04H:  WELL NAME
 LOC .                        :  LOCATION
 LMF .           Kelly Bushing:  LOG MEASURED FROM
 AZTC.deg             0.383835:  AZM TOTAL CORR
 GRDC.deg             1.093917:  GRID CORRECTION
 MDEC.deg             1.477752:  MAGNETIC DECL
 GVFD.g               1.000000:  GRAVITY FIELD
 MDIP.deg            34.939442:  MAGNETIC DIP
 MFLD.nT          42523.898438:  MAGNETIC FIELD
 VSDR.deg            55.740002:  VERT SEC DIRECT
 TDD .ft           7648.000000:  TOTAL DEPTH (DRILLER)
 STRD.ft           4648.000000:  START DEPTH
 APD .ft            429.000000:  DEPTH ABOVE PD
 EPD .ft              0.000000:  ELEVATION
 DFSL.ft              0.000000:  DISTANCE FSL
 DFWL.ft              0.000000:  DISTANCE FWL
 UTMY.m         2535096.000000:  UTM Y
 UTMX.m          788186.312500:  UTM X
 WHEW.ft              0.000000:  WELL HEAD E/W
 WHNS.ft              0.000000:  WELL HEAD N/S
 WDMS.ft              0.000000:  WD ELEV
 EGL .ft            407.799988:  GROUND ELEVATION
 TVDS.ft            429.000000:  TVDSS CORRECTN
 LONG.deg            53.809174:  LONGITUDE
 LATI.deg            22.900974:  LATITUDE
 VSEW.ft              0.000000:  VERT SEC E/W
 VSNS.ft              0.000000:  VERT SEC N/S
 CMER.deg            51.000000:  CENTRL MERIDIAN
 AGAP.ft              0.000000:  AIR GAP
 RCST.$/da            0.000000:  RIG COST
 EKB .ft            429.000000:  KB ELEVATION
 EDF .ft            428.000031:  DF ELEVATION
 TDL .ft           3000.000000:  TOTAL DEPTH (LOGGER)
 CSGD.ft           4170.000000:  CASING BOTTOM (DRILLER)
 CSGL.ft           4170.000000:  CASING BOTTOM (LOGGER)
 CSGS.in              9.625000:  CASING SIZE
 CSGW.lbpf           47.000000:  CASING WEIGHT
 HPTY.                       0:  HOLE POS TYPE
 NREF.                       2:  NORTH REFERENCE
 MAGU.                 1453103:  MAGUTM CHECKSUM
 VSC .                       0:  VS TO CLOSURE
 WTYP.                       2:  WELL TYPE
~Parameter Information Block
#MNEM.UNIT       Value        Description
#---------     -----------    ---------------------------
 R1  .     ‘ÁHDrilled 6" horizontal hole F/4648' T/7655'.:  Run Comments 1 
 TDL .ft           3000.000000:  Tot Depth Loggd 
 RRUN.                       4:  Rig Run Number 
 STRD.ft           4648.000000:  Start Depth 
 EDEP.ft           7648.000000:  End Depth 
 STIM.      22.00.32 30-Mar-10:  Start Time 
 ETIM.      20.37.20 04-Apr-10:  End Time 
 TLAB.      00.00.00 31-Mar-10:  Log Start Time 
 TLAT.      14.00.32 03-Apr-10:  Log End Time 
 ENG2.             Ahmed Samir:  Engineer 2 
 ENG3.       Sherif Abdel Aziz:  Engineer 3 
 WITN.        Hamed Abu Shanab:  Customer Rep 
 ORT .hr            129.396225:  Time Operating 
 DFT .                   Other:  Mud Type 
 DFV .spqt           40.000000:  Mud Viscosity 
 PH  .pH             10.000000:  Mud pH 
 DFL .mptm            7.000000:  Fluid Loss 
 RMS .ohmm            0.180000:  Mud Resistivity 
 MST .degF           74.000000:  Mud Sample Temperature 
 RMFS.ohmm            0.120000:  Mud Filtrate Resistivity 
 RMFT.degF           77.000000:  Mud Filtrate Sample Temperature 
 RMCS.ohmm            0.240000:  Mud Cake Resistivity 
 MCST.degF           70.000000:  Mud Cake Sample Temperature 
 RMB .ohmm            0.000000:  Rm @ Max Temp 
 ROP .fph            40.000000:  ROP Avg 
 ROP .fph            20.000000:  ROP Min 
 ROP .fph            60.000004:  ROP Max 
 BS  .in              0.000000:  Bit Size 
 TCS .hr             91.370071:  Time Ciculation Ended 
 RUN .                     400:  Run Number 
 DFD .ppg             8.690000:  Mud Density 
 MRT .                    HCIM:  Maximum Recorded Temperature 
~Parameter Information Block
#MNEM.UNIT       Value        Description
#---------     -----------    ---------------------------
 DFB .ft             50.060001:  Dist From Bit 
 SNIN.                  157772:  SN Insert 
 SP1 .sec            14.000000:  Sample Period 1 
 NOB .                8.000000:  Number Of Bins 
 DFB .ft             83.949997:  Dist From Bit 
 DFB .ft             98.709999:  Dist From Bit 
 SP1 .sec            14.000000:  Sample Period 1 
 SNIN.                  109091:  SN Insert 
 DDSV.sec            25.400002:  DDS AgvZ Total 
 DDSV.sec          4074.400391:  DDS AgvY Total 
 DDSV.sec          3504.600098:  DDS AgvX Total 
 DDSV.               90.000000:  DDS PkZ 10-15g 
 DDSV.              252.000000:  DDS PkY 25-40g 
 DDSV.              267.000000:  DDS PkX 25-40g 
 DDSV.sec            24.800001:  DDS AvgZ 1-2g 
 DDSV.sec          3932.800293:  DDS AvgY 1-2g 
 DDSV.sec             7.000000:  DDS AvgX 4-6g 
 DFB .ft             74.589996:  Dist From Bit 
 SNIN.                10990582:  SN Insert 
 SP1 .sec            12.000000:  Sample Period 1 
 DDSV.g              44.400002:  DDS AvgX Max 
 DDSV.sec             3.400000:  DDS AvgX 15+g 
 DDSV.sec             0.800000:  DDS AvgY 10-15g 
 DDSV.sec             0.000000:  DDS AvgZ 6-10g 
 DDSV.                6.000000:  DDS PkX 90-130g 
 DDSV.                3.000000:  DDS PkY 90-130g 
 DDSV.              213.000000:  DDS PkZ 30-50g 
 DDSV.sec             4.400000:  DDS AvgX 6-10g 
 DDSV.sec             6.800000:  DDS AvgY 4-6g 
 DDSV.sec             0.000000:  DDS AvgZ 4-6g 
 DDSV.               24.000000:  DDS PkX 60-90g 
 DDSV.                0.000000:  DDS PkZ 50+g 
 SP1 .sec            12.000000:  Sample Period 1 
 SNIN.                  105840:  SN Insert 
 DFB .ft             71.680000:  Dist From Bit 
 SNIN.                  TL-028:  SN Insert 
 SNC .                  TL-028:  SN Collar 
 TID .               28.000000:  Tool Identifier 
 DFB .ft             10.000000:  Dist From Bit 
 SNIN.                  270968:  SN Insert 
 SNIN.                  300324:  SN Insert 
 DFB .ft             36.639999:  Dist From Bit 
 SNIN.             11145527463:  SN Insert 
 DFB .ft              0.000000:  Dist From Bit 
 OTY .              Jet Oil II:  Oil Type 
 SNC .                 1127515:  SN Collar 
 SNIN.                  266071:  SN Insert 
 SP1 .sec             2.000000:  Sample Period 1 
 DFB .ft            110.440002:  Dist From Bit 
 DFB .ft             64.690002:  Dist From Bit 
 SNTX.                  270121:  SN Trans Insert 
 SP1 .sec            12.000000:  Sample Period 1 
~Curve Information Block
#MNEM.UNIT                 API CODE     Curve Description
#---------               -----------    ---------------------------
 DEPT.F                 00 000 000 000:  Depth
 SROP.fph               00 000 000 000:  Avg Rate of Penetration
 TVD .ft                00 000 000 000:  ROP True Vertical Depth
 SGRC.api               00 000 000 000:  DGR Combined Gamma Ray
 CALI.in                00 000 000 000:  ALD Hole Size Indicator
 DPHF.ohmm              00 000 000 000:  DP HF Res
 MDHF.ohmm              00 000 000 000:  MD HF Res
 SHHF.ohmm              00 000 000 000:  SH HF Res
 AMR .ohmm              00 000 000 000:  AFR Mud Resistivity
 SEDP.ohmm              00 000 000 000:  EWR Deep Phase Res
 SEMP.ohmm              00 000 000 000:  EWR Medium EWR Phase Res
 SESP.ohmm              00 000 000 000:  EWR Shallow EWR Phase Res
 SEXP.ohmm              00 000 000 000:  EWR Ext Shallow Phase Res
 SPLF.pu                00 000 000 000:  CTN Porosity Limestone
 SBD2.g/cc              00 000 000 000:  ALD LCRB Comp Density
 SNP2.b/e               00 000 000 000:  ALD LCRB Pe Factor
 SCO2.g/cc              00 000 000 000:  ALD LCRB Den Correction
~A   DEPT      SROP       TVD      SGRC      CALI       DPHF       MDHF      SHHF       AMR      SEDP      SEMP      SESP      SEXP      SPLF      SBD2      SNP2      SCO2    
# ...
   7563.0000   56.9441 4170.3350   72.0935    5.9918     9.1366     8.3120    9.8306    0.0744    9.2551   12.1290   11.8624   10.4727 -999.2500    2.5053    3.4016    0.0544 
   7563.5000   52.5148 4170.3408   72.5331    5.9942     8.9446     8.2622    9.4217    0.0743    9.1190   11.4102   11.7697   10.8186 -999.2500    2.5097    3.4030    0.0554 
   7564.0000   48.5197 4170.3472   72.7375    5.9995     8.6370     7.8180    8.9435    0.0742    9.1042   11.0642   11.6822   10.9670 -999.2500    2.5137    3.3126    0.0600 
   7564.5000   48.2085 4170.3535   68.1540    6.0125     8.7379     7.4834    8.8057    0.0741    9.1827   10.9611   11.7380   11.1730 -999.2500    2.5187    3.2487    0.0638 
   7565.0000   55.5191 4170.3599   63.9687    6.0225     8.7419     7.2213    8.4694    0.0743    9.3214   10.9196   11.8929   11.1239 -999.2500    2.5215    3.2287    0.0654 
   7565.5000   64.3588 4170.3667   60.3128    6.0270     8.5294     7.0211    7.9554    0.0743    9.4093   10.8865   11.8581   10.8101 -999.2500    2.5231 -999.2500 -999.2500 
   7566.0000   68.6409 4170.3730   60.1393 -999.2500     8.3495     6.8945    7.5589    0.0743    9.5022   10.9467   11.7240   10.4373 -999.2500 -999.2500 -999.2500 -999.2500 
   7566.5000   70.7611 4170.3799   61.0345 -999.2500     8.2801     6.8408    7.3405    0.0743    9.5775   11.0861   11.5697    9.9534 -999.2500 -999.2500 -999.2500 -999.2500 
   7567.0000   71.0965 4170.3867   59.7538 -999.2500     8.0695     6.6455    7.0762    0.0743    9.6049   11.1736   11.4094    9.7116 -999.2500 -999.2500 -999.2500 -999.2500 
   7567.5000   73.4568 4170.3936   60.0892 -999.2500     7.6572     6.4118    6.5832    0.0742    9.5969   11.1291   11.3031    9.7942 -999.2500 -999.2500 -999.2500 -999.2500 
   7568.0000   79.6145 4170.4004   60.5202 -999.2500     7.5876     6.4258    6.3444    0.0742    9.6674   11.1256   11.3467    9.9218 -999.2500 -999.2500 -999.2500 -999.2500 
   7568.5000   83.4594 4170.4072   60.5006 -999.2500     7.8389     6.5427    6.3574    0.0742    9.7115   11.1544   11.5064   10.1240 -999.2500 -999.2500 -999.2500 -999.2500 
   7569.0000   82.6342 4170.4141   60.6258 -999.2500     7.9025     6.4341    6.2340    0.0742    9.7291   11.3043   11.7832   10.3311 -999.2500 -999.2500 -999.2500 -999.2500 
   7569.5000   82.2914 4170.4204   59.8037 -999.2500     7.8080     6.3169    6.0831    0.0742    9.7783   11.4547   12.0397   10.4635 -999.2500 -999.2500 -999.2500 -999.2500 
   7570.0000   81.4435 4170.4272   60.1698 -999.2500     8.1186     6.4420    6.3024    0.0742    9.8179   11.5061   12.1370   10.3047 -999.2500 -999.2500 -999.2500 -999.2500 
   7570.5000   79.9573 4170.4346   59.9932 -999.2500     8.7958     6.8132    6.9146    0.0742    9.7548   11.2960   11.9983   10.2791 -999.2500 -999.2500 -999.2500 -999.2500 
   7571.0000   79.8041 4170.4419   59.6080 -999.2500     8.9544     7.3300    7.2565    0.0742    9.6693   11.0963   11.8065   10.3688 -999.2500 -999.2500 -999.2500 -999.2500 
   7571.5000   81.2497 4170.4492   61.8699 -999.2500     8.2595     7.2108    6.8561    0.0742    9.6311   10.9800   11.6007   10.6267 -999.2500 -999.2500 -999.2500 -999.2500 
   7572.0000   81.9759 4170.4565   64.6171 -999.2500     7.6583     6.5536    6.3826    0.0742    9.6962   10.9587   11.5690   11.0067 -999.2500 -999.2500 -999.2500 -999.2500 
   7572.5000   79.6612 4170.4639   67.4961 -999.2500     7.6573     6.2219    6.2661    0.0741    9.6956   10.9604   11.8141   11.1995 -999.2500 -999.2500 -999.2500 -999.2500 
   7573.0000   77.6517 4170.4712   68.2058 -999.2500     7.9963     6.4081    6.3589    0.0727    9.7105   10.9346   11.9902   11.0464 -999.2500 -999.2500 -999.2500 -999.2500 
   7573.5000   80.0643 4170.4785   68.2311 -999.2500     8.3154     6.8359    6.4762    0.0705    9.7401   10.8515   11.8759   10.6977 -999.2500 -999.2500 -999.2500 -999.2500 
   7574.0000   85.2512 4170.4858   68.0957 -999.2500     8.4391     7.1276    6.5791    0.0704    9.7567   10.6775   11.5423   10.4244 -999.2500 -999.2500 -999.2500 -999.2500 
   7574.5000   86.2996 4170.4927   69.1041 -999.2500     8.2771     7.0204    6.4956    0.0704    9.7865   10.5246   11.1874   10.1701 -999.2500 -999.2500 -999.2500 -999.2500 
   7575.0000   88.6142 4170.5000   71.8649 -999.2500     7.8012     6.6648    6.1900    0.0704    9.8243   10.4272   10.8061    9.9917 -999.2500 -999.2500 -999.2500 -999.2500 
   7575.5000   96.3725 4170.5078   73.9673 -999.2500     7.0680     6.1904    5.6612    0.0703    9.8409   10.3732   10.5639    9.8004 -999.2500 -999.2500 -999.2500 -999.2500 
   7576.0000   97.7755 4170.5156   74.4430 -999.2500     6.5769     5.7238    5.2663    0.0688    9.8117   10.3634   10.4704    9.4696 -999.2500 -999.2500 -999.2500 -999.2500 
   7576.5000   93.0890 4170.5234   75.6185 -999.2500     6.6955     5.7452    5.3424    0.0676    9.7469   10.3354   10.3661    8.9249 -999.2500 -999.2500 -999.2500 -999.2500 
   7577.0000   90.2765 4170.5313   76.2068 -999.2500     7.1021     6.1938    5.6649    0.0667    9.5775   10.1843   10.1547    8.4662 -999.2500 -999.2500 -999.2500 -999.2500 
   7577.5000   89.6441 4170.5391   77.0098 -999.2500     7.5399     6.6449    6.0612    0.0667    9.3473    9.9782    9.9415    8.2853 -999.2500 -999.2500 -999.2500 -999.2500 
   7578.0000   86.7392 4170.5469   77.4411 -999.2500     7.7514     6.7921    6.3189    0.0667    9.1417    9.7505    9.7782    8.4603 -999.2500 -999.2500 -999.2500 -999.2500 
   7578.5000   58.3872 4170.5547   77.3989 -999.2500     7.8879     6.8011    6.5219    0.0673    9.0270    9.6314    9.7941    8.9007 -999.2500 -999.2500 -999.2500 -999.2500 
   7579.0000   44.5685 4170.5625 -999.2500 -999.2500     8.0140     6.8624    6.6776    0.0677    9.0014    9.6905   10.0429    9.4669 -999.2500 -999.2500 -999.2500 -999.2500 
   7579.5000   33.2513 4170.5703 -999.2500 -999.2500     7.9743     6.7489    6.6520    0.0679    9.0123    9.8825   10.4776   10.0645 -999.2500 -999.2500 -999.2500 -999.2500 
   7580.0000   25.9613 4170.5781 -999.2500 -999.2500     7.7702     6.5262    6.4894    0.0680    9.0619   10.1472   10.9307   10.4208 -999.2500 -999.2500 -999.2500 -999.2500 
   7580.5000   26.3148 4170.5864 -999.2500 -999.2500     7.5224     6.3892    6.2625    0.0680    9.1056   10.3222   11.2235   10.4564 -999.2500 -999.2500 -999.2500 -999.2500 
   7581.0000   33.9146 4170.5947 -999.2500 -999.2500     7.3158     6.3119    6.0135    0.0680    9.0981   10.3528   11.2744   10.3254 -999.2500 -999.2500 -999.2500 -999.2500 
   7581.5000   52.2475 4170.6030 -999.2500 -999.2500     7.0658     6.2236    5.7384    0.0680    9.0873   10.2982   11.1441   10.0164 -999.2500 -999.2500 -999.2500 -999.2500 
   7582.0000   67.3897 4170.6113 -999.2500 -999.2500     6.7085     6.0105    5.4465    0.0682    9.0465   10.1700   10.8363    9.6958 -999.2500 -999.2500 -999.2500 -999.2500 
   7582.5000   80.7487 4170.6196 -999.2500 -999.2500     6.2487     5.5608    5.1356    0.0720    9.0150   10.0304   10.5088    9.5900 -999.2500 -999.2500 -999.2500 -999.2500 
   7583.0000   79.4468 4170.6279 -999.2500 -999.2500     5.8241     5.0646    4.8438    0.0722    9.0117    9.9778   10.3929    9.6932 -999.2500 -999.2500 -999.2500 -999.2500 
   7583.5000   77.0320 4170.6362 -999.2500 -999.2500     5.6126     4.8113    4.7011    0.0722    9.0255   10.0110   10.4943    9.5365 -999.2500 -999.2500 -999.2500 -999.2500 
   7584.0000   74.0405 4170.6450 -999.2500 -999.2500     5.4508     4.7829    4.6380    0.0722    8.9998    9.9312   10.3832    9.1840 -999.2500 -999.2500 -999.2500 -999.2500 
   7584.5000   72.8550 4170.6533 -999.2500 -999.2500     5.2993     4.6920    4.4948    0.0722    8.9381    9.7517   10.1020    8.8774 -999.2500 -999.2500 -999.2500 -999.2500 
   7585.0000   75.3918 4170.6616 -999.2500 -999.2500     5.3879     4.6314    4.5812    0.0723    8.8650    9.5884    9.8297    8.8006 -999.2500 -999.2500 -999.2500 -999.2500 
   7585.5000   80.4633 4170.6704 -999.2500 -999.2500     5.5029     4.7037    4.7289    0.0723    8.8497    9.5467    9.7605 -999.2500 -999.2500 -999.2500 -999.2500 -999.2500 
