~Version Information
 VERS.                  2.0:   CWLS log ASCII Standard -VERSION 2.0
 WRAP.                   NO:   One line per depth step
~Well Information Block
#MNEM.UNIT     VALUE/NAME     DESCRIPTION
#---------     -----------    ---------------------------
 STRT.F              4550.0000: START DEPTH
 STOP.F              7650.0000: STOP DEPTH
 STEP.F                 0.5000: STEP DEPTH
 NULL.               -999.2500: NULL VALUE
 FTOP.          Formation Tops:  FORM TOPS DESC
 ILTD.               Lithology:  INTERP LTH DESC
 SVYD.               Survey_DS:  SURVEY DESC
 DMOD.             Drill Model:  DRILL MOD DESC
 DATE.      00.00.00 03-Apr-10:  END TIME
 STIM.      00.00.00 28-Mar-10:  START TIME
 DMF .           Kelly Bushing:  DRILL MEAS FROM
 PDAT.          Mean Sea Level:  PERMANENT DATUM
 DFST.                        :  DIST FSL TEXT
 DFWT.                        :  DIST FWL TEXT
 MMDL.            bggm2009.dat:  MAGNETIC MODEL
 MDS .              Win MagUTM:  MAG DATA SOURCE
 XYGR.     UTM Zones, Northern Hemisphere, Meters:  XYGROUP
 CGSY.               SS CLRK51:  CART GRID SYS
 CREF.     Ellipsoid Clarke - 1880:  CART REFERENCE
 CPJM.                        :  CART PROJ METHD
 CCDE.     UTM Clarke 1880 (CM 51), Meters:  CART COORD DESC
 LLGR.      Latitude/Longitude:  LLGROUP
 GGSY.                      LL:  GEO GRID SYS
 GREF.     Ellipsoid World Geodetic System :  GEO REFERENCE
 GPMT.                        :  GEO PROJ METHOD
 GCDE.     Generic Lat/Long's, Degrees, -180 ==> +180:  GEO COORD DESC
 SPUD.               20-Mar-10:  SPUD DATE
 MWDS.                   Dubai:  MWD SHOP
 JOBN.        AD-FE-0007255267:  JOB TICKET NUMB
 BASE.               Abu Dhabi:  LOGGING EQUIPMENT BASE LOCATION
 REGN.               Abu Dhabi:  REGION
 CULG.                        :  CUSTOMER LOGO
 COLG.           186HAL_lg.bmp:  COMPANY LOGO
 UNIT.                  166264:  LOGGING EQUIPMENT ID
 DOE .        AD-FE-0007255267:  DOE NUMBER
 UWI .        AD-FE-0007255267:  UNIQUE WELL IDENTIFIER
 API .        AD-FE-0007255267:  API NUMBER
 SON .        AD-FE-0007255267:  JOB NUMBER
 RANG.                        :  RANGE
 TOWN.                        :  TOWNSHIP
 SECT.                        :  SECTION
 DCON.             Al-Mansoory:  DIRECTNL CONTR
 LEAS.                        :  LEASE NAME
 SRVC.                     NDC:  CONTRACTOR
 CTRY.     United Arab Emirates:  COUNTRY NAME
 PROV.               Abu Dhabi:  PROVINCE
 STAT.               Abu Dhabi:  STATE NAME
 CNTY.               Abu Dhabi:  COUNTY NAME
 FLD .                    Shah:  FIELD NAME
 RIG .                   ND-50:  RIG NAME
 COMP.                    ADCO:  COMPANY
 WELL.            SY-027-1-04H:  WELL NAME
 LOC .                        :  LOCATION
 LMF .           Kelly Bushing:  LOG MEASURED FROM
 AZTC.deg             0.383835:  AZM TOTAL CORR
 GRDC.deg             1.093917:  GRID CORRECTION
 MDEC.deg             1.477752:  MAGNETIC DECL
 GVFD.g               1.000000:  GRAVITY FIELD
 MDIP.deg            34.939442:  MAGNETIC DIP
 MFLD.nT          42523.898438:  MAGNETIC FIELD
 VSDR.deg            55.740002:  VERT SEC DIRECT
 TDD .ft           7648.000000:  TOTAL DEPTH (DRILLER)
 STRD.ft           4648.000000:  START DEPTH
 APD .ft            429.000000:  DEPTH ABOVE PD
 EPD .ft              0.000000:  ELEVATION
 DFSL.ft              0.000000:  DISTANCE FSL
 DFWL.ft              0.000000:  DISTANCE FWL
 UTMY.m         2535096.000000:  UTM Y
 UTMX.m          788186.312500:  UTM X
 WHEW.ft              0.000000:  WELL HEAD E/W
 WHNS.ft              0.000000:  WELL HEAD N/S
 WDMS.ft              0.000000:  WD ELEV
 EGL .ft            407.799988:  GROUND ELEVATION
 TVDS.ft            429.000000:  TVDSS CORRECTN
 LONG.deg            53.809174:  LONGITUDE
 LATI.deg            22.900974:  LATITUDE
 VSEW.ft              0.000000:  VERT SEC E/W
 VSNS.ft              0.000000:  VERT SEC N/S
 CMER.deg            51.000000:  CENTRL MERIDIAN
 AGAP.ft              0.000000:  AIR GAP
 RCST.$/da            0.000000:  RIG COST
 EKB .ft            429.000000:  KB ELEVATION
 EDF .ft            428.000031:  DF ELEVATION
 TDL .ft           3000.000000:  TOTAL DEPTH (LOGGER)
 CSGD.ft           4170.000000:  CASING BOTTOM (DRILLER)
 CSGL.ft           4170.000000:  CASING BOTTOM (LOGGER)
 CSGS.in              9.625000:  CASING SIZE
 CSGW.lbpf           47.000000:  CASING WEIGHT
 HPTY.                       0:  HOLE POS TYPE
 NREF.                       2:  NORTH REFERENCE
 MAGU.                 1453103:  MAGUTM CHECKSUM
 VSC .                       0:  VS TO CLOSURE
 WTYP.                       2:  WELL TYPE
~Parameter Information Block
#MNEM.UNIT       Value        Description
#---------     -----------    ---------------------------
 R1  .     ‘ÁHDrilled 6" horizontal hole F/4648' T/7655'.:  Run Comments 1 
 TDL .ft           3000.000000:  Tot Depth Loggd 
 RRUN.                       4:  Rig Run Number 
 STRD.ft           4648.000000:  Start Depth 
 EDEP.ft           7648.000000:  End Depth 
 STIM.      22.00.32 30-Mar-10:  Start Time 
 ETIM.      20.37.20 04-Apr-10:  End Time 
 TLAB.      00.00.00 31-Mar-10:  Log Start Time 
 TLAT.      14.00.32 03-Apr-10:  Log End Time 
 ENG2.             Ahmed Samir:  Engineer 2 
 ENG3.       Sherif Abdel Aziz:  Engineer 3 
 WITN.        Hamed Abu Shanab:  Customer Rep 
 ORT .hr            129.396225:  Time Operating 
 DFT .                   Other:  Mud Type 
 DFV .spqt           40.000000:  Mud Viscosity 
 PH  .pH             10.000000:  Mud pH 
 DFL .mptm            7.000000:  Fluid Loss 
 RMS .ohmm            0.180000:  Mud Resistivity 
 MST .degF           74.000000:  Mud Sample Temperature 
 RMFS.ohmm            0.120000:  Mud Filtrate Resistivity 
 RMFT.degF           77.000000:  Mud Filtrate Sample Temperature 
 RMCS.ohmm            0.240000:  Mud Cake Resistivity 
 MCST.degF           70.000000:  Mud Cake Sample Temperature 
 RMB .ohmm            0.000000:  Rm @ Max Temp 
 ROP .fph            40.000000:  ROP Avg 
 ROP .fph            20.000000:  ROP Min 
 ROP .fph            60.000004:  ROP Max 
 BS  .in              0.000000:  Bit Size 
 TCS .hr             91.370071:  Time Ciculation Ended 
 RUN .                     400:  Run Number 
 DFD .ppg             8.690000:  Mud Density 
 MRT .                    HCIM:  Maximum Recorded Temperature 
~Parameter Information Block
#MNEM.UNIT       Value        Description
#---------     -----------    ---------------------------
 DFB .ft             50.060001:  Dist From Bit 
 SNIN.                  157772:  SN Insert 
 SP1 .sec            14.000000:  Sample Period 1 
 NOB .                8.000000:  Number Of Bins 
 DFB .ft             83.949997:  Dist From Bit 
 DFB .ft             98.709999:  Dist From Bit 
 SP1 .sec            14.000000:  Sample Period 1 
 SNIN.                  109091:  SN Insert 
 DDSV.sec            25.400002:  DDS AgvZ Total 
 DDSV.sec          4074.400391:  DDS AgvY Total 
 DDSV.sec          3504.600098:  DDS AgvX Total 
 DDSV.               90.000000:  DDS PkZ 10-15g 
 DDSV.              252.000000:  DDS PkY 25-40g 
 DDSV.              267.000000:  DDS PkX 25-40g 
 DDSV.sec            24.800001:  DDS AvgZ 1-2g 
 DDSV.sec          3932.800293:  DDS AvgY 1-2g 
 DDSV.sec             7.000000:  DDS AvgX 4-6g 
 DFB .ft             74.589996:  Dist From Bit 
 SNIN.                10990582:  SN Insert 
 SP1 .sec            12.000000:  Sample Period 1 
 DDSV.g              44.400002:  DDS AvgX Max 
 DDSV.sec             3.400000:  DDS AvgX 15+g 
 DDSV.sec             0.800000:  DDS AvgY 10-15g 
 DDSV.sec             0.000000:  DDS AvgZ 6-10g 
 DDSV.                6.000000:  DDS PkX 90-130g 
 DDSV.                3.000000:  DDS PkY 90-130g 
 DDSV.              213.000000:  DDS PkZ 30-50g 
 DDSV.sec             4.400000:  DDS AvgX 6-10g 
 DDSV.sec             6.800000:  DDS AvgY 4-6g 
 DDSV.sec             0.000000:  DDS AvgZ 4-6g 
 DDSV.               24.000000:  DDS PkX 60-90g 
 DDSV.                0.000000:  DDS PkZ 50+g 
 SP1 .sec            12.000000:  Sample Period 1 
 SNIN.                  105840:  SN Insert 
 DFB .ft             71.680000:  Dist From Bit 
 SNIN.                  TL-028:  SN Insert 
 SNC .                  TL-028:  SN Collar 
 TID .               28.000000:  Tool Identifier 
 DFB .ft             10.000000:  Dist From Bit 
 SNIN.                  270968:  SN Insert 
 SNIN.                  300324:  SN Insert 
 DFB .ft             36.639999:  Dist From Bit 
 SNIN.             11145527463:  SN Insert 
 DFB .ft              0.000000:  Dist From Bit 
 OTY .              Jet Oil II:  Oil Type 
 SNC .                 1127515:  SN Collar 
 SNIN.                  266071:  SN Insert 
 SP1 .sec             2.000000:  Sample Period 1 
 DFB .ft            110.440002:  Dist From Bit 
 DFB .ft             64.690002:  Dist From Bit 
 SNTX.                  270121:  SN Trans Insert 
 SP1 .sec            12.000000:  Sample Period 1 
~Curve Information Block
#MNEM.UNIT                 API CODE     Curve Description
#---------               -----------    ---------------------------
 DEPT.F                 00 000 000 000:  Depth
 SROP.fph               00 000 000 000:  Avg Rate of Penetration
 TVD .ft                00 000 000 000:  ROP True Vertical Depth
 SGRC.api               00 000 000 000:  DGR Combined Gamma Ray
 CALI.in                00 000 000 000:  ALD Hole Size Indicator
 DPHF.ohmm              00 000 000 000:  DP HF Res
 MDHF.ohmm              00 000 000 000:  MD HF Res
 SHHF.ohmm              00 000 000 000:  SH HF Res
 AMR .ohmm              00 000 000 000:  AFR Mud Resistivity
 SEDP.ohmm              00 000 000 000:  EWR Deep Phase Res
 SEMP.ohmm              00 000 000 000:  EWR Medium EWR Phase Res
 SESP.ohmm              00 000 000 000:  EWR Shallow EWR Phase Res
 SEXP.ohmm              00 000 000 000:  EWR Ext Shallow Phase Res
 SPLF.pu                00 000 000 000:  CTN Porosity Limestone
 SBD2.g/cc              00 000 000 000:  ALD LCRB Comp Density
 SNP2.b/e               00 000 000 000:  ALD LCRB Pe Factor
 SCO2.g/cc              00 000 000 000:  ALD LCRB Den Correction
~A   DEPT      SROP       TVD      SGRC      CALI       DPHF       MDHF      SHHF       AMR      SEDP      SEMP      SESP      SEXP      SPLF      SBD2      SNP2      SCO2    
# ...
   6160.0000   89.1684 4134.1416   45.9923    6.0429   104.8022    99.5476   71.3449    0.0807 2000.0000  779.2961  768.4669  423.8471   40.4821    2.0889    2.3961    0.0428 
   6160.5000   87.9512 4134.1631   45.8585    6.0441    97.1498    93.8298   68.1737    0.0809 2000.0000  644.4247  875.6539  519.4114   40.3694    2.0893    2.4101    0.0424 
   6161.0000   88.9324 4134.1846   44.6073    6.0315    96.0798    93.8005   67.1428    0.0812 2000.0000  637.9749  993.3589  486.3069   40.1097    2.0828    2.4119    0.0404 
   6161.5000   90.3197 4134.2056   44.1858    6.0173    93.3098    91.9526   63.9234    0.0814 2000.0000  626.3539  774.1609  452.8810   39.4706    2.0799    2.4469    0.0433 
   6162.0000   88.7738 4134.2271   43.9648    6.0362    96.2966    96.4101   65.1174    0.0815 2000.0000  629.0554  637.2571  496.3204   39.2734    2.0929    2.4598    0.0473 
   6162.5000   86.9159 4134.2485   44.5517    6.0585   102.0423   102.3770   69.4014    0.0814 2000.0000  646.1424  602.8319  510.3170   38.8174    2.1092    2.4394    0.0522 
   6163.0000   87.2481 4134.2695   43.2534    6.0822   113.1521   111.6389   77.5965    0.0813 2000.0000  613.0123  542.0748  579.8691   38.3078    2.1220    2.4203    0.0568 
   6163.5000   87.2482 4134.2910   43.2536    6.1064   133.3409   128.9705   93.1238    0.0811 2000.0000  571.4584  493.2135  640.5219   37.6855    2.1287    2.4124    0.0544 
   6164.0000   86.5568 4134.3120   42.6178    6.0977   121.1347   122.8874   90.8148    0.0809 2000.0000  500.8642  462.6075  730.6804   37.9170    2.1260    2.4056    0.0488 
   6164.5000   86.9242 4134.3335   43.4037    6.0727    79.2132    85.1258   66.6406    0.0809 2000.0000  478.8127  449.6309  679.8247   38.2419    2.1226    2.3931    0.0462 
   6165.0000   87.4171 4134.3550   42.8880    6.0621    56.7942    60.8690   52.1688    0.0809 2000.0000  506.6498  413.8895  469.4197   38.1702    2.1310    2.4149    0.0455 
   6165.5000   87.5495 4134.3760   42.7807    6.0548    52.7302    55.2078   48.4171    0.0808 2000.0000  522.7932  371.4525  368.4913   37.7725    2.1447    2.4588    0.0452 
   6166.0000   87.5324 4134.3965   42.5586    6.0486    55.1730    58.3582   47.7907    0.0810 2000.0000  482.1319  368.4890  310.6438   37.2969    2.1497    2.4642    0.0440 
   6166.5000   87.0504 4134.4175   43.3411    6.0344    58.2686    63.1682   46.9501    0.0810 2000.0000  459.5042  386.2852  249.6812   36.6548    2.1441    2.4829    0.0421 
   6167.0000   86.9370 4134.4385   45.5995    6.0193    62.0429    68.9780   48.0841    0.0810 1999.0736  412.5636  358.5867  209.2953   36.7944    2.1368    2.5060    0.0396 
   6167.5000   88.0717 4134.4595   46.5831    6.0032    66.7813    73.6128   51.2268    0.0812 1979.1572  338.0191  301.4687  207.0552   37.3444    2.1336    2.5012    0.0382 
   6168.0000   89.5644 4134.4800   46.2929    5.9967    65.5180    67.6324   50.0578    0.0812 1948.8677  302.3794  278.3804  209.9343   37.5124    2.1360    2.4907    0.0380 
   6168.5000   89.7711 4134.5010   45.8236    6.0043    60.8286    58.8284   46.9430    0.0811 1878.7162  282.4458  253.4789  192.1647   37.0215    2.1429    2.4548    0.0346 
   6169.0000   88.4030 4134.5220   44.7769    6.0153    52.3958    49.2979   42.1881    0.0811 1734.2506  275.1975  215.3460  170.3957   36.2445    2.1507    2.4152    0.0289 
   6169.5000   87.7253 4134.5430   43.9813    6.0206    40.2582    38.3547   34.3245    0.0811 1670.3781  300.4390  196.8255  148.4188   35.5657    2.1595    2.3812    0.0220 
   6170.0000   87.5257 4134.5635   43.8034    6.0346    31.0984    30.9615   27.4754    0.0811 1644.9235  338.4036  174.4832  122.1502   35.2013    2.1764    2.4470    0.0192 
   6170.5000   87.3223 4134.5840   44.9442    6.0660    26.5407    26.9870   22.8293    0.0811 1721.2119  399.4995  150.0131   95.4657   34.5191    2.1969    2.5291    0.0196 
   6171.0000   86.4418 4134.6045   46.3240    6.1051    23.8200    24.1822   19.6180    0.0811 1825.5782  500.3483  128.7898   76.7858   34.0373    2.2225    2.5559    0.0270 
   6171.5000   83.3341 4134.6250   48.1920    6.1473    21.1805    21.2676   16.7408    0.0812 1932.0638  481.6314  111.3553   62.9436   33.9861    2.2466    2.5119    0.0357 
   6172.0000   77.3117 4134.6455   48.2979    6.1888    19.4748    19.0530   13.9986    0.0812 1975.4773  373.7838   98.1703   53.4670   33.4284    2.2596    2.4737    0.0441 
   6172.5000   67.5391 4134.6660   47.5320    6.2501    19.8352    18.8327   13.0400    0.0812 1990.8518  327.5683   87.8698   43.8100   33.2593    2.2709    2.4820    0.0545 
   6173.0000   54.2257 4134.6865   46.5130    6.3157    19.9317    18.3786   12.8904    0.0812 1999.5970  327.4178   74.0924   35.3581   33.8050    2.2829    2.4843    0.0613 
   6173.5000   48.9246 4134.7070   44.4737    6.3578    17.0932    15.3767   11.4937    0.0812 2000.0000  371.9933   59.3444   28.9034   34.2326    2.2918    2.4737    0.0606 
   6174.0000   68.5867 4134.7271   43.7693    6.3611    15.8101    13.5806   10.5164    0.0812 1997.2448  357.2932   48.3061   24.6436   34.1932    2.2968    2.4776    0.0560 
   6174.5000   85.3030 4134.7476   43.7157    6.3547    17.6209    14.6749   11.3579    0.0812 1935.0491  234.3629   41.4711   20.6724   33.7123    2.3051    2.5212    0.0562 
   6175.0000   92.4983 4134.7681   43.3957    6.3825    20.1646    17.1322   13.1368    0.0812 1783.9678  142.3576   36.0556   17.9574   33.2384    2.3221    2.5572    0.0560 
   6175.5000   88.2668 4134.7881   44.3713    6.4082    23.9654    20.5861   16.5010    0.0813 1542.9866   99.6279   33.3899   16.0016   32.9004    2.3368    2.5865    0.0537 
   6176.0000   82.2844 4134.8081   46.0267    6.4193    31.1848    26.9556   22.0727    0.0813 1098.9929   79.7106   29.3820   15.6283   32.2454    2.3499    2.6837    0.0542 
   6176.5000   79.7882 4134.8281   46.7230    6.4322    41.8300    35.8687   29.5263    0.0813  632.7921   77.0505   26.6872   17.3418   31.8148    2.3671    2.7315    0.0502 
   6177.0000   78.1418 4134.8481   45.9818    6.4033    50.0052    42.2601   35.9145    0.0813  483.6765   88.3745   28.1917   20.1705   31.2195    2.3746    2.7184    0.0338 
   6177.5000   77.0776 4134.8682   44.8708    6.2968    51.5058    43.6637   37.9545    0.0813  529.8892  113.5092   31.5330   24.3792   30.8515    2.3578    2.7187    0.0186 
   6178.0000   77.5681 4134.8882   43.6474    6.1826    48.2664    42.5292   36.4985    0.0813  681.2226  142.2850   34.8991   29.1673   30.8078    2.3422    2.6741    0.0100 
   6178.5000   78.5761 4134.9082   43.8634    6.0988    43.4006    40.8056   33.8525    0.0813 1097.6462  165.2294   38.9646   34.1747   30.5318    2.3369    2.6591    0.0073 
   6179.0000   80.7911 4134.9282   43.3348    6.0312    36.8241    35.8014   29.6923    0.0814 1563.8038  185.8944   44.1886   37.0374   29.8881    2.3335    2.6652    0.0072 
   6179.5000   84.3712 4134.9482   43.1848    6.0006    26.3134    26.9809   23.1400    0.0816 1782.9907  205.8455   47.0736   37.3562   28.9883    2.3351    2.6989    0.0063 
   6180.0000   85.7114 4134.9683   43.2557    5.9990    16.3864    15.7313   15.4606    0.0816 1833.7041  249.6309   48.4764   35.8222   28.5730    2.3430    2.7076    0.0083 
   6180.5000   85.0447 4134.9878   43.4839    6.0038    10.8342    10.2641   10.4354    0.0816 1760.1025  323.1912   49.3166   32.6576   28.5566    2.3510    2.6813    0.0133 
   6181.0000   84.8867 4135.0073   44.2284    6.0089     9.7109     9.5508    8.7765    0.0816 1559.8557  355.2962   48.7671   28.5437   28.4016    2.3520    2.6644    0.0176 
   6181.5000   83.0909 4135.0273   45.6170    5.9957    10.6798    10.2936    8.6672    0.0817 1580.2322  291.2677   48.0359   24.3828   28.4072    2.3392    2.6666    0.0299 
   6182.0000   79.7430 4135.0469   46.2805    6.0161    12.1649    11.3204    8.9213    0.0817 1793.5969  283.2925   46.1591   20.8609   28.9841    2.3346    2.6617    0.0377 
   6182.5000   78.3349 4135.0664   46.4543    6.0136    12.4755    11.3113    8.5539    0.0817 1905.3627  282.9812   41.5414   18.6696   29.6863    2.3296    2.6463    0.0417 
