~Version Information
 VERS.                  2.0:   CWLS log ASCII Standard -VERSION 2.0
 WRAP.                   NO:   One line per depth step
~Well Information Block
#MNEM.UNIT     VALUE/NAME     DESCRIPTION
#---------     -----------    ---------------------------
 STRT.F              4550.0000: START DEPTH
 STOP.F              7650.0000: STOP DEPTH
 STEP.F                 0.5000: STEP DEPTH
 NULL.               -999.2500: NULL VALUE
 FTOP.          Formation Tops:  FORM TOPS DESC
 ILTD.               Lithology:  INTERP LTH DESC
 SVYD.               Survey_DS:  SURVEY DESC
 DMOD.             Drill Model:  DRILL MOD DESC
 DATE.      00.00.00 03-Apr-10:  END TIME
 STIM.      00.00.00 28-Mar-10:  START TIME
 DMF .           Kelly Bushing:  DRILL MEAS FROM
 PDAT.          Mean Sea Level:  PERMANENT DATUM
 DFST.                        :  DIST FSL TEXT
 DFWT.                        :  DIST FWL TEXT
 MMDL.            bggm2009.dat:  MAGNETIC MODEL
 MDS .              Win MagUTM:  MAG DATA SOURCE
 XYGR.     UTM Zones, Northern Hemisphere, Meters:  XYGROUP
 CGSY.               SS CLRK51:  CART GRID SYS
 CREF.     Ellipsoid Clarke - 1880:  CART REFERENCE
 CPJM.                        :  CART PROJ METHD
 CCDE.     UTM Clarke 1880 (CM 51), Meters:  CART COORD DESC
 LLGR.      Latitude/Longitude:  LLGROUP
 GGSY.                      LL:  GEO GRID SYS
 GREF.     Ellipsoid World Geodetic System :  GEO REFERENCE
 GPMT.                        :  GEO PROJ METHOD
 GCDE.     Generic Lat/Long's, Degrees, -180 ==> +180:  GEO COORD DESC
 SPUD.               20-Mar-10:  SPUD DATE
 MWDS.                   Dubai:  MWD SHOP
 JOBN.        AD-FE-0007255267:  JOB TICKET NUMB
 BASE.               Abu Dhabi:  LOGGING EQUIPMENT BASE LOCATION
 REGN.               Abu Dhabi:  REGION
 CULG.                        :  CUSTOMER LOGO
 COLG.           186HAL_lg.bmp:  COMPANY LOGO
 UNIT.                  166264:  LOGGING EQUIPMENT ID
 DOE .        AD-FE-0007255267:  DOE NUMBER
 UWI .        AD-FE-0007255267:  UNIQUE WELL IDENTIFIER
 API .        AD-FE-0007255267:  API NUMBER
 SON .        AD-FE-0007255267:  JOB NUMBER
 RANG.                        :  RANGE
 TOWN.                        :  TOWNSHIP
 SECT.                        :  SECTION
 DCON.             Al-Mansoory:  DIRECTNL CONTR
 LEAS.                        :  LEASE NAME
 SRVC.                     NDC:  CONTRACTOR
 CTRY.     United Arab Emirates:  COUNTRY NAME
 PROV.               Abu Dhabi:  PROVINCE
 STAT.               Abu Dhabi:  STATE NAME
 CNTY.               Abu Dhabi:  COUNTY NAME
 FLD .                    Shah:  FIELD NAME
 RIG .                   ND-50:  RIG NAME
 COMP.                    ADCO:  COMPANY
 WELL.            SY-027-1-04H:  WELL NAME
 LOC .                        :  LOCATION
 LMF .           Kelly Bushing:  LOG MEASURED FROM
 AZTC.deg             0.383835:  AZM TOTAL CORR
 GRDC.deg             1.093917:  GRID CORRECTION
 MDEC.deg             1.477752:  MAGNETIC DECL
 GVFD.g               1.000000:  GRAVITY FIELD
 MDIP.deg            34.939442:  MAGNETIC DIP
 MFLD.nT          42523.898438:  MAGNETIC FIELD
 VSDR.deg            55.740002:  VERT SEC DIRECT
 TDD .ft           7648.000000:  TOTAL DEPTH (DRILLER)
 STRD.ft           4648.000000:  START DEPTH
 APD .ft            429.000000:  DEPTH ABOVE PD
 EPD .ft              0.000000:  ELEVATION
 DFSL.ft              0.000000:  DISTANCE FSL
 DFWL.ft              0.000000:  DISTANCE FWL
 UTMY.m         2535096.000000:  UTM Y
 UTMX.m          788186.312500:  UTM X
 WHEW.ft              0.000000:  WELL HEAD E/W
 WHNS.ft              0.000000:  WELL HEAD N/S
 WDMS.ft              0.000000:  WD ELEV
 EGL .ft            407.799988:  GROUND ELEVATION
 TVDS.ft            429.000000:  TVDSS CORRECTN
 LONG.deg            53.809174:  LONGITUDE
 LATI.deg            22.900974:  LATITUDE
 VSEW.ft              0.000000:  VERT SEC E/W
 VSNS.ft              0.000000:  VERT SEC N/S
 CMER.deg            51.000000:  CENTRL MERIDIAN
 AGAP.ft              0.000000:  AIR GAP
 RCST.$/da            0.000000:  RIG COST
 EKB .ft            429.000000:  KB ELEVATION
 EDF .ft            428.000031:  DF ELEVATION
 TDL .ft           3000.000000:  TOTAL DEPTH (LOGGER)
 CSGD.ft           4170.000000:  CASING BOTTOM (DRILLER)
 CSGL.ft           4170.000000:  CASING BOTTOM (LOGGER)
 CSGS.in              9.625000:  CASING SIZE
 CSGW.lbpf           47.000000:  CASING WEIGHT
 HPTY.                       0:  HOLE POS TYPE
 NREF.                       2:  NORTH REFERENCE
 MAGU.                 1453103:  MAGUTM CHECKSUM
 VSC .                       0:  VS TO CLOSURE
 WTYP.                       2:  WELL TYPE
~Parameter Information Block
#MNEM.UNIT       Value        Description
#---------     -----------    ---------------------------
 R1  .     ‘ÁHDrilled 6" horizontal hole F/4648' T/7655'.:  Run Comments 1 
 TDL .ft           3000.000000:  Tot Depth Loggd 
 RRUN.                       4:  Rig Run Number 
 STRD.ft           4648.000000:  Start Depth 
 EDEP.ft           7648.000000:  End Depth 
 STIM.      22.00.32 30-Mar-10:  Start Time 
 ETIM.      20.37.20 04-Apr-10:  End Time 
 TLAB.      00.00.00 31-Mar-10:  Log Start Time 
 TLAT.      14.00.32 03-Apr-10:  Log End Time 
 ENG2.             Ahmed Samir:  Engineer 2 
 ENG3.       Sherif Abdel Aziz:  Engineer 3 
 WITN.        Hamed Abu Shanab:  Customer Rep 
 ORT .hr            129.396225:  Time Operating 
 DFT .                   Other:  Mud Type 
 DFV .spqt           40.000000:  Mud Viscosity 
 PH  .pH             10.000000:  Mud pH 
 DFL .mptm            7.000000:  Fluid Loss 
 RMS .ohmm            0.180000:  Mud Resistivity 
 MST .degF           74.000000:  Mud Sample Temperature 
 RMFS.ohmm            0.120000:  Mud Filtrate Resistivity 
 RMFT.degF           77.000000:  Mud Filtrate Sample Temperature 
 RMCS.ohmm            0.240000:  Mud Cake Resistivity 
 MCST.degF           70.000000:  Mud Cake Sample Temperature 
 RMB .ohmm            0.000000:  Rm @ Max Temp 
 ROP .fph            40.000000:  ROP Avg 
 ROP .fph            20.000000:  ROP Min 
 ROP .fph            60.000004:  ROP Max 
 BS  .in              0.000000:  Bit Size 
 TCS .hr             91.370071:  Time Ciculation Ended 
 RUN .                     400:  Run Number 
 DFD .ppg             8.690000:  Mud Density 
 MRT .                    HCIM:  Maximum Recorded Temperature 
~Parameter Information Block
#MNEM.UNIT       Value        Description
#---------     -----------    ---------------------------
 DFB .ft             50.060001:  Dist From Bit 
 SNIN.                  157772:  SN Insert 
 SP1 .sec            14.000000:  Sample Period 1 
 NOB .                8.000000:  Number Of Bins 
 DFB .ft             83.949997:  Dist From Bit 
 DFB .ft             98.709999:  Dist From Bit 
 SP1 .sec            14.000000:  Sample Period 1 
 SNIN.                  109091:  SN Insert 
 DDSV.sec            25.400002:  DDS AgvZ Total 
 DDSV.sec          4074.400391:  DDS AgvY Total 
 DDSV.sec          3504.600098:  DDS AgvX Total 
 DDSV.               90.000000:  DDS PkZ 10-15g 
 DDSV.              252.000000:  DDS PkY 25-40g 
 DDSV.              267.000000:  DDS PkX 25-40g 
 DDSV.sec            24.800001:  DDS AvgZ 1-2g 
 DDSV.sec          3932.800293:  DDS AvgY 1-2g 
 DDSV.sec             7.000000:  DDS AvgX 4-6g 
 DFB .ft             74.589996:  Dist From Bit 
 SNIN.                10990582:  SN Insert 
 SP1 .sec            12.000000:  Sample Period 1 
 DDSV.g              44.400002:  DDS AvgX Max 
 DDSV.sec             3.400000:  DDS AvgX 15+g 
 DDSV.sec             0.800000:  DDS AvgY 10-15g 
 DDSV.sec             0.000000:  DDS AvgZ 6-10g 
 DDSV.                6.000000:  DDS PkX 90-130g 
 DDSV.                3.000000:  DDS PkY 90-130g 
 DDSV.              213.000000:  DDS PkZ 30-50g 
 DDSV.sec             4.400000:  DDS AvgX 6-10g 
 DDSV.sec             6.800000:  DDS AvgY 4-6g 
 DDSV.sec             0.000000:  DDS AvgZ 4-6g 
 DDSV.               24.000000:  DDS PkX 60-90g 
 DDSV.                0.000000:  DDS PkZ 50+g 
 SP1 .sec            12.000000:  Sample Period 1 
 SNIN.                  105840:  SN Insert 
 DFB .ft             71.680000:  Dist From Bit 
 SNIN.                  TL-028:  SN Insert 
 SNC .                  TL-028:  SN Collar 
 TID .               28.000000:  Tool Identifier 
 DFB .ft             10.000000:  Dist From Bit 
 SNIN.                  270968:  SN Insert 
 SNIN.                  300324:  SN Insert 
 DFB .ft             36.639999:  Dist From Bit 
 SNIN.             11145527463:  SN Insert 
 DFB .ft              0.000000:  Dist From Bit 
 OTY .              Jet Oil II:  Oil Type 
 SNC .                 1127515:  SN Collar 
 SNIN.                  266071:  SN Insert 
 SP1 .sec             2.000000:  Sample Period 1 
 DFB .ft            110.440002:  Dist From Bit 
 DFB .ft             64.690002:  Dist From Bit 
 SNTX.                  270121:  SN Trans Insert 
 SP1 .sec            12.000000:  Sample Period 1 
~Curve Information Block
#MNEM.UNIT                 API CODE     Curve Description
#---------               -----------    ---------------------------
 DEPT.F                 00 000 000 000:  Depth
 SROP.fph               00 000 000 000:  Avg Rate of Penetration
 TVD .ft                00 000 000 000:  ROP True Vertical Depth
 SGRC.api               00 000 000 000:  DGR Combined Gamma Ray
 CALI.in                00 000 000 000:  ALD Hole Size Indicator
 DPHF.ohmm              00 000 000 000:  DP HF Res
 MDHF.ohmm              00 000 000 000:  MD HF Res
 SHHF.ohmm              00 000 000 000:  SH HF Res
 AMR .ohmm              00 000 000 000:  AFR Mud Resistivity
 SEDP.ohmm              00 000 000 000:  EWR Deep Phase Res
 SEMP.ohmm              00 000 000 000:  EWR Medium EWR Phase Res
 SESP.ohmm              00 000 000 000:  EWR Shallow EWR Phase Res
 SEXP.ohmm              00 000 000 000:  EWR Ext Shallow Phase Res
 SPLF.pu                00 000 000 000:  CTN Porosity Limestone
 SBD2.g/cc              00 000 000 000:  ALD LCRB Comp Density
 SNP2.b/e               00 000 000 000:  ALD LCRB Pe Factor
 SCO2.g/cc              00 000 000 000:  ALD LCRB Den Correction
~A   DEPT      SROP       TVD      SGRC      CALI       DPHF       MDHF      SHHF       AMR      SEDP      SEMP      SESP      SEXP      SPLF      SBD2      SNP2      SCO2    
# ...
   4780.0000   32.8701 4084.9219  117.0416    6.2447     3.3543     3.0493    2.2747    0.0879    7.6967    6.4735    5.8209    5.0989   25.4675    2.4402    2.8375    0.1045 
   4780.5000   36.0756 4084.9495  115.3927    6.2590     2.9163     2.6564    2.0517    0.0877    7.1914    6.6706    5.6913    5.1944   26.0755    2.4529    2.8829    0.1056 
   4781.0000   42.1535 4084.9771  111.9897    6.2831     2.7700     2.4973    1.9884    0.0876    6.9317    6.6074    5.7404    5.2602   26.1252    2.4651    2.9237    0.1037 
   4781.5000   45.8945 4085.0046  109.4600    6.3099     2.9890     2.7265    2.1498    0.0876    6.9550    6.3699    5.9027    5.2429   25.7881    2.4668    2.9640    0.1050 
   4782.0000   48.6815 4085.0322  109.8460    6.3406     3.4032     3.1156    2.3918    0.0875    7.0759    6.3186    6.0754    5.1023   25.5838    2.4619    2.9767    0.1060 
   4782.5000   50.6162 4085.0598  109.5689    6.3426     3.7511     3.3863    2.5953    0.0876    6.9308    6.2589    6.0314    4.8826   25.6480    2.4494    2.9287    0.0961 
   4783.0000   53.4188 4085.0869  110.4397    6.2961     3.9721     3.4791    2.7486    0.0877    6.6361    6.4937    5.8502    4.9048   25.8013    2.4323    2.8888    0.0858 
   4783.5000   56.5694 4085.1143  110.7193    6.2516     4.1547     3.5240    2.8882    0.0879    6.4846    6.8070    5.8700    5.0930   26.1938    2.4269    2.8742    0.0819 
   4784.0000   58.8634 4085.1414  110.3614    6.2338     4.3161     3.5973    2.9990    0.0880    6.2906    7.0148    6.0073    5.4620   25.8419    2.4380    2.8831    0.0806 
   4784.5000   59.1959 4085.1687  109.5455    6.2241     4.4454     3.7165    3.0865    0.0880    6.3939    7.1440    6.3320    5.8799   25.0861    2.4568    2.8800    0.0773 
   4785.0000   57.9075 4085.1958  108.6271    6.2066     4.6387     3.9261    3.2061    0.0879    6.5740    7.1445    6.6705    6.2119   24.0425    2.4756    2.9092    0.0787 
   4785.5000   53.7982 4085.2209  107.7937    6.1996     4.4871     3.8583    3.1014    0.0879    6.6913    7.1616    6.8880    6.4227   23.3601    2.4918    2.9200    0.0829 
   4786.0000   49.0639 4085.2458  107.5803    6.2059     3.7590     3.3385    2.6765    0.0878    6.7616    7.2556    7.0055    6.5307   22.7397    2.5077    2.9411    0.0829 
   4786.5000   46.6143 4085.2708  107.8469    6.2222     3.0938     2.8274    2.3050    0.0878    6.7866    7.3868    7.0476    6.4252   22.1538    2.5198    2.9625    0.0850 
   4787.0000   57.5790 4085.2957  107.9074    6.2449     2.7086     2.5100    2.0888    0.0878    6.9230    7.5384    6.9874    6.2316   21.9848    2.5303    2.9480    0.0897 
   4787.5000   81.1447 4085.3206  109.7217    6.2831     2.6628     2.5285    2.0515    0.0878    7.1150    7.3943    6.9042    5.8592   22.3055    2.5376    2.9388    0.0932 
   4788.0000   80.4334 4085.3455  111.1226    6.3216     3.0890     2.8733    2.2769    0.0877    7.2890    6.8882    6.7394    5.4060   22.8609    2.5326    2.9497    0.0992 
   4788.5000   62.0566 4085.3704  111.6264    6.3486     3.5164     3.2038    2.4967    0.0876    7.4883    6.7731    6.5982    5.1301   23.4158    2.5090    2.9524    0.1036 
   4789.0000   46.3459 4085.3953  111.1994    6.3447     3.7145     3.3400    2.5805    0.0875    7.4078    7.0396    6.4345    4.9407   24.4174    2.4662    2.9276    0.0953 
   4789.5000   37.7136 4085.4202  111.4321    6.2947     3.9885     3.5718    2.7448    0.0875    7.0163    7.2719    6.0905    5.0272   25.3554    2.4243    2.8808    0.0850 
   4790.0000   35.6687 4085.4448  111.8439    6.2494     4.4516     3.9880    3.0347    0.0874    6.9325    7.5170    6.0918    5.3146   26.2012    2.4128    2.8648    0.0822 
   4790.5000   40.7536 4085.4668  111.5117    6.2395     4.9387     4.3412    3.3071    0.0874    7.2031    7.8182    6.3595    5.5299   25.7837    2.4312    2.8945    0.0768 
   4791.0000   47.2806 4085.4888  109.0046    6.1958     5.4859     4.6799    3.5958    0.0874    7.4609    8.2077    6.5529    5.7726   24.7431    2.4445    2.9143    0.0709 
   4791.5000   50.3083 4085.5105  104.9413    6.1375     5.3107     4.4625    3.5860    0.0873    7.7108    8.6076    6.7819    6.1035   24.0661    2.4537    2.9240    0.0711 
   4792.0000   49.8434 4085.5325  104.0617    6.1293     3.9298     3.4359    2.8772    0.0873    7.9355    9.0792    7.0650    6.3906   23.8098    2.4757    2.9810    0.0738 
   4792.5000   47.4849 4085.5542  105.2211    6.1569     2.8950     2.6533    2.3214    0.0873    8.1947    9.2976    7.3382    6.4831   23.5665    2.4993    3.0531    0.0759 
   4793.0000   44.5493 4085.5762  104.6212    6.1877     3.0060     2.8103    2.4413    0.0873    8.4101    8.6914    7.5447    6.3957   23.6313    2.5177    3.1220    0.0722 
   4793.5000   45.0907 4085.5979  102.3466    6.2069     3.7374     3.5345    2.8793    0.0874    8.6897    8.0992    7.7800    5.9847   23.8916    2.5284    3.2152    0.0642 
   4794.0000   50.6879 4085.6199  102.8776    6.2183     4.3346     3.9915    3.2104    0.0875    8.9253    8.1150    7.8098    5.8152   24.0502    2.5256    3.2777    0.0554 
   4794.5000   57.6953 4085.6416  102.1434    6.2133     4.4183     4.0461    3.2369    0.0874    8.4955    8.3305    7.4769    5.8187   24.1845    2.5147    3.1380    0.0401 
   4795.0000   61.6124 4085.6631  102.9098    6.1795     4.2698     3.8658    3.1462    0.0873    8.0191    8.4289    7.1732    6.0875   24.5654    2.5061    3.0745    0.0332 
   4795.5000   63.5611 4085.6821  103.9963    6.1738     4.3630     3.8729    3.2492    0.0872    7.9579    8.5116    7.3112    6.3852   24.5829    2.5168    3.0585    0.0383 
   4796.0000   64.9822 4085.7009  104.8952    6.1959     4.5297     3.9046    3.3538    0.0872    8.0478    8.7058    7.5590    6.5447   23.9026    2.5335    3.0553    0.0471 
   4796.5000   65.9977 4085.7197  104.7151    6.2234     4.6693     3.9771    3.4222    0.0873    8.1010    9.0768    7.7138    6.6666   22.9989    2.5462    3.0484    0.0564 
   4797.0000   66.1871 4085.7385  104.6492    6.2340     5.0236     4.3909    3.6898    0.0873    8.1876    9.6052    7.8971    6.8844   22.5824    2.5402    3.0678    0.0575 
   4797.5000   65.6958 4085.7571  103.8048    6.2287     5.1024     4.6333    3.7796    0.0873    8.3763    9.7082    8.1681    7.1915   22.5695    2.5266    3.0785    0.0595 
   4798.0000   64.8586 4085.7759  103.3711    6.2384     4.6404     4.3133    3.5117    0.0871    8.7741    9.8330    8.5086    7.4545   22.4438    2.5237    3.0416    0.0645 
   4798.5000   64.9080 4085.7947  102.6083    6.2451     3.8821     3.7054    3.0475    0.0870    9.4032    9.9515    8.8994    7.4655   22.1442    2.5330    3.0130    0.0658 
   4799.0000   65.0411 4085.8135  102.0990    6.2257     3.5037     3.3282    2.8184    0.0870    9.5190   10.0787    8.8891    7.3425   21.9129    2.5336    2.9786    0.0676 
   4799.5000   62.9682 4085.8323  102.7709    6.2204     3.6151     3.3403    2.8867    0.0870    9.6244   10.0511    8.7122    6.8850   21.7837    2.5345    2.9980    0.0678 
   4800.0000   60.1974 4085.8508  103.5534    6.2263     3.8276     3.5381    3.0153    0.0870    9.8886    9.8462    8.3795    6.3563   21.5698    2.5358    3.0601    0.0665 
   4800.5000   59.8275 4085.8667  102.7643    6.2421     4.0572     3.7929    3.1783    0.0870   10.1602    9.7325    7.9960    5.9198   21.6701    2.5369    3.0799    0.0667 
   4801.0000   62.2660 4085.8823  102.3801    6.2661     4.1553     3.8263    3.2696    0.0867   10.1126    9.7707    7.6757    5.7002   21.9470    2.5383    3.0592    0.0598 
   4801.5000   64.0220 4085.8979  102.3105    6.2645     4.0845     3.6441    3.2367    0.0864    9.7958   10.0861    7.5842    5.6613   22.3828    2.5349    3.0672    0.0507 
   4802.0000   64.1255 4085.9136  101.0012    6.2634     4.1973     3.6256    3.3245    0.0863    9.6941   10.4242    7.6289    5.8094   22.4499    2.5363    3.0900    0.0489 
   4802.5000   64.3404 4085.9292   99.4607    6.2702     4.6866     4.0148    3.7149    0.0862    9.7553   10.3750    7.8258    6.1074   22.2619    2.5394    3.0863    0.0534 
