~Version Information
 VERS.                  2.0:   CWLS log ASCII Standard -VERSION 2.0
 WRAP.                   NO:   One line per depth step
~Well Information Block
#MNEM.UNIT     VALUE/NAME     DESCRIPTION
#---------     -----------    ---------------------------
 STRT.F              4550.0000: START DEPTH
 STOP.F              7650.0000: STOP DEPTH
 STEP.F                 0.5000: STEP DEPTH
 NULL.               -999.2500: NULL VALUE
 FTOP.          Formation Tops:  FORM TOPS DESC
 ILTD.               Lithology:  INTERP LTH DESC
 SVYD.               Survey_DS:  SURVEY DESC
 DMOD.             Drill Model:  DRILL MOD DESC
 DATE.      00.00.00 03-Apr-10:  END TIME
 STIM.      00.00.00 28-Mar-10:  START TIME
 DMF .           Kelly Bushing:  DRILL MEAS FROM
 PDAT.          Mean Sea Level:  PERMANENT DATUM
 DFST.                        :  DIST FSL TEXT
 DFWT.                        :  DIST FWL TEXT
 MMDL.            bggm2009.dat:  MAGNETIC MODEL
 MDS .              Win MagUTM:  MAG DATA SOURCE
 XYGR.     UTM Zones, Northern Hemisphere, Meters:  XYGROUP
 CGSY.               SS CLRK51:  CART GRID SYS
 CREF.     Ellipsoid Clarke - 1880:  CART REFERENCE
 CPJM.                        :  CART PROJ METHD
 CCDE.     UTM Clarke 1880 (CM 51), Meters:  CART COORD DESC
 LLGR.      Latitude/Longitude:  LLGROUP
 GGSY.                      LL:  GEO GRID SYS
 GREF.     Ellipsoid World Geodetic System :  GEO REFERENCE
 GPMT.                        :  GEO PROJ METHOD
 GCDE.     Generic Lat/Long's, Degrees, -180 ==> +180:  GEO COORD DESC
 SPUD.               20-Mar-10:  SPUD DATE
 MWDS.                   Dubai:  MWD SHOP
 JOBN.        AD-FE-0007255267:  JOB TICKET NUMB
 BASE.               Abu Dhabi:  LOGGING EQUIPMENT BASE LOCATION
 REGN.               Abu Dhabi:  REGION
 CULG.                        :  CUSTOMER LOGO
 COLG.           186HAL_lg.bmp:  COMPANY LOGO
 UNIT.                  166264:  LOGGING EQUIPMENT ID
 DOE .        AD-FE-0007255267:  DOE NUMBER
 UWI .        AD-FE-0007255267:  UNIQUE WELL IDENTIFIER
 API .        AD-FE-0007255267:  API NUMBER
 SON .        AD-FE-0007255267:  JOB NUMBER
 RANG.                        :  RANGE
 TOWN.                        :  TOWNSHIP
 SECT.                        :  SECTION
 DCON.             Al-Mansoory:  DIRECTNL CONTR
 LEAS.                        :  LEASE NAME
 SRVC.                     NDC:  CONTRACTOR
 CTRY.     United Arab Emirates:  COUNTRY NAME
 PROV.               Abu Dhabi:  PROVINCE
 STAT.               Abu Dhabi:  STATE NAME
 CNTY.               Abu Dhabi:  COUNTY NAME
 FLD .                    Shah:  FIELD NAME
 RIG .                   ND-50:  RIG NAME
 COMP.                    ADCO:  COMPANY
 WELL.            SY-027-1-04H:  WELL NAME
 LOC .                        :  LOCATION
 LMF .           Kelly Bushing:  LOG MEASURED FROM
 AZTC.deg             0.383835:  AZM TOTAL CORR
 GRDC.deg             1.093917:  GRID CORRECTION
 MDEC.deg             1.477752:  MAGNETIC DECL
 GVFD.g               1.000000:  GRAVITY FIELD
 MDIP.deg            34.939442:  MAGNETIC DIP
 MFLD.nT          42523.898438:  MAGNETIC FIELD
 VSDR.deg            55.740002:  VERT SEC DIRECT
 TDD .ft           7648.000000:  TOTAL DEPTH (DRILLER)
 STRD.ft           4648.000000:  START DEPTH
 APD .ft            429.000000:  DEPTH ABOVE PD
 EPD .ft              0.000000:  ELEVATION
 DFSL.ft              0.000000:  DISTANCE FSL
 DFWL.ft              0.000000:  DISTANCE FWL
 UTMY.m         2535096.000000:  UTM Y
 UTMX.m          788186.312500:  UTM X
 WHEW.ft              0.000000:  WELL HEAD E/W
 WHNS.ft              0.000000:  WELL HEAD N/S
 WDMS.ft              0.000000:  WD ELEV
 EGL .ft            407.799988:  GROUND ELEVATION
 TVDS.ft            429.000000:  TVDSS CORRECTN
 LONG.deg            53.809174:  LONGITUDE
 LATI.deg            22.900974:  LATITUDE
 VSEW.ft              0.000000:  VERT SEC E/W
 VSNS.ft              0.000000:  VERT SEC N/S
 CMER.deg            51.000000:  CENTRL MERIDIAN
 AGAP.ft              0.000000:  AIR GAP
 RCST.$/da            0.000000:  RIG COST
 EKB .ft            429.000000:  KB ELEVATION
 EDF .ft            428.000031:  DF ELEVATION
 TDL .ft           3000.000000:  TOTAL DEPTH (LOGGER)
 CSGD.ft           4170.000000:  CASING BOTTOM (DRILLER)
 CSGL.ft           4170.000000:  CASING BOTTOM (LOGGER)
 CSGS.in              9.625000:  CASING SIZE
 CSGW.lbpf           47.000000:  CASING WEIGHT
 HPTY.                       0:  HOLE POS TYPE
 NREF.                       2:  NORTH REFERENCE
 MAGU.                 1453103:  MAGUTM CHECKSUM
 VSC .                       0:  VS TO CLOSURE
 WTYP.                       2:  WELL TYPE
~Parameter Information Block
#MNEM.UNIT       Value        Description
#---------     -----------    ---------------------------
 R1  .     ‘ÁHDrilled 6" horizontal hole F/4648' T/7655'.:  Run Comments 1 
 TDL .ft           3000.000000:  Tot Depth Loggd 
 RRUN.                       4:  Rig Run Number 
 STRD.ft           4648.000000:  Start Depth 
 EDEP.ft           7648.000000:  End Depth 
 STIM.      22.00.32 30-Mar-10:  Start Time 
 ETIM.      20.37.20 04-Apr-10:  End Time 
 TLAB.      00.00.00 31-Mar-10:  Log Start Time 
 TLAT.      14.00.32 03-Apr-10:  Log End Time 
 ENG2.             Ahmed Samir:  Engineer 2 
 ENG3.       Sherif Abdel Aziz:  Engineer 3 
 WITN.        Hamed Abu Shanab:  Customer Rep 
 ORT .hr            129.396225:  Time Operating 
 DFT .                   Other:  Mud Type 
 DFV .spqt           40.000000:  Mud Viscosity 
 PH  .pH             10.000000:  Mud pH 
 DFL .mptm            7.000000:  Fluid Loss 
 RMS .ohmm            0.180000:  Mud Resistivity 
 MST .degF           74.000000:  Mud Sample Temperature 
 RMFS.ohmm            0.120000:  Mud Filtrate Resistivity 
 RMFT.degF           77.000000:  Mud Filtrate Sample Temperature 
 RMCS.ohmm            0.240000:  Mud Cake Resistivity 
 MCST.degF           70.000000:  Mud Cake Sample Temperature 
 RMB .ohmm            0.000000:  Rm @ Max Temp 
 ROP .fph            40.000000:  ROP Avg 
 ROP .fph            20.000000:  ROP Min 
 ROP .fph            60.000004:  ROP Max 
 BS  .in              0.000000:  Bit Size 
 TCS .hr             91.370071:  Time Ciculation Ended 
 RUN .                     400:  Run Number 
 DFD .ppg             8.690000:  Mud Density 
 MRT .                    HCIM:  Maximum Recorded Temperature 
~Parameter Information Block
#MNEM.UNIT       Value        Description
#---------     -----------    ---------------------------
 DFB .ft             50.060001:  Dist From Bit 
 SNIN.                  157772:  SN Insert 
 SP1 .sec            14.000000:  Sample Period 1 
 NOB .                8.000000:  Number Of Bins 
 DFB .ft             83.949997:  Dist From Bit 
 DFB .ft             98.709999:  Dist From Bit 
 SP1 .sec            14.000000:  Sample Period 1 
 SNIN.                  109091:  SN Insert 
 DDSV.sec            25.400002:  DDS AgvZ Total 
 DDSV.sec          4074.400391:  DDS AgvY Total 
 DDSV.sec          3504.600098:  DDS AgvX Total 
 DDSV.               90.000000:  DDS PkZ 10-15g 
 DDSV.              252.000000:  DDS PkY 25-40g 
 DDSV.              267.000000:  DDS PkX 25-40g 
 DDSV.sec            24.800001:  DDS AvgZ 1-2g 
 DDSV.sec          3932.800293:  DDS AvgY 1-2g 
 DDSV.sec             7.000000:  DDS AvgX 4-6g 
 DFB .ft             74.589996:  Dist From Bit 
 SNIN.                10990582:  SN Insert 
 SP1 .sec            12.000000:  Sample Period 1 
 DDSV.g              44.400002:  DDS AvgX Max 
 DDSV.sec             3.400000:  DDS AvgX 15+g 
 DDSV.sec             0.800000:  DDS AvgY 10-15g 
 DDSV.sec             0.000000:  DDS AvgZ 6-10g 
 DDSV.                6.000000:  DDS PkX 90-130g 
 DDSV.                3.000000:  DDS PkY 90-130g 
 DDSV.              213.000000:  DDS PkZ 30-50g 
 DDSV.sec             4.400000:  DDS AvgX 6-10g 
 DDSV.sec             6.800000:  DDS AvgY 4-6g 
 DDSV.sec             0.000000:  DDS AvgZ 4-6g 
 DDSV.               24.000000:  DDS PkX 60-90g 
 DDSV.                0.000000:  DDS PkZ 50+g 
 SP1 .sec            12.000000:  Sample Period 1 
 SNIN.                  105840:  SN Insert 
 DFB .ft             71.680000:  Dist From Bit 
 SNIN.                  TL-028:  SN Insert 
 SNC .                  TL-028:  SN Collar 
 TID .               28.000000:  Tool Identifier 
 DFB .ft             10.000000:  Dist From Bit 
 SNIN.                  270968:  SN Insert 
 SNIN.                  300324:  SN Insert 
 DFB .ft             36.639999:  Dist From Bit 
 SNIN.             11145527463:  SN Insert 
 DFB .ft              0.000000:  Dist From Bit 
 OTY .              Jet Oil II:  Oil Type 
 SNC .                 1127515:  SN Collar 
 SNIN.                  266071:  SN Insert 
 SP1 .sec             2.000000:  Sample Period 1 
 DFB .ft            110.440002:  Dist From Bit 
 DFB .ft             64.690002:  Dist From Bit 
 SNTX.                  270121:  SN Trans Insert 
 SP1 .sec            12.000000:  Sample Period 1 
~Curve Information Block
#MNEM.UNIT                 API CODE     Curve Description
#---------               -----------    ---------------------------
 DEPT.F                 00 000 000 000:  Depth
 SROP.fph               00 000 000 000:  Avg Rate of Penetration
 TVD .ft                00 000 000 000:  ROP True Vertical Depth
 SGRC.api               00 000 000 000:  DGR Combined Gamma Ray
 CALI.in                00 000 000 000:  ALD Hole Size Indicator
 DPHF.ohmm              00 000 000 000:  DP HF Res
 MDHF.ohmm              00 000 000 000:  MD HF Res
 SHHF.ohmm              00 000 000 000:  SH HF Res
 AMR .ohmm              00 000 000 000:  AFR Mud Resistivity
 SEDP.ohmm              00 000 000 000:  EWR Deep Phase Res
 SEMP.ohmm              00 000 000 000:  EWR Medium EWR Phase Res
 SESP.ohmm              00 000 000 000:  EWR Shallow EWR Phase Res
 SEXP.ohmm              00 000 000 000:  EWR Ext Shallow Phase Res
 SPLF.pu                00 000 000 000:  CTN Porosity Limestone
 SBD2.g/cc              00 000 000 000:  ALD LCRB Comp Density
 SNP2.b/e               00 000 000 000:  ALD LCRB Pe Factor
 SCO2.g/cc              00 000 000 000:  ALD LCRB Den Correction
~A   DEPT      SROP       TVD      SGRC      CALI       DPHF       MDHF      SHHF       AMR      SEDP      SEMP      SESP      SEXP      SPLF      SBD2      SNP2      SCO2    
# ...
   6367.0000   79.0160 4141.3584   39.9815    6.0469     7.9841     6.1808    5.8960    0.0802   16.6047   13.6515    9.7715    8.0918   32.4042    2.2536    2.5112    0.0504 
   6367.5000   62.3576 4141.3740   39.8381    6.0326     7.9010     6.1070    5.8421    0.0802   16.9034   13.7171    9.8314    8.1221   32.9539    2.2524    2.5590    0.0500 
   6368.0000   51.1969 4141.3896   39.0982    6.0241     7.7579     6.0304    5.7760    0.0802   17.1276   13.7266    9.8543    8.1483   32.9955    2.2597    2.6138    0.0483 
   6368.5000   40.0081 4141.4053   40.2000    6.0147     8.0149     6.2435    5.9500    0.0801   17.4489   13.7482    9.9641    8.1350   32.2371    2.2673    2.6046    0.0475 
   6369.0000   31.5451 4141.4209   41.5155    6.0075     8.4136     6.5655    6.1916    0.0798   17.5072   13.8177   10.0323    8.1636   31.5804    2.2781    2.5484    0.0446 
   6369.5000   29.6611 4141.4365   41.3875    5.9881     8.5346     6.6327    6.2607    0.0796   17.4061   14.0231   10.0741    8.2213   31.4044    2.2811    2.5488    0.0436 
   6370.0000   33.8779 4141.4521   40.7792    5.9841     8.3309     6.3888    6.1424    0.0795   17.3555   14.2574   10.0776    8.2852   31.3899    2.2824    2.5452    0.0407 
   6370.5000   47.4115 4141.4678   40.7506    5.9755     7.8520     6.0183    5.8040    0.0795   17.4020   14.3598   10.1055    8.3414   31.2088    2.2858    2.5276    0.0389 
   6371.0000   62.5437 4141.4834   39.8136    5.9639     7.8904     6.1267    5.7697    0.0795   17.6803   14.2250   10.2220    8.3456   31.0636    2.2850    2.5386    0.0410 
   6371.5000   81.3443 4141.4990   39.4503    5.9633     8.0650     6.4437    5.8796    0.0795   18.0587   13.9200   10.3234    8.2557   30.9570    2.2855    2.5413    0.0426 
   6372.0000   84.4172 4141.5146   38.3335    5.9704     7.7894     6.3779    5.7031    0.0795   18.4148   13.6252   10.3043    8.0897   30.9994    2.2847    2.5160    0.0430 
   6372.5000   84.7430 4141.5303   38.7378    5.9734     7.6860     6.3168    5.6524    0.0795   18.6092   13.4445   10.1099    7.9804   31.1220    2.2833    2.5151    0.0405 
   6373.0000   83.0516 4141.5459   39.1403    5.9654     7.8925     6.4068    5.8416    0.0795   18.2044   13.3502    9.9118    7.9765   31.2974    2.2853    2.5266    0.0408 
   6373.5000   79.8862 4141.5615   38.7843    5.9707     7.8443     6.3351    5.8649    0.0795   17.7513   13.3704    9.8022    7.9615   31.3626    2.2937    2.5139    0.0434 
   6374.0000   78.7628 4141.5771   38.5550    5.9886     7.7431     6.2286    5.8146    0.0795   17.4338   13.3686    9.7435    7.9450   30.8805    2.3030    2.5047    0.0414 
   6374.5000   81.2054 4141.5928   39.2267    5.9901     7.7517     6.2474    5.8219    0.0794   17.3330   13.2830    9.7507    7.9632   30.8146    2.3014    2.5035    0.0381 
   6375.0000   83.3263 4141.6084   41.1822    5.9725     7.7356     6.2549    5.8411    0.0794   17.3848   13.3316    9.7991    7.9218   31.0654    2.2921    2.5070    0.0380 
   6375.5000   82.0949 4141.6240   43.9522    5.9774     7.7373     6.2301    5.8638    0.0793   17.6064   13.3569    9.7653    7.8908   31.0664    2.2877    2.4984    0.0356 
   6376.0000   79.4329 4141.6396   44.9184    5.9806     7.5737     6.1516    5.7170    0.0791   17.6673   13.4475    9.6687    7.8965   31.3100    2.2799    2.5046    0.0320 
   6376.5000   75.7266 4141.6553   44.9923    5.9721     7.3838     5.9940    5.5915    0.0790   17.8017   13.3972    9.6316    7.9030   31.6203    2.2685    2.4936    0.0271 
   6377.0000   70.6164 4141.6709   44.8624    5.9550     7.5257     6.0473    5.7451    0.0790   17.9878   13.2963    9.6260    7.9120   31.8498    2.2584    2.4531    0.0234 
   6377.5000   66.9097 4141.6865   43.4429    5.9459     7.6298     6.1173    5.8544    0.0789   18.0494   13.2670    9.6807    7.9144   32.3231    2.2566    2.4661    0.0243 
   6378.0000   66.0583 4141.7021   41.7355    5.9636     7.2982     5.9072    5.6924    0.0789   17.8487   13.2662    9.6548    7.8790   32.4920    2.2611    2.5117    0.0225 
   6378.5000   65.3680 4141.7178   42.0909    5.9651     7.0776     5.8285    5.6014    0.0789   17.6473   13.2159    9.5650    7.8554   32.5779    2.2604    2.5473    0.0201 
   6379.0000   63.7903 4141.7334   42.7859    5.9547     7.0813     5.8135    5.5892    0.0789   17.7030   13.0777    9.5070    7.8999   32.7505    2.2606    2.5786    0.0241 
   6379.5000   61.7341 4141.7490   42.7678    5.9829     7.0162     5.7067    5.4973    0.0789   17.6445   12.9917    9.4920    7.8716   33.1337    2.2717    2.5841    0.0265 
   6380.0000   60.3326 4141.7646   43.9179    6.0048     7.0693     5.7334    5.5223    0.0791   17.4291   12.8918    9.4435    7.7786   33.3613    2.2798    2.6125    0.0233 
   6380.5000   58.7211 4141.7803   47.1719    6.0008     7.2817     5.8382    5.6931    0.0793   17.3308   12.8790    9.3789    7.7748   33.5721    2.2806    2.5826    0.0189 
   6381.0000   56.2319 4141.7959   48.2795    5.9805     7.4130     5.8921    5.7912    0.0794   17.3869   12.9199    9.3633    7.7446   33.1199    2.2798    2.5997    0.0180 
   6381.5000   54.9449 4141.8115   45.2390    5.9724     7.2806     5.8002    5.6840    0.0794   17.2907   12.9085    9.2796    7.7387   32.3212    2.2810    2.6297    0.0201 
   6382.0000   57.4200 4141.8271   42.5841    5.9726     6.9674     5.6953    5.4439    0.0794   17.3462   12.8821    9.2310    7.7273   31.6359    2.2840    2.6123    0.0213 
   6382.5000   61.9997 4141.8428   41.3634    5.9752     6.6462     5.6478    5.1614    0.0793   17.4807   12.7714    9.2222    7.7133   31.3860    2.2895    2.5819    0.0235 
   6383.0000   63.8861 4141.8584   41.6344    5.9906     6.3338     5.4777    4.8983    0.0789   17.5651   12.6470    9.2126    7.6979   31.7563    2.2961    2.5725    0.0255 
   6383.5000   64.0380 4141.8740   41.8064    6.0101     6.2827     5.3724    4.8313    0.0787   17.5730   12.4786    9.1701    7.6012   32.1493    2.2997    2.5280    0.0237 
   6384.0000   65.6052 4141.8896   42.6341    6.0110     6.3143     5.3003    4.8184    0.0786   17.5528   12.3968    9.0903    7.4592   32.3425    2.2915    2.5277    0.0248 
   6384.5000   68.3045 4141.9053   42.7353    6.0187     6.1864     5.1226    4.7165    0.0785   17.4063   12.5408    8.9813    7.3151   32.3322    2.2858    2.5470    0.0272 
   6385.0000   68.5342 4141.9209   42.9208    6.0382     6.0915     5.0449    4.6560    0.0784   17.1873   12.7428    8.8991    7.1598   32.0576    2.2865    2.5208    0.0224 
   6385.5000   68.0269 4141.9365   42.5489    6.0062     6.2566     5.1980    4.7526    0.0783   17.3024   12.8951    8.7888    7.1365   32.3287    2.2726    2.4861    0.0189 
   6386.0000   68.5429 4141.9521   42.7746    5.9733     6.4784     5.3488    4.8789    0.0785   17.7869   13.0703    8.7841    7.1836   32.7916    2.2605    2.4477    0.0186 
   6386.5000   68.7069 4141.9678   43.5232    5.9545     6.4295     5.2670    4.8491    0.0789   18.4197   13.2307    8.8276    7.1886   33.3611    2.2523    2.4457    0.0173 
   6387.0000   67.7082 4141.9834   43.7570    5.9412     6.2583     5.0747    4.7469    0.0796   18.9430   13.3621    8.7969    7.1516   33.4775    2.2456    2.4545    0.0181 
   6387.5000   59.2470 4141.9990   43.8850    5.9354     6.1016     4.8738    4.6584    0.0799   19.4055   13.4508    8.7513    7.1767   33.7471    2.2433    2.4739    0.0223 
   6388.0000   51.9035 4142.0146   43.7081    5.9426     6.0885     4.7929    4.6551    0.0799   19.7787   13.5181    8.7645    7.1408   34.0351    2.2463    2.5042    0.0286 
   6388.5000   43.0506 4142.0303   44.5635    5.9546     6.1868     4.8198    4.7169    0.0799   19.9094   13.5082    8.7780    7.0331   34.2516    2.2509    2.5062    0.0316 
   6389.0000   34.0920 4142.0459   46.0969    5.9509     6.2832     4.8904    4.7734    0.0799   19.9888   13.5960    8.7681    6.9390   34.4814    2.2502    2.5227    0.0336 
   6389.5000   31.5102 4142.0615   46.7784    5.9519     6.4626     5.0559    4.8780    0.0798   20.3330   13.9530    8.7112    6.8573   34.3676    2.2492    2.5342    0.0330 
