~Version Information
 VERS.                  2.0:   CWLS log ASCII Standard -VERSION 2.0
 WRAP.                   NO:   One line per depth step
~Well Information Block
#MNEM.UNIT     VALUE/NAME     DESCRIPTION
#---------     -----------    ---------------------------
 STRT.F              4550.0000: START DEPTH
 STOP.F              7650.0000: STOP DEPTH
 STEP.F                 0.5000: STEP DEPTH
 NULL.               -999.2500: NULL VALUE
 FTOP.          Formation Tops:  FORM TOPS DESC
 ILTD.               Lithology:  INTERP LTH DESC
 SVYD.               Survey_DS:  SURVEY DESC
 DMOD.             Drill Model:  DRILL MOD DESC
 DATE.      00.00.00 03-Apr-10:  END TIME
 STIM.      00.00.00 28-Mar-10:  START TIME
 DMF .           Kelly Bushing:  DRILL MEAS FROM
 PDAT.          Mean Sea Level:  PERMANENT DATUM
 DFST.                        :  DIST FSL TEXT
 DFWT.                        :  DIST FWL TEXT
 MMDL.            bggm2009.dat:  MAGNETIC MODEL
 MDS .              Win MagUTM:  MAG DATA SOURCE
 XYGR.     UTM Zones, Northern Hemisphere, Meters:  XYGROUP
 CGSY.               SS CLRK51:  CART GRID SYS
 CREF.     Ellipsoid Clarke - 1880:  CART REFERENCE
 CPJM.                        :  CART PROJ METHD
 CCDE.     UTM Clarke 1880 (CM 51), Meters:  CART COORD DESC
 LLGR.      Latitude/Longitude:  LLGROUP
 GGSY.                      LL:  GEO GRID SYS
 GREF.     Ellipsoid World Geodetic System :  GEO REFERENCE
 GPMT.                        :  GEO PROJ METHOD
 GCDE.     Generic Lat/Long's, Degrees, -180 ==> +180:  GEO COORD DESC
 SPUD.               20-Mar-10:  SPUD DATE
 MWDS.                   Dubai:  MWD SHOP
 JOBN.        AD-FE-0007255267:  JOB TICKET NUMB
 BASE.               Abu Dhabi:  LOGGING EQUIPMENT BASE LOCATION
 REGN.               Abu Dhabi:  REGION
 CULG.                        :  CUSTOMER LOGO
 COLG.           186HAL_lg.bmp:  COMPANY LOGO
 UNIT.                  166264:  LOGGING EQUIPMENT ID
 DOE .        AD-FE-0007255267:  DOE NUMBER
 UWI .        AD-FE-0007255267:  UNIQUE WELL IDENTIFIER
 API .        AD-FE-0007255267:  API NUMBER
 SON .        AD-FE-0007255267:  JOB NUMBER
 RANG.                        :  RANGE
 TOWN.                        :  TOWNSHIP
 SECT.                        :  SECTION
 DCON.             Al-Mansoory:  DIRECTNL CONTR
 LEAS.                        :  LEASE NAME
 SRVC.                     NDC:  CONTRACTOR
 CTRY.     United Arab Emirates:  COUNTRY NAME
 PROV.               Abu Dhabi:  PROVINCE
 STAT.               Abu Dhabi:  STATE NAME
 CNTY.               Abu Dhabi:  COUNTY NAME
 FLD .                    Shah:  FIELD NAME
 RIG .                   ND-50:  RIG NAME
 COMP.                    ADCO:  COMPANY
 WELL.            SY-027-1-04H:  WELL NAME
 LOC .                        :  LOCATION
 LMF .           Kelly Bushing:  LOG MEASURED FROM
 AZTC.deg             0.383835:  AZM TOTAL CORR
 GRDC.deg             1.093917:  GRID CORRECTION
 MDEC.deg             1.477752:  MAGNETIC DECL
 GVFD.g               1.000000:  GRAVITY FIELD
 MDIP.deg            34.939442:  MAGNETIC DIP
 MFLD.nT          42523.898438:  MAGNETIC FIELD
 VSDR.deg            55.740002:  VERT SEC DIRECT
 TDD .ft           7648.000000:  TOTAL DEPTH (DRILLER)
 STRD.ft           4648.000000:  START DEPTH
 APD .ft            429.000000:  DEPTH ABOVE PD
 EPD .ft              0.000000:  ELEVATION
 DFSL.ft              0.000000:  DISTANCE FSL
 DFWL.ft              0.000000:  DISTANCE FWL
 UTMY.m         2535096.000000:  UTM Y
 UTMX.m          788186.312500:  UTM X
 WHEW.ft              0.000000:  WELL HEAD E/W
 WHNS.ft              0.000000:  WELL HEAD N/S
 WDMS.ft              0.000000:  WD ELEV
 EGL .ft            407.799988:  GROUND ELEVATION
 TVDS.ft            429.000000:  TVDSS CORRECTN
 LONG.deg            53.809174:  LONGITUDE
 LATI.deg            22.900974:  LATITUDE
 VSEW.ft              0.000000:  VERT SEC E/W
 VSNS.ft              0.000000:  VERT SEC N/S
 CMER.deg            51.000000:  CENTRL MERIDIAN
 AGAP.ft              0.000000:  AIR GAP
 RCST.$/da            0.000000:  RIG COST
 EKB .ft            429.000000:  KB ELEVATION
 EDF .ft            428.000031:  DF ELEVATION
 TDL .ft           3000.000000:  TOTAL DEPTH (LOGGER)
 CSGD.ft           4170.000000:  CASING BOTTOM (DRILLER)
 CSGL.ft           4170.000000:  CASING BOTTOM (LOGGER)
 CSGS.in              9.625000:  CASING SIZE
 CSGW.lbpf           47.000000:  CASING WEIGHT
 HPTY.                       0:  HOLE POS TYPE
 NREF.                       2:  NORTH REFERENCE
 MAGU.                 1453103:  MAGUTM CHECKSUM
 VSC .                       0:  VS TO CLOSURE
 WTYP.                       2:  WELL TYPE
~Parameter Information Block
#MNEM.UNIT       Value        Description
#---------     -----------    ---------------------------
 R1  .     ‘ÁHDrilled 6" horizontal hole F/4648' T/7655'.:  Run Comments 1 
 TDL .ft           3000.000000:  Tot Depth Loggd 
 RRUN.                       4:  Rig Run Number 
 STRD.ft           4648.000000:  Start Depth 
 EDEP.ft           7648.000000:  End Depth 
 STIM.      22.00.32 30-Mar-10:  Start Time 
 ETIM.      20.37.20 04-Apr-10:  End Time 
 TLAB.      00.00.00 31-Mar-10:  Log Start Time 
 TLAT.      14.00.32 03-Apr-10:  Log End Time 
 ENG2.             Ahmed Samir:  Engineer 2 
 ENG3.       Sherif Abdel Aziz:  Engineer 3 
 WITN.        Hamed Abu Shanab:  Customer Rep 
 ORT .hr            129.396225:  Time Operating 
 DFT .                   Other:  Mud Type 
 DFV .spqt           40.000000:  Mud Viscosity 
 PH  .pH             10.000000:  Mud pH 
 DFL .mptm            7.000000:  Fluid Loss 
 RMS .ohmm            0.180000:  Mud Resistivity 
 MST .degF           74.000000:  Mud Sample Temperature 
 RMFS.ohmm            0.120000:  Mud Filtrate Resistivity 
 RMFT.degF           77.000000:  Mud Filtrate Sample Temperature 
 RMCS.ohmm            0.240000:  Mud Cake Resistivity 
 MCST.degF           70.000000:  Mud Cake Sample Temperature 
 RMB .ohmm            0.000000:  Rm @ Max Temp 
 ROP .fph            40.000000:  ROP Avg 
 ROP .fph            20.000000:  ROP Min 
 ROP .fph            60.000004:  ROP Max 
 BS  .in              0.000000:  Bit Size 
 TCS .hr             91.370071:  Time Ciculation Ended 
 RUN .                     400:  Run Number 
 DFD .ppg             8.690000:  Mud Density 
 MRT .                    HCIM:  Maximum Recorded Temperature 
~Parameter Information Block
#MNEM.UNIT       Value        Description
#---------     -----------    ---------------------------
 DFB .ft             50.060001:  Dist From Bit 
 SNIN.                  157772:  SN Insert 
 SP1 .sec            14.000000:  Sample Period 1 
 NOB .                8.000000:  Number Of Bins 
 DFB .ft             83.949997:  Dist From Bit 
 DFB .ft             98.709999:  Dist From Bit 
 SP1 .sec            14.000000:  Sample Period 1 
 SNIN.                  109091:  SN Insert 
 DDSV.sec            25.400002:  DDS AgvZ Total 
 DDSV.sec          4074.400391:  DDS AgvY Total 
 DDSV.sec          3504.600098:  DDS AgvX Total 
 DDSV.               90.000000:  DDS PkZ 10-15g 
 DDSV.              252.000000:  DDS PkY 25-40g 
 DDSV.              267.000000:  DDS PkX 25-40g 
 DDSV.sec            24.800001:  DDS AvgZ 1-2g 
 DDSV.sec          3932.800293:  DDS AvgY 1-2g 
 DDSV.sec             7.000000:  DDS AvgX 4-6g 
 DFB .ft             74.589996:  Dist From Bit 
 SNIN.                10990582:  SN Insert 
 SP1 .sec            12.000000:  Sample Period 1 
 DDSV.g              44.400002:  DDS AvgX Max 
 DDSV.sec             3.400000:  DDS AvgX 15+g 
 DDSV.sec             0.800000:  DDS AvgY 10-15g 
 DDSV.sec             0.000000:  DDS AvgZ 6-10g 
 DDSV.                6.000000:  DDS PkX 90-130g 
 DDSV.                3.000000:  DDS PkY 90-130g 
 DDSV.              213.000000:  DDS PkZ 30-50g 
 DDSV.sec             4.400000:  DDS AvgX 6-10g 
 DDSV.sec             6.800000:  DDS AvgY 4-6g 
 DDSV.sec             0.000000:  DDS AvgZ 4-6g 
 DDSV.               24.000000:  DDS PkX 60-90g 
 DDSV.                0.000000:  DDS PkZ 50+g 
 SP1 .sec            12.000000:  Sample Period 1 
 SNIN.                  105840:  SN Insert 
 DFB .ft             71.680000:  Dist From Bit 
 SNIN.                  TL-028:  SN Insert 
 SNC .                  TL-028:  SN Collar 
 TID .               28.000000:  Tool Identifier 
 DFB .ft             10.000000:  Dist From Bit 
 SNIN.                  270968:  SN Insert 
 SNIN.                  300324:  SN Insert 
 DFB .ft             36.639999:  Dist From Bit 
 SNIN.             11145527463:  SN Insert 
 DFB .ft              0.000000:  Dist From Bit 
 OTY .              Jet Oil II:  Oil Type 
 SNC .                 1127515:  SN Collar 
 SNIN.                  266071:  SN Insert 
 SP1 .sec             2.000000:  Sample Period 1 
 DFB .ft            110.440002:  Dist From Bit 
 DFB .ft             64.690002:  Dist From Bit 
 SNTX.                  270121:  SN Trans Insert 
 SP1 .sec            12.000000:  Sample Period 1 
~Curve Information Block
#MNEM.UNIT                 API CODE     Curve Description
#---------               -----------    ---------------------------
 DEPT.F                 00 000 000 000:  Depth
 SROP.fph               00 000 000 000:  Avg Rate of Penetration
 TVD .ft                00 000 000 000:  ROP True Vertical Depth
 SGRC.api               00 000 000 000:  DGR Combined Gamma Ray
 CALI.in                00 000 000 000:  ALD Hole Size Indicator
 DPHF.ohmm              00 000 000 000:  DP HF Res
 MDHF.ohmm              00 000 000 000:  MD HF Res
 SHHF.ohmm              00 000 000 000:  SH HF Res
 AMR .ohmm              00 000 000 000:  AFR Mud Resistivity
 SEDP.ohmm              00 000 000 000:  EWR Deep Phase Res
 SEMP.ohmm              00 000 000 000:  EWR Medium EWR Phase Res
 SESP.ohmm              00 000 000 000:  EWR Shallow EWR Phase Res
 SEXP.ohmm              00 000 000 000:  EWR Ext Shallow Phase Res
 SPLF.pu                00 000 000 000:  CTN Porosity Limestone
 SBD2.g/cc              00 000 000 000:  ALD LCRB Comp Density
 SNP2.b/e               00 000 000 000:  ALD LCRB Pe Factor
 SCO2.g/cc              00 000 000 000:  ALD LCRB Den Correction
~A   DEPT      SROP       TVD      SGRC      CALI       DPHF       MDHF      SHHF       AMR      SEDP      SEMP      SESP      SEXP      SPLF      SBD2      SNP2      SCO2    
# ...
   7172.0000   81.1638 4166.6582  110.8455    6.0636     4.0741     3.4015    3.2060    0.0749    7.8927    7.3378    8.8712    6.6132   13.1476    2.5716    3.1308    0.0757 
   7172.5000   82.6892 4166.6675  113.6909    6.0732     4.3513     3.5062    3.2692    0.0749    7.9928    8.6775    8.6471    6.4729   14.1815    2.5370    3.1333    0.0731 
   7173.0000   85.6565 4166.6763  115.4185    6.0670     4.5318     3.4095    3.2587    0.0748    7.8410    9.4939    8.3977    6.3887   15.5397    2.5079    3.0798    0.0692 
   7173.5000   87.1310 4166.6851  113.6174    6.0550     4.1871     2.8964    2.9005    0.0747    7.7437    9.9132    8.1880    6.0551   16.7120    2.4903    3.0555    0.0670 
   7174.0000   89.4989 4166.6938  112.8478    6.0483     3.7444     2.6090    2.5831    0.0747    7.6948    9.8322    7.7328    5.6926   17.3820    2.4762    3.0595    0.0688 
   7174.5000   93.3154 4166.7026  115.6260    6.0535     3.7233     2.7938    2.5689    0.0747    7.3613    9.4601    7.2358    5.4874   17.9165    2.4695    3.0373    0.0732 
   7175.0000   92.9338 4166.7114  119.1905    6.0720     4.2088     3.2446    2.8020    0.0746    6.9699    9.3332    6.9672    5.1823   18.4874    2.4652    3.0398    0.0781 
   7175.5000   90.4092 4166.7197  120.5805    6.1072     4.3016     3.3167    2.8170    0.0746    6.6054    9.3601    6.6714    4.8865   19.0159    2.4566    3.0352    0.1000 
   7176.0000   89.2433 4166.7280  119.9364    6.2385     3.4890     2.7024    2.4020    0.0746    6.2780    8.9704    6.2495    4.5080   19.6950    2.4510    3.0300    0.1175 
   7176.5000   89.0980 4166.7363  123.4402    6.3419     2.7370     2.1565    1.9748    0.0746    5.9500    8.1962    5.5547    4.2041   20.1008    2.4516    3.0782    0.1389 
   7177.0000   88.1591 4166.7446  129.5340    6.4564     2.6448     2.0280    1.9281    0.0746    5.9515    7.3231    4.8899    3.9263   20.3712    2.4615    3.0989    0.1530 
   7177.5000   88.0904 4166.7529  132.7733    6.5373     3.2409     2.3406    2.2648    0.0746    6.3538    6.4616    4.3179    3.4294   20.3516    2.4700    3.1497    0.1523 
   7178.0000   88.8130 4166.7612  134.2844    6.5434     4.1789     3.0451    2.7939    0.0747    6.6305    5.5313    3.8236    2.9895   20.2710    2.4633    3.3051    0.1384 
   7178.5000   90.6128 4166.7695  133.3985    6.5056     4.7153     3.7438    3.0492    0.0747    6.4199    4.9750    3.4932    3.3846   20.9602    2.4470    3.5144    0.1158 
   7179.0000   90.6742 4166.7778  129.7276    6.4745     4.8543     3.9354    3.1451    0.0747    5.7651    5.0288    3.9697    4.0147   21.2307    2.4461    3.6356    0.0967 
   7179.5000   82.7944 4166.7861  123.6174    6.4364     4.9689     3.9347    3.3118    0.0747    5.4530    5.1302    4.6047    4.8568   20.0624    2.4635    3.6992    0.0767 
   7180.0000   75.6892 4166.7944  121.0927    6.3491     5.1383     3.7754    3.3963    0.0745    5.6511    4.9217    5.4944    5.6938   19.4624    2.4775    3.5941    0.0955 
   7180.5000   73.4503 4166.8018  123.5323    6.3791     4.4927     3.4015    3.1849    0.0743    6.1289    4.8217    6.4024    5.8863   19.0793    2.5083    3.3714    0.1258 
   7181.0000   68.3068 4166.8096  130.3094    6.4300     4.1027     3.1675    2.9353    0.0742    6.3350    4.9088    6.6064    6.0132   19.1136    2.5242    3.1862    0.1356 
   7181.5000   59.0198 4166.8174  142.2016    6.4224     4.1356     3.2536    2.9505    0.0742    6.5578    5.4751    6.7135    6.1476   20.1911    2.5063    3.1079    0.1392 
   7182.0000   49.1308 4166.8252  151.3669    6.4153     4.4662     3.5341    3.0691    0.0742    6.8009    6.2259    6.8672    6.1489   21.7272    2.4824    3.0290    0.1430 
   7182.5000   44.1141 4166.8325  153.5481    6.4222     4.1888     3.4491    2.9059    0.0742    7.0450    6.4916    6.9971    5.9027   23.8970    2.4661    2.9758    0.1443 
   7183.0000   53.3847 4166.8403  154.0407    6.4410     3.3797     2.7920    2.3473    0.0743    7.2139    6.7962    6.8988    5.4900   24.8992    2.4574    2.9711    0.1368 
   7183.5000   66.7649 4166.8481  156.6405    6.4392     2.9350     2.3175    2.0210    0.0744    7.0892    7.1478    6.4547    5.1207   25.6540    2.4459    3.0139    0.1363 
   7184.0000   76.1071 4166.8555  156.0014    6.4685     3.0239     2.3209    2.0643    0.0745    7.1602    7.3605    6.0791    4.7644   26.0919    2.4524    3.0544    0.1407 
   7184.5000   79.8479 4166.8633  154.1145    6.5128     3.3128     2.5637    2.1540    0.0745    7.4807    7.3319    5.9712    4.1956   26.1781    2.4548    3.0904    0.1313 
   7185.0000   81.5274 4166.8711  157.1763    6.5329     3.8607     2.9961    2.3572    0.0745    7.1484    7.0276    5.4867    3.6032   26.0850    2.4396    3.1867    0.1100 
   7185.5000   81.3559 4166.8779  158.2915    6.5036     4.4511     3.3493    2.6394    0.0745    6.2346    6.9605    4.7404    3.3990   25.9934    2.4185    3.3775    0.0848 
   7186.0000   79.6526 4166.8853  154.6750    6.4421     4.5288     3.3831    2.7143    0.0745    5.5004    7.3175    4.3309    3.5436   25.0738    2.4153    3.5856    0.0675 
   7186.5000   78.5563 4166.8921  155.2812    6.4014     4.1967     3.1028    2.5697    0.0745    5.0284    7.0166    4.3000    3.9112   22.7536    2.4354    3.6152    0.0785 
   7187.0000   79.5835 4166.8994  155.5432    6.4103     3.6568     2.6401    2.2830    0.0746    5.0058    5.9721    4.6891    4.2922   21.5404    2.4715    3.4056    0.1009 
   7187.5000   81.2656 4166.9063  153.7957    6.4061     3.3269     2.4026    2.1430    0.0746    5.4424    5.1800    5.3176    4.5005   21.0780    2.4831    3.1741    0.1116 
   7188.0000   83.3144 4166.9131  151.0593    6.3885     3.3146     2.4050    2.1747    0.0746    6.1868    4.7980    6.0612    4.5301   21.6074    2.4741    3.0671    0.1075 
   7188.5000   86.0363 4166.9204  146.1059    6.3688     3.7142     2.7569    2.4271    0.0746    6.6675    5.0511    6.5308    4.2991   23.3532    2.4576    3.0058    0.1067 
   7189.0000   86.5588 4166.9272  143.0556    6.3782     4.3778     3.3038    2.8180    0.0747    6.7834    5.8698    6.3782    4.1768   24.2485    2.4583    3.0111    0.1071 
   7189.5000   81.8743 4166.9346  143.7325    6.3817     4.4333     3.2984    2.8805    0.0748    6.8946    7.0980    6.2258    4.1531   24.3726    2.4656    3.1063    0.1060 
   7190.0000   77.0625 4166.9414  147.1223    6.3655     3.8430     2.8124    2.5882    0.0748    6.9284    7.8954    5.9308    4.0947   24.4703    2.4705    3.1568    0.0975 
   7190.5000   75.5511 4166.9478  148.5693    6.3038     3.5135     2.5461    2.4402    0.0748    7.0480    7.8205    5.5138    4.2508   24.4777    2.4674    3.1955    0.0954 
   7191.0000   73.4276 4166.9546  148.9510    6.2663     3.4922     2.5894    2.4813    0.0747    7.7092    7.6614    5.5929    4.4375   23.9068    2.4672    3.2325    0.1015 
   7191.5000   68.6308 4166.9609  151.9769    6.2730     3.3840     2.5688    2.4490    0.0745    8.1217    7.3265    5.8523    4.3605   22.9720    2.4676    3.2398    0.1020 
   7192.0000   65.4082 4166.9673  155.5456    6.2772     3.3541     2.5300    2.4192    0.0744    8.0557    6.8565    5.7882    4.0748   22.5925    2.4540    3.2327    0.0980 
   7192.5000   57.0762 4166.9736  150.8509    6.2401     3.5500     2.7049    2.5098    0.0744    7.5375    7.2321    5.4872    3.9105   23.0909    2.4519    3.2055    0.0974 
   7193.0000   45.3366 4166.9805  143.8354    6.2165     3.8974     3.0573    2.6847    0.0744    6.8210    7.9480    5.3590    3.7941   23.2861    2.4595    3.1301    0.0902 
   7193.5000   41.4757 4166.9868  133.9985    6.1638     4.3224     3.4723    2.9124    0.0743    6.3089    8.2156    5.3014    3.7769   23.4416    2.4598    3.0759    0.0790 
   7194.0000   43.0564 4166.9932  123.0254    6.0942     4.6755     3.6118    3.1068    0.0743    6.3303    7.7686    5.3485    3.9492   24.0640    2.4641    3.0674    0.0714 
   7194.5000   50.6339 4166.9995  115.3560    6.0546     4.6488     3.3697    3.1070    0.0743    6.6023    7.0966    5.5316    4.2004   24.3519    2.4745    3.0501    0.0651 
