~Version Information
 VERS.                  2.0:   CWLS log ASCII Standard -VERSION 2.0
 WRAP.                   NO:   One line per depth step
~Well Information Block
#MNEM.UNIT     VALUE/NAME     DESCRIPTION
#---------     -----------    ---------------------------
 STRT.M              2355.0000: START DEPTH
 STOP.M              3523.6000: STOP DEPTH
 STEP.M                 0.1000: STEP DEPTH
 NULL.               -999.2500: NULL VALUE
 XYGR.     Australia/New Zealand Coordinate Systems:  XYGROUP
 LLGR.      Latitude/Longitude:  LLGROUP
 CREF.     Datum Geocentric Datum of Austra:  CART REFERENCE
 GREF.     Ellipsoid World Geodetic System :  GEO REFERENCE
 CGSY.             SS GDA94-50:  CART GRID SYS
 GGSY.                      LL:  GEO GRID SYS
 CCDE.     UTM Zone 50S on Geocentric Datum of Australia 1994, Meters:  CART COORD DESC
 GCDE.     Generic Lat/Long's, Degrees, -180 ==> +180:  GEO COORD DESC
 UWI .                 W006107:  UNIQUE WELL IDENTIFIER
 API .                 W006107:  API NUMBER
 UNIT.                11741669:  LOGGING EQUIPMENT ID
 DCON.        Sperry Drilling :  DIRECTNL CONTR
 RIG .              Ensign 970:  RIG NAME
 MWDS.                Jandakot:  MWD SHOP
 SRVC.     Ensign Energy Services:  CONTRACTOR
 FLD .               Walyering:  FIELD NAME
 CTRY.               Australia:  COUNTRY NAME
 PROV.       Western Australia:  PROVINCE
 STAT.       Western Australia:  STATE NAME
 REGN.            Asia Pacific:  REGION
 BASE.                   Perth:  LOGGING EQUIPMENT BASE LOCATION
 WTYP.                Vertical:  WELL TYPE
 PDAT.          Mean Sea Level:  PERMANENT DATUM
 MDS .              Win MagUTM:  MAG DATA SOURCE
 MMDD.          22 April, 2022:  MAG DATA DATE
 MMDL.            bggm2021.dat:  MAGNETIC MODEL
 SON .        PA-XX-0907756569:  JOB NUMBER
 COMP.     Strike South West Pty Ltd:  COMPANY
 WELL.             Walyering 6:  WELL NAME
 FTOP.          Formation Tops:  FORM TOPS DESC
 ILTD.               Lithology:  INTERP LTH DESC
 SVYD.                  Survey:  SURVEY DESC
 DMOD.             Drill Model:  DRILL MOD DESC
 HPTY.       Minimum Curvature:  HOLE POS TYPE
 NREF.                    Grid:  NORTH REFERENCE
 SPUD.               25-Apr-22:  SPUD DATE
 DATE.      12.00.00 13-May-22:  END TIME
 STIM.      17.00.00 24-Apr-22:  START TIME
 DMF .             Drill Floor:  DRILL MEAS FROM
 DFST.                        :  DIST FSL TEXT
 DFWT.                        :  DIST FWL TEXT
 CNTY.                        :  COUNTY
 LOC .                        :  LOCATION
 LMF .             Drill Floor:  LOG MEASURED FROM
 CMER.deg           117.000000:  CENTRL MERIDIAN
 DEP .m               0.000000:  DEPTH
 AGAP.m               7.160000:  AIR GAP
 MMDE.m             -31.623000:  MAGUTM CALC DEP
 APD .m               7.160000:  DEPTH ABOVE PD
 WDMS.m               0.000000:  WD ELEV
 EGL .m              96.589993:  GROUND ELEVATION
 EPD .m              96.589993:  ELEVATION
 AZTC.deg            -2.153514:  AZM TOTAL CORR
 GRDC.deg             0.779280:  GRID CORRECTION
 MDEC.deg            -1.374234:  MAGNETIC DECL
 MDIP.deg           -64.762985:  MAGNETIC DIP
 MFLD.nT          57671.410156:  MAGNETIC FIELD
 GVFD.g               1.000000:  GRAVITY FIELD
 VSDR.deg             0.000000:  VERT SEC DIRECT
 TDD .m            3551.000070:  TOTAL DEPTH (DRILLER)
 SDEP.m              74.999999:  START DEPTH
 DFSL.m               0.000000:  DISTANCE FSL
 DFWL.m               0.000000:  DISTANCE FWL
 UTMY.m         6601158.480000:  UTM Y
 UTMX.m          353924.590000:  UTM X
 WHEW.m               0.000000:  WELL HEAD E/W
 WHNS.m               0.000000:  WELL HEAD N/S
 LONG.deg           115.474500:  LONGITUDE
 LATI.deg           -30.713472:  LATITUDE
 TVDS.m             103.749993:  TVDSS CORRECTN
 EKB .m             103.750002:  KB ELEVATION
 EDF .m             103.750002:  DF ELEVATION
 TDL .m            1189.000020:  TOTAL DEPTH (LOGGER)
 CSGD.m            2359.000046:  CASING BOTTOM (DRILLER)
 CSGL.m            2359.000046:  CASING BOTTOM (LOGGER)
 CSGS.mm            244.474994:  CASING SIZE
 CSGW.kgpm           69.942862:  CASING WEIGHT
 MAGU.                 1391237:  MAGUTM CHECKSUM
 VSC .                       1:  VS TO CLOSURE
~Parameter Information Block
#MNEM.UNIT       Value        Description
#---------     -----------    ---------------------------
 AV  .mps             2.550000:  Ann Velocity 
 AVMX.mps             2.933333:  Max Ann Veloc 
 AZIF.deg             4.250000:  Azm, Final 
 BHAT.               Mud Motor:  BHA Type 
 BREV.krev         1163.365845:  Rev Bit Total 
 BROT.°/30m           0.050000:  Build Rotating 
 BS  .mm            215.899994:  Bit Size 
 BSZ .mm            215.899994:  Bit Size 
 BTPL.kPag         3033.715332:  Bit Press Loss 
 CABU.                      No:  Customer Abuse 
 CGEO.             Dan Walding:  Customer Geo 
 COMM.                     ì¿q:  Run Comments 1 
 TCS .hr            105.300003:  Time Ciculation Ended 
 CV  .mps             4.283333:  Crit Velocity 
 CVMX.mps             4.600000:  Max Crit Veloc 
 DD1 .     Christian Arrindell:  Direct Drillr 1 
 DD2 .            Ivan Tutynin:  Direct Drillr 2 
 DDSV.               Mud Motor:  DD Service 
 DEFF.%              95.000000:  % Det Eff 
 DLRX.°/30m           1.280000:  Dogleg Rot Max 
 DLSO.°/30m           1.400000:  Dogleg Oriented 
 DLSX.°/30m           2.000000:  Dogleg Str Max 
 DRET.      00.30.00 12-May-22:  Drill End Time 
 DRST.      19.30.00 07-May-22:  Drill Start Tim 
 DTIM.hr             80.400002:  Time Drilling 
 EDEP.m            3551.000000:  End Depth 
 ENG1.            Ade Suhendar:  Engineer 1 
 ENG2.        Yiek Chong Leong:  Engineer 2 
 ENG3.           Sufyan Zainal:  Engineer 3 
 ETIM.      23.45.00 12-May-22:  End Time 
 FLOI.m3pm            2.035733:  Flow In 
 FLON.m3pm            1.324854:  Flow In Min 
 FLOS.mptm            4.000000:  Fluid Loss 
 FLOX.m3pm            2.119767:  Flow In Max 
 DFT .                 Polymer:  Mud Type 
 FTRO.       Formation Presure:  FTWD Run Obj 
 HFLO.                      No:  High Flow 
 HPRE.                      No:  High Pressure 
 HTEM.                      No:  High Temp 
 HYDO.m               2.500000:  Hydro Offset 
 IFIN.deg             1.860000:  Inc, Final 
 IMAX.deg             5.744654:  Inc Max 
 IMIN.deg             0.433048:  Inc Min 
 IMND.m            2565.059814:  Inc Min Depth 
 IMXD.m            2364.389893:  Inc Max Depth 
 JARR.                      No:  Jarring 
 LETM.      00.30.00 12-May-22:  Log End Time 
 LOST.hr                     0:  Lost Rig Time 
 LSTM.      19.30.00 07-May-22:  Log Start Time 
 MDCL.ppm         79803.000000:  Mud Chlorides 
 MDES.             Fresh Water:  Mud Desc 
 DFD .kg/m3        1138.351074:  Mud Density 
 MDMN.kg/m3        1114.385986:  Dens Mud Min 
 MDMX.kg/m3        1150.333862:  Dens Mud Max 
 PH  .pH             10.100000:  Mud pH 
 MOIL.                       0:  Run Mud Oil % 
 MOWR.                   0 100:  Run Mud OWR 
 MSND.                     0.2:  Run Mud Sand % 
 MSOL.                     4.6:  Run Mud Solids% 
 MTV .                GeoForce:  Motor Variant 
 DFV .spl            82.445999:  Mud Viscosity 
 MWOD.mm            171.449997:  MWD Tool OD 
 MWSI.                      No:  Serv Intrp, MWD 
 OTIM.hr            146.500000:  Time Operating 
 PCON.          Wear / Scratch:  Pad Condition 
 PMAX.kPag        35887.472656:  Press Op, Max 
 PV  .mPsec          40.000000:  Mud PV 
 RMS .ohmm            0.606000:  Mud Resistivity 
 RMCS.ohmm            0.076000:  Mud Cake Resistivity 
 MCST.degC           19.830000:  Mud Cake Sample Temperature 
 RMFS.ohmm            0.050000:  Mud Filtrate Resistivity 
 RMFT.degC           21.499998:  Mud Filtrate Sample Temperature 
 RMMT.ohmm            0.266500:  Rm @ Max Temp 
 MST .degC           21.000002:  Mud Sample Temperature 
 RUN .                     300:  Run Number 
 ROPA.m/hr           14.790000:  ROP Avg 
 ROPN.m/hr            1.870000:  ROP Min 
 ROPX.m/hr           32.700001:  ROP Max 
 RPMA.rpm            52.500000:  RPM Surface Avg 
 RPMN.rpm            30.000000:  RPM Surface Min 
 RPMX.rpm            60.000000:  RPM Surface Max 
 RRUN.                       3:  Rig Run Number 
 RTIM.hr              8.510000:  Time Reaming 
 SAZI.deg           199.820007:  Azm, Start 
 SDEP.m            2362.000000:  Start Depth 
 SIDD.                      No:  Serv Intrp, DD 
 SINC.deg             5.740000:  Inc, Start 
 SPPA.kPag        17754.474609:  SPP Avg 
 SPPN.kPag        10893.795898:  SPP Min 
 SPPX.kPag        22063.382813:  SPP Max 
 STIM.      21.15.00 06-May-22:  Start Time 
 SVCS.                 DD, MWD:  Services 
 SVER.                9.200000:  Sperry Version 
 TDAT.m            1189.000000:  Tot Depth Attmp 
 TDDF.                      No:  Trip for DD 
 TDLG.m            1189.000000:  Tot Depth Loggd 
 TFF .                      No:  Trip for Fail 
 TQAA.kN-m            0.013558:  Torque Abs Avg 
 TQAN.kN-m            0.004067:  Torque Abs Min 
 TQAX.kN-m            0.024405:  Torque Abs Max 
 TRRT.°/30m           0.860000:  Turn Rotating 
 MRT .                  EWR-P4:  Maximum Recorded Temperature 
 TTMX.degC           75.199997:  Max Tool Temp 
 VS01.                12278995:  Virtual Str1 SN 
 VS02.                12394165:  Virtual Str2 SN 
 VS03.                13686255:  Virtual Str3 SN 
 VS04.                90681167:  Virtual Str4 SN 
 VS05.                90683981:  Virtual Str5 SN 
 VS06.                90683974:  Virtual Str6 SN 
 VS07.                90683978:  Virtual Str7 SN 
 VS08.                90683983:  Virtual Str8 SN 
 VS09.                13531224:  Virtual Str9 SN 
 WBMN.kdN             2.668932:  WOB Min 
 WITN.          Peter Clarkson:  Customer Rep 2 
 WITN.        Shaughan Corless:  Customer Rep 
 WOBA.kdN             7.045982:  WOB Avg 
 WOBX.kdN            10.675730:  WOB Max 
 YP  .pa             14.364045:  Yield Point 
~Curve Information Block
#MNEM.UNIT                 API CODE     Curve Description
#---------               -----------    ---------------------------
 DEPT.M                 00 000 000 000:  Depth
 AFRSAC.ohmm            00 000 000 000:  AFR Shallow Avg Res BC
 AFRMAC.ohmm            00 000 000 000:  AFR Medium Avg Res BC
 AFRDAC.ohmm            00 000 000 000:  AFR Deep Avg Res BC
#Other Information
#
#WARRANTY: Halliburton will use its best efforts to furnish customers with 
#accurate information and interpretations that are part of, and incident to, the services 
#provided.  However, Halliburton cannot and does not warrant the accuracy 
#or correctness of such information and interpretations.  Under no circumstances should any 
#such information or interpretation be relied upon as the sole basis for any drilling, 
#completion, production, or financial decision or any procedure involving any risk to the 
#safety of any drilling venture, drilling rig or its crew or any other third party.  The 
#Customer has full responsibility for all drilling, completion and production operation.  
#Halliburton makes no representations or warranties, either expressed or 
#implied, including, but not limited to, the implied warranties of merchantability or fitness 
#for a particular purpose, with respect to the services rendered.  In no event will 
#Halliburton be liable for failure to obtain any particular results or for 
#any damages, including, but not limited to, indirect, special or consequential damages, 
#resulting from the use of any information or interpretation provided by Halliburton.
#
~A   DEPT      AFRSAC     AFRMAC     AFRDAC   
# ...
   2964.0000     3.8011     5.4224     6.1546
   2964.1000     3.5508     5.6808     5.6026
   2964.2000     3.6675     6.2134     5.7932
   2964.3000     4.0872     7.3461     6.6677
   2964.4000     4.6726     9.0285     7.8156
   2964.5000     5.5780    11.5515     9.2796
   2964.6000     5.3635    10.0287     8.0866
   2964.7000     4.7396     7.9610     6.5854
   2964.8000     4.1719     6.6074     5.9531
   2964.9000     3.6130     5.5575     5.3192
   2965.0000     3.2594     4.9724     4.9053
   2965.1000     2.7480     4.2251     4.1694
   2965.2000     2.7443     4.4179     4.4933
   2965.3000     2.8124     4.9318     5.1757
   2965.4000     2.6874     5.0780     5.3810
   2965.5000     2.4014     4.3801     4.7433
   2965.6000     2.1007     3.7579     3.9772
   2965.7000     1.9569     3.5139     3.7346
   2965.8000     1.8610     3.6176     3.7979
   2965.9000     1.7792     3.7512     3.9043
   2966.0000     1.7071     3.8843     3.9244
   2966.1000     1.6706     3.9539     3.8611
   2966.2000     1.6702     4.0699     3.8229
   2966.3000     1.6603     4.1755     3.7760
   2966.4000     1.6743     4.4423     3.8366
   2966.5000     1.7577     4.8678     4.1251
   2966.6000     1.8998     5.1979     4.5910
   2966.7000     1.9888     4.8854     4.8288
   2966.8000     2.0419     4.3246     4.7171
   2966.9000     2.0236     3.9069     4.2438
   2967.0000     2.0137     3.6871     3.8621
   2967.1000     2.0151     3.8353     3.6807
   2967.2000     2.0424     4.3275     3.8621
   2967.3000     2.1331     4.6777     4.3561
   2967.4000     2.1545     4.9665     4.5426
   2967.5000     2.1280     4.6362     4.3748
   2967.6000     2.0065     4.2335     3.8246
   2967.7000     1.9571     3.9628     3.5529
   2967.8000     1.9378     3.6511     3.4442
   2967.9000     1.9300     3.4751     3.4150
   2968.0000     2.3474     3.5646     3.9657
   2968.1000     3.3535     4.2550     5.5032
   2968.2000     5.7866     5.7725     8.4208
   2968.3000     8.9730     8.3452    11.9779
   2968.4000     9.1459    11.0129    12.3067
   2968.5000     8.2467    10.5887    10.5001
   2968.6000     6.3565     7.8419     7.8426
   2968.7000     4.9449     6.1766     5.9373
   2968.8000     4.1702     5.0579     4.8961
   2968.9000     3.8297     5.0207     4.7041
   2969.0000     4.5118     6.4223     6.1070
   2969.1000     5.9573     9.3726     9.6282
   2969.2000     6.8936    10.6848    14.3042
   2969.3000     5.8456     8.8241    14.4709
   2969.4000     3.7199     5.7898     8.7061
   2969.5000     2.7222     4.5023     5.7794
   2969.6000     2.3633     4.2567     4.7710
   2969.7000     2.1364     4.2549     4.4716
   2969.8000     1.9705     4.2357     4.5051
   2969.9000     1.8798     4.1852     4.6772
   2970.0000     1.8709     4.2221     4.9243
   2970.1000     1.8944     4.3446     5.1788
   2970.2000     1.8870     4.4567     5.2547
   2970.3000     1.8516     4.4992     5.1737
   2970.4000     1.8283     4.4304     5.0515
   2970.5000     1.8243     4.2977     4.9102
   2970.6000     1.8912     4.3189     4.9864
   2970.7000     2.0651     4.6915     5.4391
   2970.8000     2.3431     5.4183     6.2784
   2970.9000     2.6522     6.1681     7.1285
   2971.0000     2.8668     6.4035     7.3393
   2971.1000     3.0279     6.1293     6.9804
   2971.2000     3.2724     5.9959     6.8683
   2971.3000     3.7444     6.4913     7.5329
   2971.4000     4.6781     8.2009     9.9645
   2971.5000     6.6700    11.6908    15.3932
   2971.6000     9.6600    15.0649    21.1499
   2971.7000    12.0993    15.4115    20.7565
   2971.8000    12.0190    13.0830    15.6555
   2971.9000    10.7749    11.8421    12.5014
   2972.0000     9.9289    11.5055    11.2476
   2972.1000     8.9692    10.5152     9.9333
   2972.2000     7.8466     8.9524     8.4198
   2972.3000     6.9101     7.6859     7.1380
   2972.4000     6.4890     7.0852     6.6253
   2972.5000     6.6957     7.3812     6.8067
   2972.6000     7.1848     8.1889     7.3827
   2972.7000     8.1683    10.1787     8.9299
   2972.8000    10.4897    14.1458    12.2671
   2972.9000    14.3735    19.5892    18.4605
   2973.0000    19.5696    24.0163    24.6911
   2973.1000    19.1091    18.6704    21.7252
   2973.2000    14.8453    12.5760    15.1998
   2973.3000    11.6439     9.5693    10.9006
   2973.4000    10.2722     8.1843     8.6860
   2973.5000     9.9571     7.7879     7.8812
   2973.6000     9.7859     7.7360     7.5300
   2973.7000     9.9585     8.9683     8.1121
   2973.8000    11.0955    13.7520    10.3663
   2973.9000    14.0664    27.1112    15.2831
   2974.0000    15.8960    41.8055    18.4876
   2974.1000    17.4102    28.7228    19.3270
   2974.2000    18.4057    23.1914    19.0411
   2974.3000    20.1342    21.7269    20.2733
   2974.4000    21.7066    23.6357    22.6232
   2974.5000    17.6004    19.2948    18.1186
   2974.6000    13.6084    13.7241    13.4481
   2974.7000    11.6815    11.0473    11.2405
   2974.8000    10.1993     9.3676     9.6546
   2974.9000     9.0839     8.2187     8.4981
   2975.0000     8.6548     7.9854     8.1582
   2975.1000     9.2351     8.8987     9.0221
   2975.2000    11.1574    11.8328    11.6087
   2975.3000    12.5822    14.9280    14.0268
   2975.4000    12.9058    15.7126    14.9749
   2975.5000    12.6033    15.1833    14.6022
   2975.6000    11.8847    14.1246    13.4856
   2975.7000    10.5328    12.2707    11.5019
   2975.8000     9.3209    10.5631     9.8043
   2975.9000     8.6417     8.9497     8.8293
   2976.0000     8.8170     8.3632     8.8893
   2976.1000     9.0955     8.3993     9.1673
   2976.2000     9.1770     8.7139     9.3287
   2976.3000     9.3144     9.1916     9.6141
   2976.4000     9.5150     9.7806    10.0772
   2976.5000     9.7080    10.3728    10.7365
   2976.6000    10.0500    11.0605    11.4629
   2976.7000    10.1650    11.6927    11.8181
   2976.8000     9.1764    11.6298    10.4941
   2976.9000     7.6280     9.8971     8.3289
   2977.0000     6.6351     8.1423     6.9200
   2977.1000     6.4585     7.3633     6.5740
   2977.2000     7.5142     7.9600     7.7165
   2977.3000     8.8233     9.1918     9.1618
   2977.4000     9.6415     9.3907     9.7819
   2977.5000    10.6485     8.7374     9.9930
   2977.6000    12.6481     8.7772    11.1715
   2977.7000    17.7798    11.2649    15.2961
   2977.8000    24.3386    16.7149    21.9136
   2977.9000    24.6217    22.7084    24.0383
   2978.0000    21.7198    22.4862    21.1486
   2978.1000    20.4929    21.8179    19.6882
   2978.2000    22.7479    23.0302    22.0182
   2978.3000    27.1937    28.0422    27.5656
   2978.4000    31.4404    33.0065    33.9137
   2978.5000    34.0220    34.5003    38.4476
   2978.6000    35.2297    33.8314    39.5826
   2978.7000    35.8656    33.5803    39.8022
   2978.8000    37.1483    35.1248    41.4119
   2978.9000    36.3976    32.1770    42.9493
   2979.0000    26.9290    21.8154    33.3394
   2979.1000    18.5822    15.5743    21.6690
   2979.2000    14.5712    13.1496    16.3209
   2979.3000    12.1897    12.4370    13.7090
   2979.4000    10.9122    10.9293    12.6910
   2979.5000     9.1985     8.6821    10.5176
   2979.6000     7.1561     6.2181     7.7785
   2979.7000     5.7452     5.2780     5.8852
   2979.8000     5.1215     5.1516     5.2258
   2979.9000     4.9324     5.5929     5.2654
   2980.0000     5.1901     6.1308     5.9458
   2980.1000     5.5228     6.5884     6.8421
   2980.2000     5.8741     7.1212     7.6263
   2980.3000     6.2412     7.6051     8.3215
   2980.4000     6.4341     7.6614     8.7351
   2980.5000     6.4838     7.4567     8.7900
   2980.6000     6.3443     7.2374     8.3250
   2980.7000     6.1515     7.0041     7.6692
   2980.8000     6.2484     6.8485     7.4983
   2980.9000     6.6917     6.8261     7.9809
   2981.0000     7.5492     7.2992     9.1639
   2981.1000     8.9027     8.2145    10.8885
   2981.2000     9.7679     9.0010    11.4911
   2981.3000    10.1104     9.3559    11.1146
