~Version Information
 VERS.                  2.0:   CWLS log ASCII Standard -VERSION 2.0
 WRAP.                   NO:   One line per depth step
~Well Information Block
#MNEM.UNIT     VALUE/NAME     DESCRIPTION
#---------     -----------    ---------------------------
 STRT.M              2355.0000: START DEPTH
 STOP.M              3523.6000: STOP DEPTH
 STEP.M                 0.1000: STEP DEPTH
 NULL.               -999.2500: NULL VALUE
 XYGR.     Australia/New Zealand Coordinate Systems:  XYGROUP
 LLGR.      Latitude/Longitude:  LLGROUP
 CREF.     Datum Geocentric Datum of Austra:  CART REFERENCE
 GREF.     Ellipsoid World Geodetic System :  GEO REFERENCE
 CGSY.             SS GDA94-50:  CART GRID SYS
 GGSY.                      LL:  GEO GRID SYS
 CCDE.     UTM Zone 50S on Geocentric Datum of Australia 1994, Meters:  CART COORD DESC
 GCDE.     Generic Lat/Long's, Degrees, -180 ==> +180:  GEO COORD DESC
 UWI .                 W006107:  UNIQUE WELL IDENTIFIER
 API .                 W006107:  API NUMBER
 UNIT.                11741669:  LOGGING EQUIPMENT ID
 DCON.        Sperry Drilling :  DIRECTNL CONTR
 RIG .              Ensign 970:  RIG NAME
 MWDS.                Jandakot:  MWD SHOP
 SRVC.     Ensign Energy Services:  CONTRACTOR
 FLD .               Walyering:  FIELD NAME
 CTRY.               Australia:  COUNTRY NAME
 PROV.       Western Australia:  PROVINCE
 STAT.       Western Australia:  STATE NAME
 REGN.            Asia Pacific:  REGION
 BASE.                   Perth:  LOGGING EQUIPMENT BASE LOCATION
 WTYP.                Vertical:  WELL TYPE
 PDAT.          Mean Sea Level:  PERMANENT DATUM
 MDS .              Win MagUTM:  MAG DATA SOURCE
 MMDD.          22 April, 2022:  MAG DATA DATE
 MMDL.            bggm2021.dat:  MAGNETIC MODEL
 SON .        PA-XX-0907756569:  JOB NUMBER
 COMP.     Strike South West Pty Ltd:  COMPANY
 WELL.             Walyering 6:  WELL NAME
 FTOP.          Formation Tops:  FORM TOPS DESC
 ILTD.               Lithology:  INTERP LTH DESC
 SVYD.                  Survey:  SURVEY DESC
 DMOD.             Drill Model:  DRILL MOD DESC
 HPTY.       Minimum Curvature:  HOLE POS TYPE
 NREF.                    Grid:  NORTH REFERENCE
 SPUD.               25-Apr-22:  SPUD DATE
 DATE.      12.00.00 13-May-22:  END TIME
 STIM.      17.00.00 24-Apr-22:  START TIME
 DMF .             Drill Floor:  DRILL MEAS FROM
 DFST.                        :  DIST FSL TEXT
 DFWT.                        :  DIST FWL TEXT
 CNTY.                        :  COUNTY
 LOC .                        :  LOCATION
 LMF .             Drill Floor:  LOG MEASURED FROM
 CMER.deg           117.000000:  CENTRL MERIDIAN
 DEP .m               0.000000:  DEPTH
 AGAP.m               7.160000:  AIR GAP
 MMDE.m             -31.623000:  MAGUTM CALC DEP
 APD .m               7.160000:  DEPTH ABOVE PD
 WDMS.m               0.000000:  WD ELEV
 EGL .m              96.589993:  GROUND ELEVATION
 EPD .m              96.589993:  ELEVATION
 AZTC.deg            -2.153514:  AZM TOTAL CORR
 GRDC.deg             0.779280:  GRID CORRECTION
 MDEC.deg            -1.374234:  MAGNETIC DECL
 MDIP.deg           -64.762985:  MAGNETIC DIP
 MFLD.nT          57671.410156:  MAGNETIC FIELD
 GVFD.g               1.000000:  GRAVITY FIELD
 VSDR.deg             0.000000:  VERT SEC DIRECT
 TDD .m            3551.000070:  TOTAL DEPTH (DRILLER)
 SDEP.m              74.999999:  START DEPTH
 DFSL.m               0.000000:  DISTANCE FSL
 DFWL.m               0.000000:  DISTANCE FWL
 UTMY.m         6601158.480000:  UTM Y
 UTMX.m          353924.590000:  UTM X
 WHEW.m               0.000000:  WELL HEAD E/W
 WHNS.m               0.000000:  WELL HEAD N/S
 LONG.deg           115.474500:  LONGITUDE
 LATI.deg           -30.713472:  LATITUDE
 TVDS.m             103.749993:  TVDSS CORRECTN
 EKB .m             103.750002:  KB ELEVATION
 EDF .m             103.750002:  DF ELEVATION
 TDL .m            1189.000020:  TOTAL DEPTH (LOGGER)
 CSGD.m            2359.000046:  CASING BOTTOM (DRILLER)
 CSGL.m            2359.000046:  CASING BOTTOM (LOGGER)
 CSGS.mm            244.474994:  CASING SIZE
 CSGW.kgpm           69.942862:  CASING WEIGHT
 MAGU.                 1391237:  MAGUTM CHECKSUM
 VSC .                       1:  VS TO CLOSURE
~Parameter Information Block
#MNEM.UNIT       Value        Description
#---------     -----------    ---------------------------
 AV  .mps             2.550000:  Ann Velocity 
 AVMX.mps             2.933333:  Max Ann Veloc 
 AZIF.deg             4.250000:  Azm, Final 
 BHAT.               Mud Motor:  BHA Type 
 BREV.krev         1163.365845:  Rev Bit Total 
 BROT.°/30m           0.050000:  Build Rotating 
 BS  .mm            215.899994:  Bit Size 
 BSZ .mm            215.899994:  Bit Size 
 BTPL.kPag         3033.715332:  Bit Press Loss 
 CABU.                      No:  Customer Abuse 
 CGEO.             Dan Walding:  Customer Geo 
 COMM.                     ì¿q:  Run Comments 1 
 TCS .hr            105.300003:  Time Ciculation Ended 
 CV  .mps             4.283333:  Crit Velocity 
 CVMX.mps             4.600000:  Max Crit Veloc 
 DD1 .     Christian Arrindell:  Direct Drillr 1 
 DD2 .            Ivan Tutynin:  Direct Drillr 2 
 DDSV.               Mud Motor:  DD Service 
 DEFF.%              95.000000:  % Det Eff 
 DLRX.°/30m           1.280000:  Dogleg Rot Max 
 DLSO.°/30m           1.400000:  Dogleg Oriented 
 DLSX.°/30m           2.000000:  Dogleg Str Max 
 DRET.      00.30.00 12-May-22:  Drill End Time 
 DRST.      19.30.00 07-May-22:  Drill Start Tim 
 DTIM.hr             80.400002:  Time Drilling 
 EDEP.m            3551.000000:  End Depth 
 ENG1.            Ade Suhendar:  Engineer 1 
 ENG2.        Yiek Chong Leong:  Engineer 2 
 ENG3.           Sufyan Zainal:  Engineer 3 
 ETIM.      23.45.00 12-May-22:  End Time 
 FLOI.m3pm            2.035733:  Flow In 
 FLON.m3pm            1.324854:  Flow In Min 
 FLOS.mptm            4.000000:  Fluid Loss 
 FLOX.m3pm            2.119767:  Flow In Max 
 DFT .                 Polymer:  Mud Type 
 FTRO.       Formation Presure:  FTWD Run Obj 
 HFLO.                      No:  High Flow 
 HPRE.                      No:  High Pressure 
 HTEM.                      No:  High Temp 
 HYDO.m               2.500000:  Hydro Offset 
 IFIN.deg             1.860000:  Inc, Final 
 IMAX.deg             5.744654:  Inc Max 
 IMIN.deg             0.433048:  Inc Min 
 IMND.m            2565.059814:  Inc Min Depth 
 IMXD.m            2364.389893:  Inc Max Depth 
 JARR.                      No:  Jarring 
 LETM.      00.30.00 12-May-22:  Log End Time 
 LOST.hr                     0:  Lost Rig Time 
 LSTM.      19.30.00 07-May-22:  Log Start Time 
 MDCL.ppm         79803.000000:  Mud Chlorides 
 MDES.             Fresh Water:  Mud Desc 
 DFD .kg/m3        1138.351074:  Mud Density 
 MDMN.kg/m3        1114.385986:  Dens Mud Min 
 MDMX.kg/m3        1150.333862:  Dens Mud Max 
 PH  .pH             10.100000:  Mud pH 
 MOIL.                       0:  Run Mud Oil % 
 MOWR.                   0 100:  Run Mud OWR 
 MSND.                     0.2:  Run Mud Sand % 
 MSOL.                     4.6:  Run Mud Solids% 
 MTV .                GeoForce:  Motor Variant 
 DFV .spl            82.445999:  Mud Viscosity 
 MWOD.mm            171.449997:  MWD Tool OD 
 MWSI.                      No:  Serv Intrp, MWD 
 OTIM.hr            146.500000:  Time Operating 
 PCON.          Wear / Scratch:  Pad Condition 
 PMAX.kPag        35887.472656:  Press Op, Max 
 PV  .mPsec          40.000000:  Mud PV 
 RMS .ohmm            0.606000:  Mud Resistivity 
 RMCS.ohmm            0.076000:  Mud Cake Resistivity 
 MCST.degC           19.830000:  Mud Cake Sample Temperature 
 RMFS.ohmm            0.050000:  Mud Filtrate Resistivity 
 RMFT.degC           21.499998:  Mud Filtrate Sample Temperature 
 RMMT.ohmm            0.266500:  Rm @ Max Temp 
 MST .degC           21.000002:  Mud Sample Temperature 
 RUN .                     300:  Run Number 
 ROPA.m/hr           14.790000:  ROP Avg 
 ROPN.m/hr            1.870000:  ROP Min 
 ROPX.m/hr           32.700001:  ROP Max 
 RPMA.rpm            52.500000:  RPM Surface Avg 
 RPMN.rpm            30.000000:  RPM Surface Min 
 RPMX.rpm            60.000000:  RPM Surface Max 
 RRUN.                       3:  Rig Run Number 
 RTIM.hr              8.510000:  Time Reaming 
 SAZI.deg           199.820007:  Azm, Start 
 SDEP.m            2362.000000:  Start Depth 
 SIDD.                      No:  Serv Intrp, DD 
 SINC.deg             5.740000:  Inc, Start 
 SPPA.kPag        17754.474609:  SPP Avg 
 SPPN.kPag        10893.795898:  SPP Min 
 SPPX.kPag        22063.382813:  SPP Max 
 STIM.      21.15.00 06-May-22:  Start Time 
 SVCS.                 DD, MWD:  Services 
 SVER.                9.200000:  Sperry Version 
 TDAT.m            1189.000000:  Tot Depth Attmp 
 TDDF.                      No:  Trip for DD 
 TDLG.m            1189.000000:  Tot Depth Loggd 
 TFF .                      No:  Trip for Fail 
 TQAA.kN-m            0.013558:  Torque Abs Avg 
 TQAN.kN-m            0.004067:  Torque Abs Min 
 TQAX.kN-m            0.024405:  Torque Abs Max 
 TRRT.°/30m           0.860000:  Turn Rotating 
 MRT .                  EWR-P4:  Maximum Recorded Temperature 
 TTMX.degC           75.199997:  Max Tool Temp 
 VS01.                12278995:  Virtual Str1 SN 
 VS02.                12394165:  Virtual Str2 SN 
 VS03.                13686255:  Virtual Str3 SN 
 VS04.                90681167:  Virtual Str4 SN 
 VS05.                90683981:  Virtual Str5 SN 
 VS06.                90683974:  Virtual Str6 SN 
 VS07.                90683978:  Virtual Str7 SN 
 VS08.                90683983:  Virtual Str8 SN 
 VS09.                13531224:  Virtual Str9 SN 
 WBMN.kdN             2.668932:  WOB Min 
 WITN.          Peter Clarkson:  Customer Rep 2 
 WITN.        Shaughan Corless:  Customer Rep 
 WOBA.kdN             7.045982:  WOB Avg 
 WOBX.kdN            10.675730:  WOB Max 
 YP  .pa             14.364045:  Yield Point 
~Curve Information Block
#MNEM.UNIT                 API CODE     Curve Description
#---------               -----------    ---------------------------
 DEPT.M                 00 000 000 000:  Depth
 AFRSAC.ohmm            00 000 000 000:  AFR Shallow Avg Res BC
 AFRMAC.ohmm            00 000 000 000:  AFR Medium Avg Res BC
 AFRDAC.ohmm            00 000 000 000:  AFR Deep Avg Res BC
#Other Information
#
#WARRANTY: Halliburton will use its best efforts to furnish customers with 
#accurate information and interpretations that are part of, and incident to, the services 
#provided.  However, Halliburton cannot and does not warrant the accuracy 
#or correctness of such information and interpretations.  Under no circumstances should any 
#such information or interpretation be relied upon as the sole basis for any drilling, 
#completion, production, or financial decision or any procedure involving any risk to the 
#safety of any drilling venture, drilling rig or its crew or any other third party.  The 
#Customer has full responsibility for all drilling, completion and production operation.  
#Halliburton makes no representations or warranties, either expressed or 
#implied, including, but not limited to, the implied warranties of merchantability or fitness 
#for a particular purpose, with respect to the services rendered.  In no event will 
#Halliburton be liable for failure to obtain any particular results or for 
#any damages, including, but not limited to, indirect, special or consequential damages, 
#resulting from the use of any information or interpretation provided by Halliburton.
#
~A   DEPT      AFRSAC     AFRMAC     AFRDAC   
# ...
   2894.4000    25.2919    27.2548    32.6264
   2894.5000    24.6211    26.5811    31.2238
   2894.6000    25.1425    26.8750    32.4187
   2894.7000    29.0254    30.4321    40.3647
   2894.8000    35.7232    38.7843    54.9855
   2894.9000    32.5734    39.7452    55.1357
   2895.0000    25.8685    31.5098    44.3524
   2895.1000    19.8251    24.3296    33.0040
   2895.2000    14.5449    18.8017    23.1323
   2895.3000    11.4720    15.6315    16.9643
   2895.4000     9.5578    13.5595    13.0695
   2895.5000     8.5783    12.2575    11.3327
   2895.6000     8.8571    13.1720    11.8627
   2895.7000    10.2537    16.0714    14.4874
   2895.8000    12.6765    20.0470    18.2789
   2895.9000    15.0650    20.8603    19.4055
   2896.0000    14.8771    16.9213    16.2307
   2896.1000    15.0135    14.8454    14.9051
   2896.2000    19.8762    19.1007    19.8598
   2896.3000    35.1553    34.0644    38.6381
   2896.4000    52.4925    55.5698    68.0702
   2896.5000    42.5658    48.3217    60.3625
   2896.6000    31.9371    36.0512    45.3751
   2896.7000    25.6991    28.8783    36.5992
   2896.8000    23.9273    27.8737    34.3921
   2896.9000    20.4894    25.3488    29.6869
   2897.0000    17.8715    24.0008    26.4114
   2897.1000    17.2367    24.9145    25.9993
   2897.2000    17.0816    26.1026    26.2933
   2897.3000    17.2875    27.4349    27.2286
   2897.4000    17.6291    28.0401    28.5090
   2897.5000    17.8667    27.3962    29.3665
   2897.6000    18.6123    26.8621    30.6073
   2897.7000    19.6612    26.1950    31.6355
   2897.8000    21.6785    26.1870    33.7289
   2897.9000    27.6422    29.0082    40.9770
   2898.0000    40.2536    39.8849    59.5153
   2898.1000    45.9523    43.9566    66.2643
   2898.2000    30.9928    29.4303    38.9932
   2898.3000    19.5583    19.4097    22.8965
   2898.4000    14.4905    14.2434    16.3415
   2898.5000    13.4501    13.3513    15.1703
   2898.6000    12.4606    13.0368    14.9112
   2898.7000    12.0159    13.3172    16.0453
   2898.8000    12.8276    15.4425    19.1433
   2898.9000    14.6482    19.7559    25.3944
   2899.0000    16.3700    26.0177    32.1044
   2899.1000    15.3080    26.7576    31.2550
   2899.2000    14.0684    25.1339    29.3855
   2899.3000    13.3615    22.9482    28.0737
   2899.4000    13.1368    20.8836    27.1310
   2899.5000    13.0729    18.8775    25.7419
   2899.6000    13.6028    18.1355    24.9626
   2899.7000    14.7621    18.6998    24.9880
   2899.8000    16.7639    20.5837    26.4490
   2899.9000    19.0380    23.0160    28.2379
   2900.0000    22.7643    27.8192    32.7238
   2900.1000    21.7848    26.4243    31.6234
   2900.2000    18.5183    21.9837    26.8158
   2900.3000    16.0293    18.3235    22.5573
   2900.4000    14.1044    16.5140    19.2078
   2900.5000    14.1677    18.0072    19.0816
   2900.6000    14.1310    19.8741    19.4560
   2900.7000    14.1486    21.8966    20.3238
   2900.8000    14.7319    23.6876    21.6975
   2900.9000    15.5613    24.5108    22.7466
   2901.0000    16.1814    23.1752    22.4842
   2901.1000    15.1511    18.4714    19.5813
   2901.2000    13.4749    14.5282    16.3009
   2901.3000    16.3612    16.8091    19.5673
   2901.4000    35.0386    41.4259    58.9904
   2901.5000   106.2094   136.5377   251.2135
   2901.6000    76.2849   101.3923   163.3073
   2901.7000    39.6285    53.8697    61.7904
   2901.8000    29.9511    40.4642    40.4433
   2901.9000    29.4138    39.8989    35.7494
   2902.0000    31.9010    41.5580    37.2868
   2902.1000    32.4984    41.7733    38.5385
   2902.2000    30.6085    39.2737    37.1812
   2902.3000    29.5954    38.8987    37.6327
   2902.4000    35.5097    49.4465    47.5886
   2902.5000    59.2008   110.9611    88.8466
   2902.6000   106.3013   327.8918   175.5123
   2902.7000    60.2435   219.4263    95.5744
   2902.8000    22.9809    34.4643    29.9266
   2902.9000    14.9794    18.5760    18.6729
   2903.0000    13.3849    15.4462    16.6051
   2903.1000    12.4259    14.4487    15.9790
   2903.2000     9.2561    11.3232    11.9234
   2903.3000     6.6950     8.6311     8.6993
   2903.4000     5.3608     7.1346     7.0386
   2903.5000     4.6315     6.4520     6.3466
   2903.6000     4.4064     6.2807     6.3252
   2903.7000     4.4312     6.5887     6.6856
   2903.8000     4.5161     6.9974     7.2480
   2903.9000     4.6407     7.3433     7.9685
   2904.0000     4.6864     7.3860     8.4663
   2904.1000     4.9702     7.6675     9.4335
   2904.2000     5.2896     8.2711    10.6599
   2904.3000     5.4586     8.6466    11.3766
   2904.4000     5.2554     8.2201    10.9371
   2904.5000     4.6150     6.9757     9.1684
   2904.6000     4.1308     6.1504     7.8005
   2904.7000     3.7783     5.7085     6.9234
   2904.8000     3.7399     5.7696     6.7615
   2904.9000     3.7262     5.7985     6.5833
   2905.0000     3.6753     5.7396     6.3546
   2905.1000     3.5229     5.5288     5.9430
   2905.2000     3.5280     5.6252     5.7771
   2905.3000     3.5897     5.5558     5.6550
   2905.4000     3.7242     5.5301     5.7126
   2905.5000     4.0412     5.7229     6.1544
   2905.6000     4.8159     6.6408     7.4438
   2905.7000     5.5477     7.4831     8.6003
   2905.8000     6.2996     8.6534     9.6612
   2905.9000     7.1054     9.7771    10.7643
   2906.0000     7.4773    10.1383    11.3417
   2906.1000     7.5310     9.9567    11.3886
   2906.2000     6.3029     7.9325     9.4694
   2906.3000     5.4111     7.0106     8.2391
   2906.4000     5.1077     6.9883     8.0686
   2906.5000     4.8176     7.0611     8.0283
   2906.6000     4.4730     6.9102     7.7398
   2906.7000     4.0218     6.3324     6.9938
   2906.8000     3.7696     5.8865     6.5232
   2906.9000     3.5333     5.4837     6.0845
   2907.0000     3.3612     5.2263     5.8290
   2907.1000     3.2741     5.2079     5.7730
   2907.2000     3.2882     5.3840     5.9435
   2907.3000     3.3830     5.6851     6.2494
   2907.4000     3.4905     5.9462     6.5227
   2907.5000     3.5338     6.0925     6.5676
   2907.6000     3.5653     6.1251     6.5360
   2907.7000     3.5650     6.0129     6.4068
   2907.8000     3.6429     5.9332     6.3923
   2907.9000     3.8455     5.9984     6.5510
   2908.0000     4.1154     6.0420     6.7184
   2908.1000     4.2945     6.0521     6.6372
   2908.2000     4.7255     6.6144     6.9588
   2908.3000     5.6161     7.8917     8.0798
   2908.4000     7.5732    10.8884    10.9186
   2908.5000    10.8200    14.5577    15.4063
   2908.6000    13.1363    16.3666    17.5483
   2908.7000    12.7399    14.5946    15.1096
   2908.8000     9.8323    10.3852    10.5694
   2908.9000     8.7880     8.8890     9.2260
   2909.0000     9.8991     9.9867    10.5306
   2909.1000    12.7605    13.0376    14.0609
   2909.2000    15.4095    16.9067    17.3926
   2909.3000    15.2747    17.6619    17.1459
   2909.4000    16.0919    18.4033    17.8639
   2909.5000    17.2536    19.1670    18.7093
   2909.6000    14.7993    15.7764    15.4766
   2909.7000    12.7184    13.3351    12.9869
   2909.8000    12.6051    13.1397    12.9222
   2909.9000    14.2868    14.9528    15.0906
   2910.0000    17.5177    18.4594    19.2081
   2910.1000    17.6347    19.0399    19.3235
   2910.2000    17.8966    19.3911    19.1729
   2910.3000    15.4840    16.9824    15.8499
   2910.4000    14.6972    15.0589    15.1162
   2910.5000    15.4496    14.4930    15.9796
   2910.6000    14.5454    11.7363    15.1405
   2910.7000    12.0507     9.7619    12.2224
   2910.8000     8.5585     7.0348     8.2222
   2910.9000     6.5533     5.8560     6.1382
   2911.0000     6.7544     6.5614     6.3398
   2911.1000     7.8976     9.2274     8.0947
   2911.2000     8.2930    12.6419    10.0163
   2911.3000     7.3957    12.4583    10.2439
   2911.4000     5.9440     9.4844     8.4424
   2911.5000     5.0424     7.4535     7.0802
   2911.6000     4.4995     6.4172     6.3095
   2911.7000     3.9673     5.5328     5.5803
