~Version Information
 VERS.                  2.0:   CWLS log ASCII Standard -VERSION 2.0
 WRAP.                   NO:   One line per depth step
~Well Information Block
#MNEM.UNIT     VALUE/NAME     DESCRIPTION
#---------     -----------    ---------------------------
 STRT.M              2900.0000: START DEPTH
 STOP.M              3434.8000: STOP DEPTH
 STEP.M                 0.1000: STEP DEPTH
 NULL.               -999.2500: NULL VALUE
 UWI .                 W006102:  UNIQUE WELL IDENTIFIER
 API .                 W006102:  API NUMBER
 DFWT.                        :  DIST FWL TEXT
 DFST.                        :  DIST FSL TEXT
 DMF .             Drill Floor:  DRILL MEAS FROM
 STIM.      12.00.00 12-Nov-21:  START TIME
 DATE.      08.19.12 13-Dec-21:  END TIME
 SPUD.               14-Nov-21:  SPUD DATE
 NREF.                    Grid:  NORTH REFERENCE
 HPTY.       Minimum Curvature:  HOLE POS TYPE
 DMOD.             Drill Model:  DRILL MOD DESC
 SVYD.                  Survey:  SURVEY DESC
 ILTD.               Lithology:  INTERP LTH DESC
 FTOP.          Formation Tops:  FORM TOPS DESC
 WELL.             Walyering 5:  WELL NAME
 COMP.     Strike South West Pty Ltd:  COMPANY
 SON .        PA-XX-0907373664:  JOB NUMBER
 GCDE.     Generic Lat/Long's, Degrees, -180 ==> +180:  GEO COORD DESC
 CCDE.     UTM Zone 50S on Geocentric Datum of Australia 1994, Meters:  CART COORD DESC
 GGSY.                      LL:  GEO GRID SYS
 CGSY.             SS GDA94-50:  CART GRID SYS
 GREF.     Ellipsoid World Geodetic System :  GEO REFERENCE
 CREF.     Datum Geocentric Datum of Austra:  CART REFERENCE
 MMDL.            bggm2021.dat:  MAGNETIC MODEL
 MMDD.       10 November, 2021:  MAG DATA DATE
 MDS .              Win MagUTM:  MAG DATA SOURCE
 LLGR.      Latitude/Longitude:  LLGROUP
 XYGR.     Australia/New Zealand Coordinate Systems:  XYGROUP
 WTYP.                Deviated:  WELL TYPE
 PDAT.          Mean Sea Level:  PERMANENT DATUM
 BASE.                   Perth:  LOGGING EQUIPMENT BASE LOCATION
 REGN.            Asia Pacific:  REGION
 CTRY.               Australia:  COUNTRY NAME
 FLD .             Perth Basin:  FIELD NAME
 SRVC.     Ensign Energy Services:  CONTRACTOR
 MWDS.                Jandakot:  MWD SHOP
 RIG .              Ensign 970:  RIG NAME
 DCON.         Sperry Drilling:  DIRECTNL CONTR
 UNIT.                11741669:  LOGGING EQUIPMENT ID
 CNTY.                        :  COUNTY
 PROV.                        :  PROVINCE
 STAT.                        :  STATE
 LOC .                        :  LOCATION
 DEP .m               0.000000:  DEPTH
 TVDS.m             101.180001:  TVDSS CORRECTN
 LATI.deg           -30.730083:  LATITUDE
 LONG.deg           115.478781:  LONGITUDE
 WHNS.m               0.000000:  WELL HEAD N/S
 WHEW.m               0.000000:  WELL HEAD E/W
 UTMX.m          354359.500000:  UTM X
 UTMY.m         6599322.900000:  UTM Y
 DFWL.m               0.000000:  DISTANCE FWL
 DFSL.m               0.000000:  DISTANCE FSL
 SDEP.m              73.999999:  START DEPTH
 TDD .m            3434.999857:  TOTAL DEPTH (DRILLER)
 VSDR.deg           243.910004:  VERT SEC DIRECT
 GVFD.g               1.000000:  GRAVITY FIELD
 MFLD.nT          57661.890625:  MAGNETIC FIELD
 MDIP.deg           -64.786583:  MAGNETIC DIP
 MDEC.deg            -1.367809:  MAGNETIC DECL
 GRDC.deg             0.777471:  GRID CORRECTION
 AZTC.deg            -2.145280:  AZM TOTAL CORR
 EPD .m              94.030000:  ELEVATION
 EGL .m              94.030000:  GROUND ELEVATION
 WDMS.m               0.000000:  WD ELEV
 APD .m               7.150000:  DEPTH ABOVE PD
 MMDE.m             -30.842712:  MAGUTM CALC DEP
 CMER.deg           117.000000:  CENTRL MERIDIAN
 AGAP.m               7.150000:  AIR GAP
 VSC .                       0:  VS TO CLOSURE
 MAGU.                 1390910:  MAGUTM CHECKSUM
~Curve Information Block
#MNEM.UNIT                 API CODE     Curve Description
#---------               -----------    ---------------------------
 DEPT.M                 00 000 000 000:  Depth
 ALPELC.                00 000 000 000:  ALD LCRB Pe Factor
 XBCS.uspf              00 000 000 000:  XBAT Comp Slowness
 RSPD.m/hr              00 000 000 000:  Running Speed
 PGRC.api               00 000 000 000:  PCG Gamma Ray BCorr
 XBEDX.in               00 000 000 000:  XCAL Eqv Hole Size Cor
 AFRSAC.ohmm             00 000 000 000:  AFR Shall Resistivity BC
 AFRMAC.ohmm             00 000 000 000:  AFR Medium Resistivity BC
 AFRDAC.ohmm             00 000 000 000:  AFR Deep Resistivity BC
 ALCDLC.g/cc            00 000 000 000:  ALD LCRB Comp Density
 TNPL.pu                00 000 000 000:  CTN Porosity Limestone
 ALDCLC.g/cc            00 000 000 000:  ALD LCRB Den Correction
 R09PC.ohmm             00 000 000 000:  9in Phase Resistivity BC
 R15PC.ohmm             00 000 000 000:  15in Phase Resistivity BC
 R27PC.ohmm             00 000 000 000:  27in Phase Resistivity BC
 R39PC.ohmm             00 000 000 000:  39in Phase Resistivity BC
 R09AC.ohmm             00 000 000 000:  9in Atten Resistivity BC
 R15AC.ohmm             00 000 000 000:  15in Atten Resistivity BC
 R27AC.ohmm             00 000 000 000:  27in Atten Resistivity BC
 R39AC.ohmm             00 000 000 000:  39in Atten Resistivity BC
 TVD .m                 00 000 000 000:  True Vertical Depth
#Other Information
#
#WARRANTY: Halliburton will use its best efforts to furnish customers with 
#accurate information and interpretations that are part of, and incident to, the services 
#provided.  However, Halliburton cannot and does not warrant the accuracy 
#or correctness of such information and interpretations.  Under no circumstances should any 
#such information or interpretation be relied upon as the sole basis for any drilling, 
#completion, production, or financial decision or any procedure involving any risk to the 
#safety of any drilling venture, drilling rig or its crew or any other third party.  The 
#Customer has full responsibility for all drilling, completion and production operation.  
#Halliburton makes no representations or warranties, either expressed or 
#implied, including, but not limited to, the implied warranties of merchantability or fitness 
#for a particular purpose, with respect to the services rendered.  In no event will 
#Halliburton be liable for failure to obtain any particular results or for 
#any damages, including, but not limited to, indirect, special or consequential damages, 
#resulting from the use of any information or interpretation provided by Halliburton.
#
~A   DEPT     ALPELC     XBCS      RSPD      PGRC      XBEDX     AFRSAC     AFRMAC     AFRDAC    ALCDLC     TNPL     ALDCLC     R09PC     R15PC     R27PC     R39PC     R09AC     R15AC     R27AC     R39AC      TVD    
# ...
   2941.8000    3.1291   85.3096 -999.2500 -999.2500 -999.2500 -999.2500 -999.2500 -999.2500    2.5089   34.3325    0.0196    4.0182    4.8130    5.3963    5.5214    4.1417    5.9749    6.1066    6.0253 -999.2500
   2941.9000    2.6786   85.5773 -999.2500 -999.2500 -999.2500 -999.2500 -999.2500 -999.2500    2.4904   33.7787    0.0211    3.5472    4.9336    5.1515    5.6486    4.2685    7.2610    6.6128    6.5255 -999.2500
   2942.0000    3.3068   85.8441 -999.2500 -999.2500 -999.2500 -999.2500 -999.2500 -999.2500    2.4917   33.0161    0.0016    3.5303    5.1806    5.3386    5.3848    4.7006    8.5152    7.1843    6.5560 -999.2500
   2942.1000    4.3700   86.0337 -999.2500 -999.2500 -999.2500 -999.2500 -999.2500 -999.2500    2.5480   33.8523   -0.0288    3.1156    3.9949    4.4763    4.5805    4.1186    6.4079    6.3517    6.5434 -999.2500
   2942.2000    5.0587   86.4646 -999.2500 -999.2500 -999.2500 -999.2500 -999.2500 -999.2500    2.6283   34.8888   -0.0105    2.8973    3.3552    3.9993    4.3016    3.8161    5.0607    6.1211    6.7877 -999.2500
   2942.3000    4.7613   87.4855 -999.2500 -999.2500 -999.2500 -999.2500 -999.2500 -999.2500    2.6959   39.1096    0.0428    3.2224    3.8506    4.3719    4.7924    4.3200    5.6733    6.6538    6.9996 -999.2500
   2942.4000    3.3894   86.1570 -999.2500 -999.2500 -999.2500 -999.2500 -999.2500 -999.2500    2.7172   35.3893    0.0896    3.5369    4.0688    4.5103    5.1324    4.5871    5.9177    6.3083    6.7788 -999.2500
   2942.5000    2.9995   85.5064 -999.2500 -999.2500 -999.2500 -999.2500 -999.2500 -999.2500    2.5895   31.4109    0.0834    2.3755    3.4378    3.7939    4.6970    3.5577    6.6213    7.3800    7.6870 -999.2500
   2942.6000    3.1768   81.2320 -999.2500 -999.2500 -999.2500 -999.2500 -999.2500 -999.2500    2.5244   32.0942    0.0417    4.0871   16.4250   17.3268   13.9970    5.3231  143.8307   15.7148   10.7084 -999.2500
   2942.7000    3.2070   79.4251 -999.2500 -999.2500 -999.2500 -999.2500 -999.2500 -999.2500    2.4890   28.8858    0.0188  628.5680  131.1108   25.9406   20.4821  805.9479  156.7953   18.1449   11.4721 -999.2500
   2942.8000    2.8469   74.6072 -999.2500 -999.2500 -999.2500 -999.2500 -999.2500 -999.2500    2.4748   21.9406    0.0118 1122.3727  212.7148   23.0539   19.2225 1439.3770   62.3968   14.6185   10.4499 -999.2500
   2942.9000    2.1779   73.0172 -999.2500 -999.2500 -999.2500 -999.2500 -999.2500 -999.2500    2.4840   18.5833    0.0114  123.3693   29.0038    9.3125    9.7730  158.3470   14.5027   11.1167   10.0295 -999.2500
   2943.0000    2.9230   69.5472 -999.2500 -999.2500 -999.2500 -999.2500 -999.2500 -999.2500    2.5011   14.7864    0.0380    6.1029    6.8062    8.0437    9.2162    8.4570    9.8246   11.0533   10.0693 -999.2500
   2943.1000    2.9053   69.0331 -999.2500 -999.2500 -999.2500 -999.2500 -999.2500 -999.2500    2.5262   14.8452    0.0431    6.7899    8.0869    9.7298   10.8094    9.2631   10.6015   11.6183   10.1729 -999.2500
   2943.2000    2.9765   68.8032 -999.2500 -999.2500 -999.2500 -999.2500 -999.2500 -999.2500    2.5205   15.3221    0.0372    7.8704    9.5843   11.0492   11.6373   10.1506   11.9249   11.9473   10.3931 -999.2500
   2943.3000    3.0120   69.8213 -999.2500 -999.2500 -999.2500 -999.2500 -999.2500 -999.2500    2.5174   16.1919    0.0350    8.5396   10.0703   10.8362   10.5052   10.6950   12.5088   11.9615   10.0850 -999.2500
   2943.4000    2.8754   69.9846 -999.2500 -999.2500 -999.2500 -999.2500 -999.2500 -999.2500    2.5349   17.0307    0.0402   10.0798   11.1420   12.1454   12.1618   11.3464   13.5251   12.5505   10.3252 -999.2500
   2943.5000    2.9699   70.5250 -999.2500 -999.2500 -999.2500 -999.2500 -999.2500 -999.2500    2.5160   17.0343    0.0289   12.4430   11.7616   12.4259   12.4825   12.7442   14.4420   13.2873   10.4658 -999.2500
   2943.6000    2.4128   69.4771 -999.2500 -999.2500 -999.2500 -999.2500 -999.2500 -999.2500    2.5141   16.2552    0.0300   10.5384   11.2579   11.1412   11.6236   12.9471   14.4270   13.3508   10.4845 -999.2500
   2943.7000    2.1337   67.5742 -999.2500 -999.2500 -999.2500 -999.2500 -999.2500 -999.2500    2.4936   14.1215    0.0238    8.4405    9.1961    9.7788   10.3194   12.2053   13.3289   12.9959   10.3706 -999.2500
   2943.8000    2.3219   67.1276 -999.2500 -999.2500 -999.2500 -999.2500 -999.2500 -999.2500    2.4664   12.9922    0.0188    6.9160    7.6104    8.7118    9.3384   10.5752   12.5080   12.5070   10.2747 -999.2500
   2943.9000    2.8921   67.2588 -999.2500 -999.2500 -999.2500 -999.2500 -999.2500 -999.2500    2.4478   13.2415    0.0230    5.7963    6.9104    7.8765    8.8574    8.6959   12.1379   12.0591   10.1648 -999.2500
   2944.0000    3.1564   72.8318 -999.2500 -999.2500 -999.2500 -999.2500 -999.2500 -999.2500    2.4537   16.5904    0.0351    5.1104    6.0250    7.2072    8.6552    8.3481   11.0138   11.7700    9.7393 -999.2500
   2944.1000    3.3442   77.9460 -999.2500 -999.2500 -999.2500 -999.2500 -999.2500 -999.2500    2.5160   20.1392    0.0824    4.4412    5.5173    6.6110    7.4088    7.3011    9.3616   10.6376    9.5917 -999.2500
   2944.2000    3.3460   85.4153 -999.2500 -999.2500 -999.2500 -999.2500 -999.2500 -999.2500    2.5645   23.3175    0.1104    3.1065    3.6451    4.5822    5.4443    5.5622    7.0142    8.5554    8.6364 -999.2500
   2944.3000    3.2142   87.2566 -999.2500 -999.2500 -999.2500 -999.2500 -999.2500 -999.2500    2.5634   28.1557    0.0984    3.6969    5.3771    6.3921    6.9538    6.0764    8.2176    8.9107    8.7248 -999.2500
   2944.4000    3.1184   88.4868 -999.2500 -999.2500 -999.2500 -999.2500 -999.2500 -999.2500    2.5059   32.7623    0.0500    4.5330    7.4674    8.4415    8.7979    6.9992    9.9993    9.9395    9.1477 -999.2500
   2944.5000    3.6317   87.8665 -999.2500 -999.2500 -999.2500 -999.2500 -999.2500 -999.2500    2.4692   35.4409    0.0413    3.0145    4.0185    4.3665    5.2624    3.5853    5.1845    6.3147    7.4069 -999.2500
   2944.6000    4.0006   87.7162 -999.2500 -999.2500 -999.2500 -999.2500 -999.2500 -999.2500    2.4704   34.2021    0.0373    3.0570    4.1391    5.0560    5.8081    3.3785    5.2318    7.2996    7.8533 -999.2500
   2944.7000    4.0909   88.4085 -999.2500 -999.2500 -999.2500 -999.2500 -999.2500 -999.2500    2.5129   35.0448    0.0341    4.3404    5.1690    8.1244    8.0002    5.0561    8.2239   11.2176    8.5999 -999.2500
   2944.8000    3.7762   88.5477 -999.2500 -999.2500 -999.2500 -999.2500 -999.2500 -999.2500    2.5576   34.9230    0.0425    4.3904    6.4425    7.7256    8.3985    5.6784   15.2334   11.7041    8.6404 -999.2500
   2944.9000    3.1106   88.4529 -999.2500 -999.2500 -999.2500 -999.2500 -999.2500 -999.2500    2.5717   34.1929    0.0600    4.4232    6.8947    7.6882    8.6719    5.8515   17.2084   11.8929    8.7444 -999.2500
   2945.0000    2.9465   87.2253 -999.2500 -999.2500 -999.2500 -999.2500 -999.2500 -999.2500    2.5428   35.4675    0.0356    4.1349    6.3317    7.0981    8.0362    5.4097   15.1661   10.9477    8.3692 -999.2500
   2945.1000    3.3247   86.1959 -999.2500 -999.2500 -999.2500 -999.2500 -999.2500 -999.2500    2.5096   36.9101    0.0374    3.6686    4.2412    4.5706    5.2502    3.9552    5.8253    6.2587    6.5532 -999.2500
   2945.2000    3.6041   87.8071 -999.2500 -999.2500 -999.2500 -999.2500 -999.2500 -999.2500    2.5032   38.0604    0.0380    3.3381    4.0828    4.3616    4.8572    3.6407    5.4281    5.7993    6.2275 -999.2500
   2945.3000    3.7835   87.7949 -999.2500 -999.2500    8.7813 -999.2500 -999.2500 -999.2500    2.5043   34.4938    0.0382    3.0659    3.8280    4.0255    4.5825    3.6897    5.3446    5.7827    6.1904 -999.2500
   2945.4000    3.8324   86.6926 -999.2500 -999.2500    8.7813 -999.2500 -999.2500 -999.2500    2.5007   34.7746    0.0392    3.1012    3.8256    3.9489    4.4948    3.9918    5.3845    5.7192    6.0797 -999.2500
   2945.5000    3.3447   86.1329 -999.2500 -999.2500    9.0063 -999.2500 -999.2500 -999.2500    2.5039   35.4623    0.0341    3.1601    3.8392    3.9135    4.2810    4.0275    5.0648    5.1621    5.6795 -999.2500
