~Version Information
 VERS.                  2.0:   CWLS log ASCII Standard -VERSION 2.0
 WRAP.                   NO:   One line per depth step
~Well Information Block
#MNEM.UNIT     VALUE/NAME     DESCRIPTION
#---------     -----------    ---------------------------
 STRT.M              2355.0000: START DEPTH
 STOP.M              3523.6000: STOP DEPTH
 STEP.M                 0.1000: STEP DEPTH
 NULL.               -999.2500: NULL VALUE
 XYGR.     Australia/New Zealand Coordinate Systems:  XYGROUP
 LLGR.      Latitude/Longitude:  LLGROUP
 CREF.     Datum Geocentric Datum of Austra:  CART REFERENCE
 GREF.     Ellipsoid World Geodetic System :  GEO REFERENCE
 CGSY.             SS GDA94-50:  CART GRID SYS
 GGSY.                      LL:  GEO GRID SYS
 CCDE.     UTM Zone 50S on Geocentric Datum of Australia 1994, Meters:  CART COORD DESC
 GCDE.     Generic Lat/Long's, Degrees, -180 ==> +180:  GEO COORD DESC
 UWI .                 W006107:  UNIQUE WELL IDENTIFIER
 API .                 W006107:  API NUMBER
 UNIT.                11741669:  LOGGING EQUIPMENT ID
 DCON.        Sperry Drilling :  DIRECTNL CONTR
 RIG .              Ensign 970:  RIG NAME
 MWDS.                Jandakot:  MWD SHOP
 SRVC.     Ensign Energy Services:  CONTRACTOR
 FLD .               Walyering:  FIELD NAME
 CTRY.               Australia:  COUNTRY NAME
 PROV.       Western Australia:  PROVINCE
 STAT.       Western Australia:  STATE NAME
 REGN.            Asia Pacific:  REGION
 BASE.                   Perth:  LOGGING EQUIPMENT BASE LOCATION
 WTYP.                Vertical:  WELL TYPE
 PDAT.          Mean Sea Level:  PERMANENT DATUM
 MDS .              Win MagUTM:  MAG DATA SOURCE
 MMDD.          22 April, 2022:  MAG DATA DATE
 MMDL.            bggm2021.dat:  MAGNETIC MODEL
 SON .        PA-XX-0907756569:  JOB NUMBER
 COMP.     Strike South West Pty Ltd:  COMPANY
 WELL.             Walyering 6:  WELL NAME
 FTOP.          Formation Tops:  FORM TOPS DESC
 ILTD.               Lithology:  INTERP LTH DESC
 SVYD.                  Survey:  SURVEY DESC
 DMOD.             Drill Model:  DRILL MOD DESC
 HPTY.       Minimum Curvature:  HOLE POS TYPE
 NREF.                    Grid:  NORTH REFERENCE
 SPUD.               25-Apr-22:  SPUD DATE
 DATE.      12.00.00 13-May-22:  END TIME
 STIM.      17.00.00 24-Apr-22:  START TIME
 DMF .             Drill Floor:  DRILL MEAS FROM
 DFST.                        :  DIST FSL TEXT
 DFWT.                        :  DIST FWL TEXT
 CNTY.                        :  COUNTY
 LOC .                        :  LOCATION
 LMF .             Drill Floor:  LOG MEASURED FROM
 CMER.deg           117.000000:  CENTRL MERIDIAN
 DEP .m               0.000000:  DEPTH
 AGAP.m               7.160000:  AIR GAP
 MMDE.m             -31.623000:  MAGUTM CALC DEP
 APD .m               7.160000:  DEPTH ABOVE PD
 WDMS.m               0.000000:  WD ELEV
 EGL .m              96.589993:  GROUND ELEVATION
 EPD .m              96.589993:  ELEVATION
 AZTC.deg            -2.153514:  AZM TOTAL CORR
 GRDC.deg             0.779280:  GRID CORRECTION
 MDEC.deg            -1.374234:  MAGNETIC DECL
 MDIP.deg           -64.762985:  MAGNETIC DIP
 MFLD.nT          57671.410156:  MAGNETIC FIELD
 GVFD.g               1.000000:  GRAVITY FIELD
 VSDR.deg             0.000000:  VERT SEC DIRECT
 TDD .m            3551.000070:  TOTAL DEPTH (DRILLER)
 SDEP.m              74.999999:  START DEPTH
 DFSL.m               0.000000:  DISTANCE FSL
 DFWL.m               0.000000:  DISTANCE FWL
 UTMY.m         6601158.480000:  UTM Y
 UTMX.m          353924.590000:  UTM X
 WHEW.m               0.000000:  WELL HEAD E/W
 WHNS.m               0.000000:  WELL HEAD N/S
 LONG.deg           115.474500:  LONGITUDE
 LATI.deg           -30.713472:  LATITUDE
 TVDS.m             103.749993:  TVDSS CORRECTN
 EKB .m             103.750002:  KB ELEVATION
 EDF .m             103.750002:  DF ELEVATION
 TDL .m            1189.000020:  TOTAL DEPTH (LOGGER)
 CSGD.m            2359.000046:  CASING BOTTOM (DRILLER)
 CSGL.m            2359.000046:  CASING BOTTOM (LOGGER)
 CSGS.mm            244.474994:  CASING SIZE
 CSGW.kgpm           69.942862:  CASING WEIGHT
 MAGU.                 1391237:  MAGUTM CHECKSUM
 VSC .                       1:  VS TO CLOSURE
~Parameter Information Block
#MNEM.UNIT       Value        Description
#---------     -----------    ---------------------------
 AV  .mps             2.550000:  Ann Velocity 
 AVMX.mps             2.933333:  Max Ann Veloc 
 AZIF.deg             4.250000:  Azm, Final 
 BHAT.               Mud Motor:  BHA Type 
 BREV.krev         1163.365845:  Rev Bit Total 
 BROT.°/30m           0.050000:  Build Rotating 
 BS  .mm            215.899994:  Bit Size 
 BSZ .mm            215.899994:  Bit Size 
 BTPL.kPag         3033.715332:  Bit Press Loss 
 CABU.                      No:  Customer Abuse 
 CGEO.             Dan Walding:  Customer Geo 
 COMM.                     ì¿q:  Run Comments 1 
 TCS .hr            105.300003:  Time Ciculation Ended 
 CV  .mps             4.283333:  Crit Velocity 
 CVMX.mps             4.600000:  Max Crit Veloc 
 DD1 .     Christian Arrindell:  Direct Drillr 1 
 DD2 .            Ivan Tutynin:  Direct Drillr 2 
 DDSV.               Mud Motor:  DD Service 
 DEFF.%              95.000000:  % Det Eff 
 DLRX.°/30m           1.280000:  Dogleg Rot Max 
 DLSO.°/30m           1.400000:  Dogleg Oriented 
 DLSX.°/30m           2.000000:  Dogleg Str Max 
 DRET.      00.30.00 12-May-22:  Drill End Time 
 DRST.      19.30.00 07-May-22:  Drill Start Tim 
 DTIM.hr             80.400002:  Time Drilling 
 EDEP.m            3551.000000:  End Depth 
 ENG1.            Ade Suhendar:  Engineer 1 
 ENG2.        Yiek Chong Leong:  Engineer 2 
 ENG3.           Sufyan Zainal:  Engineer 3 
 ETIM.      23.45.00 12-May-22:  End Time 
 FLOI.m3pm            2.035733:  Flow In 
 FLON.m3pm            1.324854:  Flow In Min 
 FLOS.mptm            4.000000:  Fluid Loss 
 FLOX.m3pm            2.119767:  Flow In Max 
 DFT .                 Polymer:  Mud Type 
 FTRO.       Formation Presure:  FTWD Run Obj 
 HFLO.                      No:  High Flow 
 HPRE.                      No:  High Pressure 
 HTEM.                      No:  High Temp 
 HYDO.m               2.500000:  Hydro Offset 
 IFIN.deg             1.860000:  Inc, Final 
 IMAX.deg             5.744654:  Inc Max 
 IMIN.deg             0.433048:  Inc Min 
 IMND.m            2565.059814:  Inc Min Depth 
 IMXD.m            2364.389893:  Inc Max Depth 
 JARR.                      No:  Jarring 
 LETM.      00.30.00 12-May-22:  Log End Time 
 LOST.hr                     0:  Lost Rig Time 
 LSTM.      19.30.00 07-May-22:  Log Start Time 
 MDCL.ppm         79803.000000:  Mud Chlorides 
 MDES.             Fresh Water:  Mud Desc 
 DFD .kg/m3        1138.351074:  Mud Density 
 MDMN.kg/m3        1114.385986:  Dens Mud Min 
 MDMX.kg/m3        1150.333862:  Dens Mud Max 
 PH  .pH             10.100000:  Mud pH 
 MOIL.                       0:  Run Mud Oil % 
 MOWR.                   0 100:  Run Mud OWR 
 MSND.                     0.2:  Run Mud Sand % 
 MSOL.                     4.6:  Run Mud Solids% 
 MTV .                GeoForce:  Motor Variant 
 DFV .spl            82.445999:  Mud Viscosity 
 MWOD.mm            171.449997:  MWD Tool OD 
 MWSI.                      No:  Serv Intrp, MWD 
 OTIM.hr            146.500000:  Time Operating 
 PCON.          Wear / Scratch:  Pad Condition 
 PMAX.kPag        35887.472656:  Press Op, Max 
 PV  .mPsec          40.000000:  Mud PV 
 RMS .ohmm            0.606000:  Mud Resistivity 
 RMCS.ohmm            0.076000:  Mud Cake Resistivity 
 MCST.degC           19.830000:  Mud Cake Sample Temperature 
 RMFS.ohmm            0.050000:  Mud Filtrate Resistivity 
 RMFT.degC           21.499998:  Mud Filtrate Sample Temperature 
 RMMT.ohmm            0.266500:  Rm @ Max Temp 
 MST .degC           21.000002:  Mud Sample Temperature 
 RUN .                     300:  Run Number 
 ROPA.m/hr           14.790000:  ROP Avg 
 ROPN.m/hr            1.870000:  ROP Min 
 ROPX.m/hr           32.700001:  ROP Max 
 RPMA.rpm            52.500000:  RPM Surface Avg 
 RPMN.rpm            30.000000:  RPM Surface Min 
 RPMX.rpm            60.000000:  RPM Surface Max 
 RRUN.                       3:  Rig Run Number 
 RTIM.hr              8.510000:  Time Reaming 
 SAZI.deg           199.820007:  Azm, Start 
 SDEP.m            2362.000000:  Start Depth 
 SIDD.                      No:  Serv Intrp, DD 
 SINC.deg             5.740000:  Inc, Start 
 SPPA.kPag        17754.474609:  SPP Avg 
 SPPN.kPag        10893.795898:  SPP Min 
 SPPX.kPag        22063.382813:  SPP Max 
 STIM.      21.15.00 06-May-22:  Start Time 
 SVCS.                 DD, MWD:  Services 
 SVER.                9.200000:  Sperry Version 
 TDAT.m            1189.000000:  Tot Depth Attmp 
 TDDF.                      No:  Trip for DD 
 TDLG.m            1189.000000:  Tot Depth Loggd 
 TFF .                      No:  Trip for Fail 
 TQAA.kN-m            0.013558:  Torque Abs Avg 
 TQAN.kN-m            0.004067:  Torque Abs Min 
 TQAX.kN-m            0.024405:  Torque Abs Max 
 TRRT.°/30m           0.860000:  Turn Rotating 
 MRT .                  EWR-P4:  Maximum Recorded Temperature 
 TTMX.degC           75.199997:  Max Tool Temp 
 VS01.                12278995:  Virtual Str1 SN 
 VS02.                12394165:  Virtual Str2 SN 
 VS03.                13686255:  Virtual Str3 SN 
 VS04.                90681167:  Virtual Str4 SN 
 VS05.                90683981:  Virtual Str5 SN 
 VS06.                90683974:  Virtual Str6 SN 
 VS07.                90683978:  Virtual Str7 SN 
 VS08.                90683983:  Virtual Str8 SN 
 VS09.                13531224:  Virtual Str9 SN 
 WBMN.kdN             2.668932:  WOB Min 
 WITN.          Peter Clarkson:  Customer Rep 2 
 WITN.        Shaughan Corless:  Customer Rep 
 WOBA.kdN             7.045982:  WOB Avg 
 WOBX.kdN            10.675730:  WOB Max 
 YP  .pa             14.364045:  Yield Point 
~Curve Information Block
#MNEM.UNIT                 API CODE     Curve Description
#---------               -----------    ---------------------------
 DEPT.M                 00 000 000 000:  Depth
 AFRSAC.ohmm            00 000 000 000:  AFR Shallow Avg Res BC
 AFRMAC.ohmm            00 000 000 000:  AFR Medium Avg Res BC
 AFRDAC.ohmm            00 000 000 000:  AFR Deep Avg Res BC
#Other Information
#
#WARRANTY: Halliburton will use its best efforts to furnish customers with 
#accurate information and interpretations that are part of, and incident to, the services 
#provided.  However, Halliburton cannot and does not warrant the accuracy 
#or correctness of such information and interpretations.  Under no circumstances should any 
#such information or interpretation be relied upon as the sole basis for any drilling, 
#completion, production, or financial decision or any procedure involving any risk to the 
#safety of any drilling venture, drilling rig or its crew or any other third party.  The 
#Customer has full responsibility for all drilling, completion and production operation.  
#Halliburton makes no representations or warranties, either expressed or 
#implied, including, but not limited to, the implied warranties of merchantability or fitness 
#for a particular purpose, with respect to the services rendered.  In no event will 
#Halliburton be liable for failure to obtain any particular results or for 
#any damages, including, but not limited to, indirect, special or consequential damages, 
#resulting from the use of any information or interpretation provided by Halliburton.
#
~A   DEPT      AFRSAC     AFRMAC     AFRDAC   
# ...
   2737.8000    13.6911    25.8496    31.5184
   2737.9000    12.1294    19.2079    22.9227
   2738.0000    11.4984    16.0689    18.7016
   2738.1000    11.0475    14.6490    16.3555
   2738.2000    11.2809    14.6186    15.7780
   2738.3000    13.0415    16.0754    17.8234
   2738.4000    15.4768    18.5070    20.6443
   2738.5000    18.5076    21.2983    23.7823
   2738.6000    19.3263    22.7396    23.5435
   2738.7000    18.0946    20.4944    21.0869
   2738.8000    17.4488    19.8502    19.5175
   2738.9000    17.4843    18.9803    19.0170
   2739.0000    18.3535    19.3480    19.7488
   2739.1000    18.9922    19.0799    20.3960
   2739.2000    19.8235    19.2142    21.0643
   2739.3000    18.9846    18.9876    19.8539
   2739.4000    18.1815    18.7077    18.6018
   2739.5000    18.7599    20.0866    19.2303
   2739.6000    19.9339    22.0735    20.9365
   2739.7000    22.5152    25.1909    24.7093
   2739.8000    23.4271    26.3670    26.6560
   2739.9000    23.6404    26.0451    27.5795
   2740.0000    23.3880    24.2803    27.4696
   2740.1000    22.4017    25.9700    26.1678
   2740.2000    19.0973    23.2700    21.6948
   2740.3000    17.3662    21.4600    19.3808
   2740.4000    17.7419    19.5013    19.6799
   2740.5000    20.3414    20.9439    22.9393
   2740.6000    22.6729    24.2246    25.9899
   2740.7000    20.5731    23.4539    23.5329
   2740.8000    18.8586    21.1621    21.6074
   2740.9000    17.6356    19.9623    20.9056
   2741.0000    17.2266    20.6109    21.7773
   2741.1000    17.2412    22.7730    23.0565
   2741.2000    17.3140    23.0342    23.7340
   2741.3000    17.0254    22.8638    23.1155
   2741.4000    16.5911    21.6717    21.9207
   2741.5000    16.9652    21.5745    21.7446
   2741.6000    18.3186    22.1545    22.5863
   2741.7000    18.8884    22.4993    22.6046
   2741.8000    18.7815    21.6812    22.1396
   2741.9000    18.5291    21.6818    21.6529
   2742.0000    19.0052    21.9497    22.2007
   2742.1000    19.5242    22.4669    22.9202
   2742.2000    19.8238    22.7150    23.6248
   2742.3000    20.7633    23.4457    24.8843
   2742.4000    20.7436    21.2754    24.5603
   2742.5000    18.0155    18.2081    20.6287
   2742.6000    16.5233    18.0846    18.6750
   2742.7000    17.4601    20.2674    19.7849
   2742.8000    18.5288    20.5806    20.9755
   2742.9000    19.0704    18.6703    21.6616
   2743.0000    18.0126    16.7232    20.3249
   2743.1000    17.7209    17.9481    20.5418
   2743.2000    16.6529    19.7327    19.8315
   2743.3000    14.0549    17.6050    17.0717
   2743.4000    12.3827    16.4325    15.1982
   2743.5000    13.2588    17.1874    16.3586
   2743.6000    14.5893    18.5874    18.2527
   2743.7000    15.3198    18.5672    19.4531
   2743.8000    16.3223    18.4963    20.7602
   2743.9000    16.8177    19.3920    21.1745
   2744.0000    15.1824    18.0611    18.0585
   2744.1000    15.3509    17.8488    17.8928
   2744.2000    15.9521    17.4518    18.5932
   2744.3000    17.9049    16.1149    21.2938
   2744.4000    16.7762    17.0587    20.2521
   2744.5000    15.9464    17.7357    19.5026
   2744.6000    14.4650    18.3304    18.2750
   2744.7000    14.5775    19.0448    19.5199
   2744.8000    13.3379    16.9311    18.4238
   2744.9000    11.4429    15.1796    15.8605
   2745.0000    11.1656    15.2744    15.6613
   2745.1000    11.1919    15.2922    16.1600
   2745.2000    11.4568    15.5670    17.1196
   2745.3000    11.7655    16.2230    17.8196
   2745.4000    12.1140    16.3795    17.8712
   2745.5000    12.0123    15.7351    16.8077
   2745.6000    11.7326    14.3333    15.4563
   2745.7000    12.7051    14.9726    16.2197
   2745.8000    15.7036    18.3075    19.9464
   2745.9000    19.3610    23.1514    24.4485
   2746.0000    18.3544    23.0305    22.6343
   2746.1000    13.7553    16.5534    16.4664
   2746.2000    13.0092    15.0985    15.5467
   2746.3000    14.6927    16.5601    17.9640
   2746.4000    18.4650    20.6297    23.5897
   2746.5000    17.0485    20.3949    22.0288
   2746.6000    15.4401    18.7819    19.6351
   2746.7000    14.5078    17.1830    17.8540
   2746.8000    14.1071    16.1302    16.7154
   2746.9000    14.6088    15.9716    17.0777
   2747.0000    13.2413    15.3547    15.6896
   2747.1000    13.2721    16.3771    16.6592
   2747.2000    12.9971    16.0603    16.5270
   2747.3000    12.7517    15.2585    16.0569
   2747.4000    11.6598    13.6525    14.1645
   2747.5000    12.0160    14.2286    14.4919
   2747.6000    13.0745    15.8559    16.1087
   2747.7000    14.4184    17.1818    17.9088
   2747.8000    15.2379    17.1200    18.4896
   2747.9000    14.2544    16.3819    17.5739
   2748.0000    12.1647    15.7497    16.4018
   2748.1000    10.4124    15.6698    16.0555
   2748.2000     9.0187    15.0393    15.5925
   2748.3000     8.6441    15.5806    16.6991
   2748.4000     8.6763    17.1785    18.5971
   2748.5000     8.5372    18.2353    19.7308
   2748.6000     8.2715    17.9988    19.1601
   2748.7000     8.0932    16.7528    17.1174
   2748.8000     8.1419    15.3497    15.4478
   2748.9000     9.2078    14.4981    15.6794
   2749.0000    11.1888    14.8556    17.2128
   2749.1000    13.5154    15.2027    18.2518
   2749.2000    15.1371    16.5561    18.3025
   2749.3000    14.9986    16.5280    17.1747
   2749.4000    15.7040    15.3934    17.4193
   2749.5000    15.4303    13.9860    16.5081
   2749.6000    15.3045    13.4177    15.8703
   2749.7000    14.8110    14.0309    14.8735
   2749.8000    14.6583    14.4063    14.3815
   2749.9000    14.5936    13.5583    14.2842
   2750.0000    14.1843    12.7641    14.0746
   2750.1000    14.0723    12.8162    14.3369
   2750.2000    14.1775    14.0572    15.0701
   2750.3000    13.7471    15.7703    15.4753
   2750.4000    15.7293    19.8692    19.1514
   2750.5000    17.6481    23.7868    23.0160
   2750.6000    20.7197    28.1482    28.9987
   2750.7000    19.8167    24.6790    28.4370
   2750.8000    16.8537    20.4808    24.0442
   2750.9000    14.2750    17.5680    20.3408
   2751.0000    13.0502    16.7095    18.6083
   2751.1000    13.8723    19.3265    20.1486
   2751.2000    14.8417    23.5155    21.4604
   2751.3000    15.6641    26.1179    22.1530
   2751.4000    14.0869    20.8070    18.8645
   2751.5000    12.9091    17.4818    16.8068
   2751.6000    13.5227    16.9167    17.3262
   2751.7000    15.1339    17.6092    19.6167
   2751.8000    13.0716    14.9674    17.5560
   2751.9000    11.7777    14.2946    17.2444
   2752.0000     9.9700    13.9562    15.8664
   2752.1000     9.2588    16.3373    16.5085
   2752.2000     8.5576    16.2585    16.0068
   2752.3000     7.8908    14.9902    14.6305
   2752.4000     7.7297    14.0335    13.9835
   2752.5000     8.0872    13.8620    14.1805
   2752.6000     8.5316    13.5176    14.3943
   2752.7000     8.8281    12.8293    14.2688
   2752.8000    10.0540    13.8089    15.4296
   2752.9000    12.3540    15.9536    17.9518
   2753.0000    16.1154    20.4936    22.0410
   2753.1000    19.6177    23.3287    25.3581
   2753.2000    20.5474    23.8794    25.7661
   2753.3000    20.8202    23.8301    25.5776
   2753.4000    20.5296    22.4000    24.5979
   2753.5000    20.6513    22.2117    23.9866
   2753.6000    18.5182    20.6385    20.6760
   2753.7000    14.6489    16.6367    15.8313
   2753.8000    14.3198    16.4053    15.3817
   2753.9000    15.1533    16.8459    16.1580
   2754.0000    19.2817    20.0856    20.2531
   2754.1000    18.7217    16.8854    19.2236
   2754.2000    15.5886    13.1847    15.9108
   2754.3000    15.0132    13.2958    15.8736
   2754.4000    13.5707    14.0258    15.2901
   2754.5000    13.7252    16.8479    16.6406
   2754.6000    12.0067    15.3927    15.2114
   2754.7000    11.3950    14.7992    15.2387
   2754.8000    10.9994    15.1146    15.6738
   2754.9000    10.3087    14.9759    15.6015
   2755.0000    10.0429    14.8543    15.4290
   2755.1000     9.9574    14.5018    15.3426
