~Version Information
 VERS.                  2.0:   CWLS log ASCII Standard -VERSION 2.0
 WRAP.                   NO:   One line per depth step
~Well Information Block
#MNEM.UNIT     VALUE/NAME     DESCRIPTION
#---------     -----------    ---------------------------
 STRT.M              2355.0000: START DEPTH
 STOP.M              3523.6000: STOP DEPTH
 STEP.M                 0.1000: STEP DEPTH
 NULL.               -999.2500: NULL VALUE
 XYGR.     Australia/New Zealand Coordinate Systems:  XYGROUP
 LLGR.      Latitude/Longitude:  LLGROUP
 CREF.     Datum Geocentric Datum of Austra:  CART REFERENCE
 GREF.     Ellipsoid World Geodetic System :  GEO REFERENCE
 CGSY.             SS GDA94-50:  CART GRID SYS
 GGSY.                      LL:  GEO GRID SYS
 CCDE.     UTM Zone 50S on Geocentric Datum of Australia 1994, Meters:  CART COORD DESC
 GCDE.     Generic Lat/Long's, Degrees, -180 ==> +180:  GEO COORD DESC
 UWI .                 W006107:  UNIQUE WELL IDENTIFIER
 API .                 W006107:  API NUMBER
 UNIT.                11741669:  LOGGING EQUIPMENT ID
 DCON.        Sperry Drilling :  DIRECTNL CONTR
 RIG .              Ensign 970:  RIG NAME
 MWDS.                Jandakot:  MWD SHOP
 SRVC.     Ensign Energy Services:  CONTRACTOR
 FLD .               Walyering:  FIELD NAME
 CTRY.               Australia:  COUNTRY NAME
 PROV.       Western Australia:  PROVINCE
 STAT.       Western Australia:  STATE NAME
 REGN.            Asia Pacific:  REGION
 BASE.                   Perth:  LOGGING EQUIPMENT BASE LOCATION
 WTYP.                Vertical:  WELL TYPE
 PDAT.          Mean Sea Level:  PERMANENT DATUM
 MDS .              Win MagUTM:  MAG DATA SOURCE
 MMDD.          22 April, 2022:  MAG DATA DATE
 MMDL.            bggm2021.dat:  MAGNETIC MODEL
 SON .        PA-XX-0907756569:  JOB NUMBER
 COMP.     Strike South West Pty Ltd:  COMPANY
 WELL.             Walyering 6:  WELL NAME
 FTOP.          Formation Tops:  FORM TOPS DESC
 ILTD.               Lithology:  INTERP LTH DESC
 SVYD.                  Survey:  SURVEY DESC
 DMOD.             Drill Model:  DRILL MOD DESC
 HPTY.       Minimum Curvature:  HOLE POS TYPE
 NREF.                    Grid:  NORTH REFERENCE
 SPUD.               25-Apr-22:  SPUD DATE
 DATE.      12.00.00 13-May-22:  END TIME
 STIM.      17.00.00 24-Apr-22:  START TIME
 DMF .             Drill Floor:  DRILL MEAS FROM
 DFST.                        :  DIST FSL TEXT
 DFWT.                        :  DIST FWL TEXT
 CNTY.                        :  COUNTY
 LOC .                        :  LOCATION
 LMF .             Drill Floor:  LOG MEASURED FROM
 CMER.deg           117.000000:  CENTRL MERIDIAN
 DEP .m               0.000000:  DEPTH
 AGAP.m               7.160000:  AIR GAP
 MMDE.m             -31.623000:  MAGUTM CALC DEP
 APD .m               7.160000:  DEPTH ABOVE PD
 WDMS.m               0.000000:  WD ELEV
 EGL .m              96.589993:  GROUND ELEVATION
 EPD .m              96.589993:  ELEVATION
 AZTC.deg            -2.153514:  AZM TOTAL CORR
 GRDC.deg             0.779280:  GRID CORRECTION
 MDEC.deg            -1.374234:  MAGNETIC DECL
 MDIP.deg           -64.762985:  MAGNETIC DIP
 MFLD.nT          57671.410156:  MAGNETIC FIELD
 GVFD.g               1.000000:  GRAVITY FIELD
 VSDR.deg             0.000000:  VERT SEC DIRECT
 TDD .m            3551.000070:  TOTAL DEPTH (DRILLER)
 SDEP.m              74.999999:  START DEPTH
 DFSL.m               0.000000:  DISTANCE FSL
 DFWL.m               0.000000:  DISTANCE FWL
 UTMY.m         6601158.480000:  UTM Y
 UTMX.m          353924.590000:  UTM X
 WHEW.m               0.000000:  WELL HEAD E/W
 WHNS.m               0.000000:  WELL HEAD N/S
 LONG.deg           115.474500:  LONGITUDE
 LATI.deg           -30.713472:  LATITUDE
 TVDS.m             103.749993:  TVDSS CORRECTN
 EKB .m             103.750002:  KB ELEVATION
 EDF .m             103.750002:  DF ELEVATION
 TDL .m            1189.000020:  TOTAL DEPTH (LOGGER)
 CSGD.m            2359.000046:  CASING BOTTOM (DRILLER)
 CSGL.m            2359.000046:  CASING BOTTOM (LOGGER)
 CSGS.mm            244.474994:  CASING SIZE
 CSGW.kgpm           69.942862:  CASING WEIGHT
 MAGU.                 1391237:  MAGUTM CHECKSUM
 VSC .                       1:  VS TO CLOSURE
~Parameter Information Block
#MNEM.UNIT       Value        Description
#---------     -----------    ---------------------------
 AV  .mps             2.550000:  Ann Velocity 
 AVMX.mps             2.933333:  Max Ann Veloc 
 AZIF.deg             4.250000:  Azm, Final 
 BHAT.               Mud Motor:  BHA Type 
 BREV.krev         1163.365845:  Rev Bit Total 
 BROT.°/30m           0.050000:  Build Rotating 
 BS  .mm            215.899994:  Bit Size 
 BSZ .mm            215.899994:  Bit Size 
 BTPL.kPag         3033.715332:  Bit Press Loss 
 CABU.                      No:  Customer Abuse 
 CGEO.             Dan Walding:  Customer Geo 
 COMM.                     ì¿q:  Run Comments 1 
 TCS .hr            105.300003:  Time Ciculation Ended 
 CV  .mps             4.283333:  Crit Velocity 
 CVMX.mps             4.600000:  Max Crit Veloc 
 DD1 .     Christian Arrindell:  Direct Drillr 1 
 DD2 .            Ivan Tutynin:  Direct Drillr 2 
 DDSV.               Mud Motor:  DD Service 
 DEFF.%              95.000000:  % Det Eff 
 DLRX.°/30m           1.280000:  Dogleg Rot Max 
 DLSO.°/30m           1.400000:  Dogleg Oriented 
 DLSX.°/30m           2.000000:  Dogleg Str Max 
 DRET.      00.30.00 12-May-22:  Drill End Time 
 DRST.      19.30.00 07-May-22:  Drill Start Tim 
 DTIM.hr             80.400002:  Time Drilling 
 EDEP.m            3551.000000:  End Depth 
 ENG1.            Ade Suhendar:  Engineer 1 
 ENG2.        Yiek Chong Leong:  Engineer 2 
 ENG3.           Sufyan Zainal:  Engineer 3 
 ETIM.      23.45.00 12-May-22:  End Time 
 FLOI.m3pm            2.035733:  Flow In 
 FLON.m3pm            1.324854:  Flow In Min 
 FLOS.mptm            4.000000:  Fluid Loss 
 FLOX.m3pm            2.119767:  Flow In Max 
 DFT .                 Polymer:  Mud Type 
 FTRO.       Formation Presure:  FTWD Run Obj 
 HFLO.                      No:  High Flow 
 HPRE.                      No:  High Pressure 
 HTEM.                      No:  High Temp 
 HYDO.m               2.500000:  Hydro Offset 
 IFIN.deg             1.860000:  Inc, Final 
 IMAX.deg             5.744654:  Inc Max 
 IMIN.deg             0.433048:  Inc Min 
 IMND.m            2565.059814:  Inc Min Depth 
 IMXD.m            2364.389893:  Inc Max Depth 
 JARR.                      No:  Jarring 
 LETM.      00.30.00 12-May-22:  Log End Time 
 LOST.hr                     0:  Lost Rig Time 
 LSTM.      19.30.00 07-May-22:  Log Start Time 
 MDCL.ppm         79803.000000:  Mud Chlorides 
 MDES.             Fresh Water:  Mud Desc 
 DFD .kg/m3        1138.351074:  Mud Density 
 MDMN.kg/m3        1114.385986:  Dens Mud Min 
 MDMX.kg/m3        1150.333862:  Dens Mud Max 
 PH  .pH             10.100000:  Mud pH 
 MOIL.                       0:  Run Mud Oil % 
 MOWR.                   0 100:  Run Mud OWR 
 MSND.                     0.2:  Run Mud Sand % 
 MSOL.                     4.6:  Run Mud Solids% 
 MTV .                GeoForce:  Motor Variant 
 DFV .spl            82.445999:  Mud Viscosity 
 MWOD.mm            171.449997:  MWD Tool OD 
 MWSI.                      No:  Serv Intrp, MWD 
 OTIM.hr            146.500000:  Time Operating 
 PCON.          Wear / Scratch:  Pad Condition 
 PMAX.kPag        35887.472656:  Press Op, Max 
 PV  .mPsec          40.000000:  Mud PV 
 RMS .ohmm            0.606000:  Mud Resistivity 
 RMCS.ohmm            0.076000:  Mud Cake Resistivity 
 MCST.degC           19.830000:  Mud Cake Sample Temperature 
 RMFS.ohmm            0.050000:  Mud Filtrate Resistivity 
 RMFT.degC           21.499998:  Mud Filtrate Sample Temperature 
 RMMT.ohmm            0.266500:  Rm @ Max Temp 
 MST .degC           21.000002:  Mud Sample Temperature 
 RUN .                     300:  Run Number 
 ROPA.m/hr           14.790000:  ROP Avg 
 ROPN.m/hr            1.870000:  ROP Min 
 ROPX.m/hr           32.700001:  ROP Max 
 RPMA.rpm            52.500000:  RPM Surface Avg 
 RPMN.rpm            30.000000:  RPM Surface Min 
 RPMX.rpm            60.000000:  RPM Surface Max 
 RRUN.                       3:  Rig Run Number 
 RTIM.hr              8.510000:  Time Reaming 
 SAZI.deg           199.820007:  Azm, Start 
 SDEP.m            2362.000000:  Start Depth 
 SIDD.                      No:  Serv Intrp, DD 
 SINC.deg             5.740000:  Inc, Start 
 SPPA.kPag        17754.474609:  SPP Avg 
 SPPN.kPag        10893.795898:  SPP Min 
 SPPX.kPag        22063.382813:  SPP Max 
 STIM.      21.15.00 06-May-22:  Start Time 
 SVCS.                 DD, MWD:  Services 
 SVER.                9.200000:  Sperry Version 
 TDAT.m            1189.000000:  Tot Depth Attmp 
 TDDF.                      No:  Trip for DD 
 TDLG.m            1189.000000:  Tot Depth Loggd 
 TFF .                      No:  Trip for Fail 
 TQAA.kN-m            0.013558:  Torque Abs Avg 
 TQAN.kN-m            0.004067:  Torque Abs Min 
 TQAX.kN-m            0.024405:  Torque Abs Max 
 TRRT.°/30m           0.860000:  Turn Rotating 
 MRT .                  EWR-P4:  Maximum Recorded Temperature 
 TTMX.degC           75.199997:  Max Tool Temp 
 VS01.                12278995:  Virtual Str1 SN 
 VS02.                12394165:  Virtual Str2 SN 
 VS03.                13686255:  Virtual Str3 SN 
 VS04.                90681167:  Virtual Str4 SN 
 VS05.                90683981:  Virtual Str5 SN 
 VS06.                90683974:  Virtual Str6 SN 
 VS07.                90683978:  Virtual Str7 SN 
 VS08.                90683983:  Virtual Str8 SN 
 VS09.                13531224:  Virtual Str9 SN 
 WBMN.kdN             2.668932:  WOB Min 
 WITN.          Peter Clarkson:  Customer Rep 2 
 WITN.        Shaughan Corless:  Customer Rep 
 WOBA.kdN             7.045982:  WOB Avg 
 WOBX.kdN            10.675730:  WOB Max 
 YP  .pa             14.364045:  Yield Point 
~Curve Information Block
#MNEM.UNIT                 API CODE     Curve Description
#---------               -----------    ---------------------------
 DEPT.M                 00 000 000 000:  Depth
 AFRSAC.ohmm            00 000 000 000:  AFR Shallow Avg Res BC
 AFRMAC.ohmm            00 000 000 000:  AFR Medium Avg Res BC
 AFRDAC.ohmm            00 000 000 000:  AFR Deep Avg Res BC
#Other Information
#
#WARRANTY: Halliburton will use its best efforts to furnish customers with 
#accurate information and interpretations that are part of, and incident to, the services 
#provided.  However, Halliburton cannot and does not warrant the accuracy 
#or correctness of such information and interpretations.  Under no circumstances should any 
#such information or interpretation be relied upon as the sole basis for any drilling, 
#completion, production, or financial decision or any procedure involving any risk to the 
#safety of any drilling venture, drilling rig or its crew or any other third party.  The 
#Customer has full responsibility for all drilling, completion and production operation.  
#Halliburton makes no representations or warranties, either expressed or 
#implied, including, but not limited to, the implied warranties of merchantability or fitness 
#for a particular purpose, with respect to the services rendered.  In no event will 
#Halliburton be liable for failure to obtain any particular results or for 
#any damages, including, but not limited to, indirect, special or consequential damages, 
#resulting from the use of any information or interpretation provided by Halliburton.
#
~A   DEPT      AFRSAC     AFRMAC     AFRDAC   
# ...
   3051.0000    10.9417    11.5792    13.6095
   3051.1000    14.0854    15.0768    18.0505
   3051.2000    17.1496    18.9869    22.3032
   3051.3000    17.1406    19.2013    21.8623
   3051.4000    16.4995    18.3572    20.1161
   3051.5000    13.8680    15.1055    15.4980
   3051.6000    10.4121    10.5952    10.2632
   3051.7000     7.3588     6.8831     6.4450
   3051.8000     5.8488     5.2705     4.7756
   3051.9000     5.8278     5.4318     4.7428
   3052.0000     7.4244     7.5842     6.5077
   3052.1000    10.0140    11.5859     9.8872
   3052.2000    12.5864    15.3613    13.9423
   3052.3000    14.7732    17.7031    17.3285
   3052.4000    17.3620    20.3529    20.7232
   3052.5000    19.2733    21.5702    23.1038
   3052.6000    21.9485    23.0031    26.7610
   3052.7000    26.0228    26.4283    32.8400
   3052.8000    28.2589    27.5578    36.8200
   3052.9000    24.5663    24.4593    31.7472
   3053.0000    15.5044    15.3602    18.1459
   3053.1000     9.0498     8.5367     9.5480
   3053.2000     6.0924     5.7998     5.9950
   3053.3000     4.8697     4.6909     4.6010
   3053.4000     4.3288     4.3510     4.0787
   3053.5000     4.1255     4.3122     3.9964
   3053.6000     4.0473     4.3381     4.0672
   3053.7000     4.0331     4.4421     4.2343
   3053.8000     4.0385     4.6267     4.4387
   3053.9000     4.0574     4.7843     4.6805
   3054.0000     4.2366     4.9851     5.0835
   3054.1000     4.5861     5.3302     5.7333
   3054.2000     5.0462     5.7471     6.5783
   3054.3000     5.2414     5.9218     7.0382
   3054.4000     5.2507     5.8809     7.1846
   3054.5000     5.2295     5.8301     7.1386
   3054.6000     5.2125     5.7197     7.0043
   3054.7000     5.1287     5.5465     6.7281
   3054.8000     4.9191     5.3043     6.2843
   3054.9000     4.7506     5.1425     5.9355
   3055.0000     4.6540     5.0744     5.6945
   3055.1000     4.6329     5.0915     5.5798
   3055.2000     4.5349     4.9361     5.3394
   3055.3000     4.2569     4.6422     4.9304
   3055.4000     3.8967     4.3065     4.4720
   3055.5000     3.7156     4.1339     4.2725
   3055.6000     3.7739     4.2276     4.4069
   3055.7000     3.9963     4.4730     4.7360
   3055.8000     4.1537     4.7100     4.9929
   3055.9000     4.1850     4.9162     5.0870
   3056.0000     4.3733     5.2814     5.3863
   3056.1000     4.8073     5.8751     5.9824
   3056.2000     5.7275     7.0687     7.2387
   3056.3000     6.8186     8.2677     8.4790
   3056.4000     7.1946     8.2964     8.4427
   3056.5000     6.7764     7.2802     7.2749
   3056.6000     6.2077     6.1860     6.2002
   3056.7000     5.9980     5.7086     5.7246
   3056.8000     6.4555     6.0222     6.0466
   3056.9000     7.4329     6.9732     6.9613
   3057.0000     9.2468     9.1449     8.8846
   3057.1000    12.3943    13.0570    12.4350
   3057.2000    16.8614    19.0948    17.7575
   3057.3000    21.0443    24.2950    23.1518
   3057.4000    22.0288    25.1983    24.7034
   3057.5000    20.6625    23.7323    23.7641
   3057.6000    19.0878    22.1249    22.8884
   3057.7000    18.1812    21.3061    22.6460
   3057.8000    17.4111    20.4173    22.0887
   3057.9000    17.2024    20.0305    21.8631
   3058.0000    16.8117    19.4125    21.1600
   3058.1000    16.9800    19.8459    21.5110
   3058.2000    18.7042    22.2514    24.3435
   3058.3000    22.3900    27.0110    30.1729
   3058.4000    25.5071    30.1525    34.2291
   3058.5000    20.0923    22.6368    24.5641
   3058.6000    12.1518    12.3099    12.9717
   3058.7000     8.0697     7.6899     7.8812
   3058.8000     6.4379     6.0584     6.1105
   3058.9000     6.0982     5.8320     5.8738
   3059.0000     6.1320     6.0600     6.1756
   3059.1000     6.1610     6.3049     6.5792
   3059.2000     6.1273     6.5081     6.8917
   3059.3000     5.9581     6.5698     6.9147
   3059.4000     5.7384     6.5202     6.8034
   3059.5000     5.6203     6.5015     6.7726
   3059.6000     5.6173     6.5239     6.8725
   3059.7000     5.6627     6.5458     7.0178
   3059.8000     5.7519     6.5647     7.1581
   3059.9000     5.7414     6.4630     7.0334
   3060.0000     5.6192     6.2231     6.6518
   3060.1000     5.4573     5.9395     6.1809
   3060.2000     5.2967     5.6372     5.7527
   3060.3000     5.2784     5.5354     5.5645
   3060.4000     5.4144     5.6323     5.5511
   3060.5000     5.8591     6.0223     5.8926
   3060.6000     6.4389     6.5653     6.4440
   3060.7000     7.3516     7.5432     7.4429
   3060.8000     8.7222     9.0872     9.0399
   3060.9000    10.8970    11.3575    11.4101
   3061.0000    14.2281    14.0518    14.5646
   3061.1000    17.3366    16.1662    17.1346
   3061.2000    20.3395    17.9201    19.2628
   3061.3000    25.1778    21.6235    23.6271
   3061.4000    34.2993    29.8320    33.1440
   3061.5000    54.7312    48.0115    56.3263
   3061.6000    74.0166    74.9965    82.4675
   3061.7000    62.9140    67.0990    68.7807
   3061.8000    49.6783    52.3182    52.5457
   3061.9000    44.9595    45.2877    46.8804
   3062.0000    39.7295    37.1201    43.0714
   3062.1000    27.7528    26.1297    29.9279
   3062.2000    19.9593    19.2911    20.1645
   3062.3000    14.9042    15.0644    14.1421
   3062.4000    13.0376    13.2021    11.7839
   3062.5000    12.6514    12.1922    11.3538
   3062.6000    13.8482    11.9109    12.5918
   3062.7000    18.1570    13.5885    17.2094
   3062.8000    25.0024    18.2137    25.7405
   3062.9000    33.1435    27.1532    36.4090
   3063.0000    37.3869    39.8092    41.2528
   3063.1000    41.7548    44.0854    43.2859
   3063.2000    48.1981    42.0735    46.0469
   3063.3000    54.8150    43.9168    51.1824
   3063.4000    65.9037    53.7546    62.7665
   3063.5000    76.9248    67.3104    81.9689
   3063.6000    54.4861    46.0379    70.1640
   3063.7000    26.0525    20.7401    35.1679
   3063.8000    15.1765    11.8852    17.4792
   3063.9000    11.1190     8.8410    10.9722
   3064.0000     9.8474     8.2127     8.6773
   3064.1000     9.3489     8.3141     8.1801
   3064.2000     9.0110     8.7127     8.5449
   3064.3000     8.6633     8.8766     8.9241
   3064.4000     7.9471     8.8725     8.8239
   3064.5000     6.9393     8.5801     7.8323
   3064.6000     6.1331     7.5971     6.9546
   3064.7000     5.4301     6.5679     6.0919
   3064.8000     4.9388     5.8554     5.5340
   3064.9000     4.5749     5.4697     5.1243
   3065.0000     4.2594     5.0674     4.7872
   3065.1000     3.9823     4.6545     4.5068
   3065.2000     3.8544     4.3658     4.3870
   3065.3000     3.8809     4.5046     4.4628
   3065.4000     4.2059     4.9516     4.8895
   3065.5000     4.6447     5.6305     5.5436
   3065.6000     5.0423     6.3071     6.1616
   3065.7000     5.3721     6.6053     6.6494
   3065.8000     5.5127     6.7011     6.8022
   3065.9000     5.6140     6.5023     6.8193
   3066.0000     5.7671     6.1685     6.8855
   3066.1000     5.8176     6.0828     6.8042
   3066.2000     5.8935     6.0598     6.8326
   3066.3000     5.7892     6.1230     6.6908
   3066.4000     5.6348     6.1000     6.4903
   3066.5000     5.7127     5.9972     6.5643
   3066.6000     5.7480     6.0824     6.5555
   3066.7000     5.7213     6.0959     6.4593
   3066.8000     5.6178     6.0349     6.2726
   3066.9000     5.1842     5.4951     5.6585
   3067.0000     4.8099     5.0201     5.1554
   3067.1000     4.5893     4.7789     4.8850
   3067.2000     4.6938     4.9183     5.0805
   3067.3000     5.1045     5.4180     5.7005
   3067.4000     5.3197     5.7349     6.0839
   3067.5000     5.0079     5.4148     5.7502
   3067.6000     4.6197     4.9779     5.3094
   3067.7000     4.2978     4.7376     4.9872
   3067.8000     4.3419     4.8540     5.1180
   3067.9000     4.5970     5.1592     5.5034
   3068.0000     4.6992     5.3184     5.6859
   3068.1000     4.7304     5.3782     5.7064
   3068.2000     4.8152     5.3430     5.6924
   3068.3000     5.0612     5.5160     5.8863
