~Version Information
 VERS.                  2.0:   CWLS log ASCII Standard -VERSION 2.0
 WRAP.                   NO:   One line per depth step
~Well Information Block
#MNEM.UNIT     VALUE/NAME     DESCRIPTION
#---------     -----------    ---------------------------
 STRT.M              2900.0000: START DEPTH
 STOP.M              3434.8000: STOP DEPTH
 STEP.M                 0.1000: STEP DEPTH
 NULL.               -999.2500: NULL VALUE
 UWI .                 W006102:  UNIQUE WELL IDENTIFIER
 API .                 W006102:  API NUMBER
 DFWT.                        :  DIST FWL TEXT
 DFST.                        :  DIST FSL TEXT
 DMF .             Drill Floor:  DRILL MEAS FROM
 STIM.      12.00.00 12-Nov-21:  START TIME
 DATE.      08.19.12 13-Dec-21:  END TIME
 SPUD.               14-Nov-21:  SPUD DATE
 NREF.                    Grid:  NORTH REFERENCE
 HPTY.       Minimum Curvature:  HOLE POS TYPE
 DMOD.             Drill Model:  DRILL MOD DESC
 SVYD.                  Survey:  SURVEY DESC
 ILTD.               Lithology:  INTERP LTH DESC
 FTOP.          Formation Tops:  FORM TOPS DESC
 WELL.             Walyering 5:  WELL NAME
 COMP.     Strike South West Pty Ltd:  COMPANY
 SON .        PA-XX-0907373664:  JOB NUMBER
 GCDE.     Generic Lat/Long's, Degrees, -180 ==> +180:  GEO COORD DESC
 CCDE.     UTM Zone 50S on Geocentric Datum of Australia 1994, Meters:  CART COORD DESC
 GGSY.                      LL:  GEO GRID SYS
 CGSY.             SS GDA94-50:  CART GRID SYS
 GREF.     Ellipsoid World Geodetic System :  GEO REFERENCE
 CREF.     Datum Geocentric Datum of Austra:  CART REFERENCE
 MMDL.            bggm2021.dat:  MAGNETIC MODEL
 MMDD.       10 November, 2021:  MAG DATA DATE
 MDS .              Win MagUTM:  MAG DATA SOURCE
 LLGR.      Latitude/Longitude:  LLGROUP
 XYGR.     Australia/New Zealand Coordinate Systems:  XYGROUP
 WTYP.                Deviated:  WELL TYPE
 PDAT.          Mean Sea Level:  PERMANENT DATUM
 BASE.                   Perth:  LOGGING EQUIPMENT BASE LOCATION
 REGN.            Asia Pacific:  REGION
 CTRY.               Australia:  COUNTRY NAME
 FLD .             Perth Basin:  FIELD NAME
 SRVC.     Ensign Energy Services:  CONTRACTOR
 MWDS.                Jandakot:  MWD SHOP
 RIG .              Ensign 970:  RIG NAME
 DCON.         Sperry Drilling:  DIRECTNL CONTR
 UNIT.                11741669:  LOGGING EQUIPMENT ID
 CNTY.                        :  COUNTY
 PROV.                        :  PROVINCE
 STAT.                        :  STATE
 LOC .                        :  LOCATION
 DEP .m               0.000000:  DEPTH
 TVDS.m             101.180001:  TVDSS CORRECTN
 LATI.deg           -30.730083:  LATITUDE
 LONG.deg           115.478781:  LONGITUDE
 WHNS.m               0.000000:  WELL HEAD N/S
 WHEW.m               0.000000:  WELL HEAD E/W
 UTMX.m          354359.500000:  UTM X
 UTMY.m         6599322.900000:  UTM Y
 DFWL.m               0.000000:  DISTANCE FWL
 DFSL.m               0.000000:  DISTANCE FSL
 SDEP.m              73.999999:  START DEPTH
 TDD .m            3434.999857:  TOTAL DEPTH (DRILLER)
 VSDR.deg           243.910004:  VERT SEC DIRECT
 GVFD.g               1.000000:  GRAVITY FIELD
 MFLD.nT          57661.890625:  MAGNETIC FIELD
 MDIP.deg           -64.786583:  MAGNETIC DIP
 MDEC.deg            -1.367809:  MAGNETIC DECL
 GRDC.deg             0.777471:  GRID CORRECTION
 AZTC.deg            -2.145280:  AZM TOTAL CORR
 EPD .m              94.030000:  ELEVATION
 EGL .m              94.030000:  GROUND ELEVATION
 WDMS.m               0.000000:  WD ELEV
 APD .m               7.150000:  DEPTH ABOVE PD
 MMDE.m             -30.842712:  MAGUTM CALC DEP
 CMER.deg           117.000000:  CENTRL MERIDIAN
 AGAP.m               7.150000:  AIR GAP
 VSC .                       0:  VS TO CLOSURE
 MAGU.                 1390910:  MAGUTM CHECKSUM
~Curve Information Block
#MNEM.UNIT                 API CODE     Curve Description
#---------               -----------    ---------------------------
 DEPT.M                 00 000 000 000:  Depth
 ALPELC.                00 000 000 000:  ALD LCRB Pe Factor
 XBCS.uspf              00 000 000 000:  XBAT Comp Slowness
 RSPD.m/hr              00 000 000 000:  Running Speed
 PGRC.api               00 000 000 000:  PCG Gamma Ray BCorr
 XBEDX.in               00 000 000 000:  XCAL Eqv Hole Size Cor
 AFRSAC.ohmm             00 000 000 000:  AFR Shall Resistivity BC
 AFRMAC.ohmm             00 000 000 000:  AFR Medium Resistivity BC
 AFRDAC.ohmm             00 000 000 000:  AFR Deep Resistivity BC
 ALCDLC.g/cc            00 000 000 000:  ALD LCRB Comp Density
 TNPL.pu                00 000 000 000:  CTN Porosity Limestone
 ALDCLC.g/cc            00 000 000 000:  ALD LCRB Den Correction
 R09PC.ohmm             00 000 000 000:  9in Phase Resistivity BC
 R15PC.ohmm             00 000 000 000:  15in Phase Resistivity BC
 R27PC.ohmm             00 000 000 000:  27in Phase Resistivity BC
 R39PC.ohmm             00 000 000 000:  39in Phase Resistivity BC
 R09AC.ohmm             00 000 000 000:  9in Atten Resistivity BC
 R15AC.ohmm             00 000 000 000:  15in Atten Resistivity BC
 R27AC.ohmm             00 000 000 000:  27in Atten Resistivity BC
 R39AC.ohmm             00 000 000 000:  39in Atten Resistivity BC
 TVD .m                 00 000 000 000:  True Vertical Depth
#Other Information
#
#WARRANTY: Halliburton will use its best efforts to furnish customers with 
#accurate information and interpretations that are part of, and incident to, the services 
#provided.  However, Halliburton cannot and does not warrant the accuracy 
#or correctness of such information and interpretations.  Under no circumstances should any 
#such information or interpretation be relied upon as the sole basis for any drilling, 
#completion, production, or financial decision or any procedure involving any risk to the 
#safety of any drilling venture, drilling rig or its crew or any other third party.  The 
#Customer has full responsibility for all drilling, completion and production operation.  
#Halliburton makes no representations or warranties, either expressed or 
#implied, including, but not limited to, the implied warranties of merchantability or fitness 
#for a particular purpose, with respect to the services rendered.  In no event will 
#Halliburton be liable for failure to obtain any particular results or for 
#any damages, including, but not limited to, indirect, special or consequential damages, 
#resulting from the use of any information or interpretation provided by Halliburton.
#
~A   DEPT     ALPELC     XBCS      RSPD      PGRC      XBEDX     AFRSAC     AFRMAC     AFRDAC    ALCDLC     TNPL     ALDCLC     R09PC     R15PC     R27PC     R39PC     R09AC     R15AC     R27AC     R39AC      TVD    
# ...
   3261.0000    3.7751   79.3249   28.9547 -999.2500    9.8036    3.2312    9.6854    9.7853    2.5381   28.0160    0.1002    6.5033   13.1061   26.3403   21.8033    5.2901  186.7223  172.5287   12.3851 3227.0989
   3261.1000    3.5089   80.1965   27.0944 -999.2500    9.8036    3.7888   10.0556   10.0701    2.5296   28.4771    0.1083    4.4251    7.9187   11.1980   10.4972    4.2387   49.2744   45.8682   10.5224 3227.1946
   3261.2000    3.4627   80.3757   27.8224 -999.2500    9.8036    4.0567    9.7554    9.6167    2.5170   29.9127    0.1003    3.6982    5.7133    6.6351    7.4468    4.2908   13.2290   12.9272    9.7328 3227.2820
   3261.3000    3.6804   77.6158   34.4766 -999.2500    9.8222    3.8389    8.6856    8.2098    2.5002   30.3800    0.0601    3.7803    5.4494    6.2284    7.4157    4.7230    9.7811   11.2259    9.5268 3227.3806
   3261.4000    3.7838   78.3223   22.2117 -999.2500    9.8222    3.9146    7.9465    7.5007    2.5130   29.3654    0.0273    3.8124    5.4790    6.0018    7.2075    4.9111    8.8124    9.9756    9.3683 3227.4712
   3261.5000    4.2833   78.3758   24.8560 -999.2500    9.8222    3.7397    8.0150    7.7524    2.5198   29.1090    0.0462    3.0428    4.2391    4.6754    5.7125    4.2304    7.3098    8.0348    8.9158 3227.5691
   3261.6000    4.6381   77.3942   26.5998 -999.2500    9.8302    3.3307    8.4069    8.0050    2.5209   29.7896    0.0449    3.0183    4.1994    4.7493    5.9052    3.6320    6.4430    7.7576    9.0221 3227.6680
   3261.7000    3.7363   76.6388   26.9221 -999.2500    9.8302    3.1085    7.9415    7.5022    2.5311   30.8555    0.0387    3.2166    4.6050    5.5125    7.0603    3.7849    7.3673    9.2236    9.7294 3227.7537
   3261.8000    3.2268   75.9461   28.9658 -999.2500    9.8302    3.4012    7.5843    7.7738    2.5379   30.5914    0.0486    3.8734    6.3579    7.1564    8.7526    4.5660   11.5738   10.7966   10.4276 3227.8574
   3261.9000    3.4424   74.2605   27.6942 -999.2500   10.0199    3.6412    8.9334    9.0278    2.5464   31.1424    0.0580    4.6708    8.0590    8.6682    9.6855    5.8534   15.2368   11.8628   10.6926 3227.9529
   3262.0000    3.0530   73.5116   31.8466 -999.2500   10.0199    4.2077   11.3682   11.4252    2.5544   29.5268    0.0559    3.9761    6.2686    6.9080    7.8895    4.6760   10.1286    9.7693    9.9878 3228.0403
   3262.1000    3.6532   71.8504   43.7593 -999.2500   10.0199    4.5663   10.8941   10.8276    2.5627   28.9597    0.0430    3.3956    4.8901    5.9167    7.3956    3.6889    7.1088    8.5351   10.1743 3228.1394
   3262.2000    3.7398   71.7969   45.8794 -999.2500    9.7859    4.8627   11.7660   11.6282    2.5865   28.4705    0.0246    3.7806    5.7641    6.3829    7.8126    3.2466    6.4099    7.8504    9.6566 3228.2300
   3262.3000    3.5719   71.7436   31.5766 -999.2500    9.7859    4.6003   13.5675   13.4655    2.5870   28.0620    0.0314    3.6678    5.8164    6.6692    7.9070    2.8066    6.3771    7.9681    9.7283 3228.3276
   3262.4000    3.5225   72.1848   24.5895 -999.2500    9.7859    4.7499   15.4736   14.6450    2.5788   26.6499    0.0403    3.1609    5.5762    6.6425    7.9663    2.7261    8.5045    9.9994   11.0875 3228.4265
   3262.5000    3.3433   72.3614   26.2929 -999.2500   10.0049    5.0530   13.7392   14.0980    2.5676   26.1417    0.0531    3.4357    6.8131    8.8307   10.5648    3.0839   13.9024   14.1091   12.9974 3228.5132
   3262.6000    3.5696   72.0742   28.1352 -999.2500   10.0049    5.2350   14.1399   14.1606    2.5629   25.6078    0.0612    4.2736    9.6961   12.3973   14.5666    3.5076   24.5723   21.0840   14.5632 3228.6108
   3262.7000    3.9763   72.0674   38.7449 -999.2500   10.0049    5.3494   16.2761   15.4693    2.5708   24.4829    0.0592    6.7428   20.6735   15.5485   16.9728    4.6733   59.0861   20.1362   13.2763 3228.7126
   3262.8000    3.8042   72.0879   44.1621 -999.2500    9.9258    5.2702   15.7995   15.2377    2.5789   24.1704    0.0367    5.1241   12.7754   11.3704   12.5222    3.9490   27.4738   16.1160   12.5191 3228.7991
   3262.9000    3.4638   72.8469   44.5018 -999.2500    9.9258    5.3674   12.8598   12.1912    2.5685   25.8719    0.0318    3.9553    7.3427    8.8783   10.8673    3.4238   38.6714   38.6620   15.0914 3228.8984
   3263.0000    3.1411   73.1889   43.4391 -999.2500    9.9258    5.3012   12.1263   11.0895    2.5509   27.9951    0.0130    3.9784    7.2018    9.6404   12.0318    4.7319  106.9389  113.1218   19.9977 3228.9861
   3263.1000    3.1776   73.2075   26.4697 -999.2500    9.8049    4.9690   13.7607   11.4487    2.5476   27.2852    0.0125    4.2599   10.0786   12.2534   15.6185    4.3444   84.8018   49.5814   20.5287 3229.0869
   3263.2000    3.3001   73.1272   23.7975 -999.2500    9.8049    5.5508   13.0528   12.1721    2.5329   26.6467    0.0281    7.1339   24.7141   20.3013   22.5605    4.5709  108.4735   42.9624   21.5839 3229.1851
   3263.3000    3.5743   72.6180   27.8650 -999.2500    9.8049    5.7687   11.8657   10.6670    2.5666   27.4819    0.0324    5.9685   16.0574   18.1203   21.1852    5.1478  100.5595   50.7320   21.3508 3229.2727
   3263.4000    3.7687   71.4481   41.0289 -999.2500    9.3400    6.6965   13.7851   12.5633    2.5725   27.2535    0.0334    5.8973   14.3479   17.1495   20.2740    5.9903  111.0483   54.5175   20.9072 3229.3696
   3263.5000    3.5191   70.3054   47.1347 -999.2500    9.3400    7.7904   17.1936   17.0675    2.5390   27.6280    0.0199    5.8584   10.4449   13.1910   16.3746    5.9964   46.7422   32.8003   18.5658 3229.4705
   3263.6000    3.4628   70.4810   44.9962 -999.2500    9.3400    8.6549   22.4074   22.4323    2.5430   25.9988    0.0187    4.4368    7.6556   10.1393   13.0487    3.8371   12.9893   15.8607   15.4787 3229.5579
   3263.7000    3.2830   70.0279   44.3486 -999.2500    9.0672    9.0166   25.9911   26.2103    2.5481   25.2201    0.0097    4.4147    9.1979   10.5668   13.4450    3.4861   17.4340   22.0231   15.7022 3229.6582
   3263.8000    3.1943   67.6295   44.3260 -999.2500    9.0672    9.0493   22.7670   24.6352    2.5678   24.6868    0.0237    7.3037   17.3471   19.3487   18.2405    4.3291   65.5266   68.7499   17.1178 3229.7454
   3263.9000    3.1090   67.8307   37.5833 -999.2500    9.0672    9.6247   30.1403   29.5933    2.5712   23.0106    0.0399    9.0399   20.8032   22.1473   21.9636    4.1945   28.3937   32.0533   18.7361 3229.8411
   3264.0000    3.1376   68.3759   24.1083 -999.2500    9.6067   10.6025   34.5475   37.0277    2.5697   21.7952    0.0492    6.2674   13.6201   14.7124   17.1199    3.8129   37.9165   26.4471   19.8078 3229.9448
   3264.1000    3.2722   68.4576   37.2691 -999.2500    9.6067    9.3549   23.2215   24.4577    2.5774   20.5636    0.0282    5.0411   11.5819   13.5853   16.3707    4.3706  111.1800   49.3381   23.1945 3230.0308
   3264.2000    3.4285   68.5591   44.2172 -999.2500    9.6067    9.4256   18.6339   19.2507    2.5991   21.4533    0.0349    7.0570   29.7032   30.0625   29.0533    4.4528  143.5329   92.6517   25.9946 3230.1289
   3264.3000    3.7959   68.2840   46.5063 -999.2500    9.1059    9.6772   17.3243   17.9552    2.6112   21.5487    0.0513    9.0480   42.5337   39.6938   33.4756    6.1991  164.6625  140.6594   27.3741 3230.2295
   3264.4000    3.6286   68.5400   46.5488 -999.2500    9.1059   11.2742   19.3578   19.1991    2.5841   21.8966    0.0495    7.4771   17.8593   19.7982   20.8795    5.4780   63.8010   85.1546   22.9848 3230.3174
   3264.5000    3.6989   69.6684   44.5627 -999.2500    9.1059   12.4515   21.4205   21.2872    2.5646   22.2691    0.0404    6.7113   14.5440   17.2046   18.4503    4.5454   19.3058   31.4470   19.3561 3230.4167
   3264.6000    3.5274   69.7248   44.3547 -999.2500    9.7865   12.0345   22.2108   22.4823    2.5501   22.7900    0.0148    6.9359   14.4565   17.4091   17.9798    4.4914   14.1848   21.4760   18.9088 3230.5042
   3264.7000    3.5459   69.7810   39.3463 -999.2500    9.7865   10.6508   20.5037   20.1322    2.5478   23.3861    0.0245    6.5402   12.6082   14.7081   17.7083    5.2151   20.8745   29.5101   20.6893 3230.6001
