~Version Information
 VERS.                  2.0:   CWLS log ASCII Standard -VERSION 2.0
 WRAP.                   NO:   One line per depth step
~Well Information Block
#MNEM.UNIT     VALUE/NAME     DESCRIPTION
#---------     -----------    ---------------------------
 STRT.M              2355.0000: START DEPTH
 STOP.M              3523.6000: STOP DEPTH
 STEP.M                 0.1000: STEP DEPTH
 NULL.               -999.2500: NULL VALUE
 XYGR.     Australia/New Zealand Coordinate Systems:  XYGROUP
 LLGR.      Latitude/Longitude:  LLGROUP
 CREF.     Datum Geocentric Datum of Austra:  CART REFERENCE
 GREF.     Ellipsoid World Geodetic System :  GEO REFERENCE
 CGSY.             SS GDA94-50:  CART GRID SYS
 GGSY.                      LL:  GEO GRID SYS
 CCDE.     UTM Zone 50S on Geocentric Datum of Australia 1994, Meters:  CART COORD DESC
 GCDE.     Generic Lat/Long's, Degrees, -180 ==> +180:  GEO COORD DESC
 UWI .                 W006107:  UNIQUE WELL IDENTIFIER
 API .                 W006107:  API NUMBER
 UNIT.                11741669:  LOGGING EQUIPMENT ID
 DCON.        Sperry Drilling :  DIRECTNL CONTR
 RIG .              Ensign 970:  RIG NAME
 MWDS.                Jandakot:  MWD SHOP
 SRVC.     Ensign Energy Services:  CONTRACTOR
 FLD .               Walyering:  FIELD NAME
 CTRY.               Australia:  COUNTRY NAME
 PROV.       Western Australia:  PROVINCE
 STAT.       Western Australia:  STATE NAME
 REGN.            Asia Pacific:  REGION
 BASE.                   Perth:  LOGGING EQUIPMENT BASE LOCATION
 WTYP.                Vertical:  WELL TYPE
 PDAT.          Mean Sea Level:  PERMANENT DATUM
 MDS .              Win MagUTM:  MAG DATA SOURCE
 MMDD.          22 April, 2022:  MAG DATA DATE
 MMDL.            bggm2021.dat:  MAGNETIC MODEL
 SON .        PA-XX-0907756569:  JOB NUMBER
 COMP.     Strike South West Pty Ltd:  COMPANY
 WELL.             Walyering 6:  WELL NAME
 FTOP.          Formation Tops:  FORM TOPS DESC
 ILTD.               Lithology:  INTERP LTH DESC
 SVYD.                  Survey:  SURVEY DESC
 DMOD.             Drill Model:  DRILL MOD DESC
 HPTY.       Minimum Curvature:  HOLE POS TYPE
 NREF.                    Grid:  NORTH REFERENCE
 SPUD.               25-Apr-22:  SPUD DATE
 DATE.      12.00.00 13-May-22:  END TIME
 STIM.      17.00.00 24-Apr-22:  START TIME
 DMF .             Drill Floor:  DRILL MEAS FROM
 DFST.                        :  DIST FSL TEXT
 DFWT.                        :  DIST FWL TEXT
 CNTY.                        :  COUNTY
 LOC .                        :  LOCATION
 LMF .             Drill Floor:  LOG MEASURED FROM
 CMER.deg           117.000000:  CENTRL MERIDIAN
 DEP .m               0.000000:  DEPTH
 AGAP.m               7.160000:  AIR GAP
 MMDE.m             -31.623000:  MAGUTM CALC DEP
 APD .m               7.160000:  DEPTH ABOVE PD
 WDMS.m               0.000000:  WD ELEV
 EGL .m              96.589993:  GROUND ELEVATION
 EPD .m              96.589993:  ELEVATION
 AZTC.deg            -2.153514:  AZM TOTAL CORR
 GRDC.deg             0.779280:  GRID CORRECTION
 MDEC.deg            -1.374234:  MAGNETIC DECL
 MDIP.deg           -64.762985:  MAGNETIC DIP
 MFLD.nT          57671.410156:  MAGNETIC FIELD
 GVFD.g               1.000000:  GRAVITY FIELD
 VSDR.deg             0.000000:  VERT SEC DIRECT
 TDD .m            3551.000070:  TOTAL DEPTH (DRILLER)
 SDEP.m              74.999999:  START DEPTH
 DFSL.m               0.000000:  DISTANCE FSL
 DFWL.m               0.000000:  DISTANCE FWL
 UTMY.m         6601158.480000:  UTM Y
 UTMX.m          353924.590000:  UTM X
 WHEW.m               0.000000:  WELL HEAD E/W
 WHNS.m               0.000000:  WELL HEAD N/S
 LONG.deg           115.474500:  LONGITUDE
 LATI.deg           -30.713472:  LATITUDE
 TVDS.m             103.749993:  TVDSS CORRECTN
 EKB .m             103.750002:  KB ELEVATION
 EDF .m             103.750002:  DF ELEVATION
 TDL .m            1189.000020:  TOTAL DEPTH (LOGGER)
 CSGD.m            2359.000046:  CASING BOTTOM (DRILLER)
 CSGL.m            2359.000046:  CASING BOTTOM (LOGGER)
 CSGS.mm            244.474994:  CASING SIZE
 CSGW.kgpm           69.942862:  CASING WEIGHT
 MAGU.                 1391237:  MAGUTM CHECKSUM
 VSC .                       1:  VS TO CLOSURE
~Parameter Information Block
#MNEM.UNIT       Value        Description
#---------     -----------    ---------------------------
 AV  .mps             2.550000:  Ann Velocity 
 AVMX.mps             2.933333:  Max Ann Veloc 
 AZIF.deg             4.250000:  Azm, Final 
 BHAT.               Mud Motor:  BHA Type 
 BREV.krev         1163.365845:  Rev Bit Total 
 BROT.°/30m           0.050000:  Build Rotating 
 BS  .mm            215.899994:  Bit Size 
 BSZ .mm            215.899994:  Bit Size 
 BTPL.kPag         3033.715332:  Bit Press Loss 
 CABU.                      No:  Customer Abuse 
 CGEO.             Dan Walding:  Customer Geo 
 COMM.                     ì¿q:  Run Comments 1 
 TCS .hr            105.300003:  Time Ciculation Ended 
 CV  .mps             4.283333:  Crit Velocity 
 CVMX.mps             4.600000:  Max Crit Veloc 
 DD1 .     Christian Arrindell:  Direct Drillr 1 
 DD2 .            Ivan Tutynin:  Direct Drillr 2 
 DDSV.               Mud Motor:  DD Service 
 DEFF.%              95.000000:  % Det Eff 
 DLRX.°/30m           1.280000:  Dogleg Rot Max 
 DLSO.°/30m           1.400000:  Dogleg Oriented 
 DLSX.°/30m           2.000000:  Dogleg Str Max 
 DRET.      00.30.00 12-May-22:  Drill End Time 
 DRST.      19.30.00 07-May-22:  Drill Start Tim 
 DTIM.hr             80.400002:  Time Drilling 
 EDEP.m            3551.000000:  End Depth 
 ENG1.            Ade Suhendar:  Engineer 1 
 ENG2.        Yiek Chong Leong:  Engineer 2 
 ENG3.           Sufyan Zainal:  Engineer 3 
 ETIM.      23.45.00 12-May-22:  End Time 
 FLOI.m3pm            2.035733:  Flow In 
 FLON.m3pm            1.324854:  Flow In Min 
 FLOS.mptm            4.000000:  Fluid Loss 
 FLOX.m3pm            2.119767:  Flow In Max 
 DFT .                 Polymer:  Mud Type 
 FTRO.       Formation Presure:  FTWD Run Obj 
 HFLO.                      No:  High Flow 
 HPRE.                      No:  High Pressure 
 HTEM.                      No:  High Temp 
 HYDO.m               2.500000:  Hydro Offset 
 IFIN.deg             1.860000:  Inc, Final 
 IMAX.deg             5.744654:  Inc Max 
 IMIN.deg             0.433048:  Inc Min 
 IMND.m            2565.059814:  Inc Min Depth 
 IMXD.m            2364.389893:  Inc Max Depth 
 JARR.                      No:  Jarring 
 LETM.      00.30.00 12-May-22:  Log End Time 
 LOST.hr                     0:  Lost Rig Time 
 LSTM.      19.30.00 07-May-22:  Log Start Time 
 MDCL.ppm         79803.000000:  Mud Chlorides 
 MDES.             Fresh Water:  Mud Desc 
 DFD .kg/m3        1138.351074:  Mud Density 
 MDMN.kg/m3        1114.385986:  Dens Mud Min 
 MDMX.kg/m3        1150.333862:  Dens Mud Max 
 PH  .pH             10.100000:  Mud pH 
 MOIL.                       0:  Run Mud Oil % 
 MOWR.                   0 100:  Run Mud OWR 
 MSND.                     0.2:  Run Mud Sand % 
 MSOL.                     4.6:  Run Mud Solids% 
 MTV .                GeoForce:  Motor Variant 
 DFV .spl            82.445999:  Mud Viscosity 
 MWOD.mm            171.449997:  MWD Tool OD 
 MWSI.                      No:  Serv Intrp, MWD 
 OTIM.hr            146.500000:  Time Operating 
 PCON.          Wear / Scratch:  Pad Condition 
 PMAX.kPag        35887.472656:  Press Op, Max 
 PV  .mPsec          40.000000:  Mud PV 
 RMS .ohmm            0.606000:  Mud Resistivity 
 RMCS.ohmm            0.076000:  Mud Cake Resistivity 
 MCST.degC           19.830000:  Mud Cake Sample Temperature 
 RMFS.ohmm            0.050000:  Mud Filtrate Resistivity 
 RMFT.degC           21.499998:  Mud Filtrate Sample Temperature 
 RMMT.ohmm            0.266500:  Rm @ Max Temp 
 MST .degC           21.000002:  Mud Sample Temperature 
 RUN .                     300:  Run Number 
 ROPA.m/hr           14.790000:  ROP Avg 
 ROPN.m/hr            1.870000:  ROP Min 
 ROPX.m/hr           32.700001:  ROP Max 
 RPMA.rpm            52.500000:  RPM Surface Avg 
 RPMN.rpm            30.000000:  RPM Surface Min 
 RPMX.rpm            60.000000:  RPM Surface Max 
 RRUN.                       3:  Rig Run Number 
 RTIM.hr              8.510000:  Time Reaming 
 SAZI.deg           199.820007:  Azm, Start 
 SDEP.m            2362.000000:  Start Depth 
 SIDD.                      No:  Serv Intrp, DD 
 SINC.deg             5.740000:  Inc, Start 
 SPPA.kPag        17754.474609:  SPP Avg 
 SPPN.kPag        10893.795898:  SPP Min 
 SPPX.kPag        22063.382813:  SPP Max 
 STIM.      21.15.00 06-May-22:  Start Time 
 SVCS.                 DD, MWD:  Services 
 SVER.                9.200000:  Sperry Version 
 TDAT.m            1189.000000:  Tot Depth Attmp 
 TDDF.                      No:  Trip for DD 
 TDLG.m            1189.000000:  Tot Depth Loggd 
 TFF .                      No:  Trip for Fail 
 TQAA.kN-m            0.013558:  Torque Abs Avg 
 TQAN.kN-m            0.004067:  Torque Abs Min 
 TQAX.kN-m            0.024405:  Torque Abs Max 
 TRRT.°/30m           0.860000:  Turn Rotating 
 MRT .                  EWR-P4:  Maximum Recorded Temperature 
 TTMX.degC           75.199997:  Max Tool Temp 
 VS01.                12278995:  Virtual Str1 SN 
 VS02.                12394165:  Virtual Str2 SN 
 VS03.                13686255:  Virtual Str3 SN 
 VS04.                90681167:  Virtual Str4 SN 
 VS05.                90683981:  Virtual Str5 SN 
 VS06.                90683974:  Virtual Str6 SN 
 VS07.                90683978:  Virtual Str7 SN 
 VS08.                90683983:  Virtual Str8 SN 
 VS09.                13531224:  Virtual Str9 SN 
 WBMN.kdN             2.668932:  WOB Min 
 WITN.          Peter Clarkson:  Customer Rep 2 
 WITN.        Shaughan Corless:  Customer Rep 
 WOBA.kdN             7.045982:  WOB Avg 
 WOBX.kdN            10.675730:  WOB Max 
 YP  .pa             14.364045:  Yield Point 
~Curve Information Block
#MNEM.UNIT                 API CODE     Curve Description
#---------               -----------    ---------------------------
 DEPT.M                 00 000 000 000:  Depth
 AFRSAC.ohmm            00 000 000 000:  AFR Shallow Avg Res BC
 AFRMAC.ohmm            00 000 000 000:  AFR Medium Avg Res BC
 AFRDAC.ohmm            00 000 000 000:  AFR Deep Avg Res BC
#Other Information
#
#WARRANTY: Halliburton will use its best efforts to furnish customers with 
#accurate information and interpretations that are part of, and incident to, the services 
#provided.  However, Halliburton cannot and does not warrant the accuracy 
#or correctness of such information and interpretations.  Under no circumstances should any 
#such information or interpretation be relied upon as the sole basis for any drilling, 
#completion, production, or financial decision or any procedure involving any risk to the 
#safety of any drilling venture, drilling rig or its crew or any other third party.  The 
#Customer has full responsibility for all drilling, completion and production operation.  
#Halliburton makes no representations or warranties, either expressed or 
#implied, including, but not limited to, the implied warranties of merchantability or fitness 
#for a particular purpose, with respect to the services rendered.  In no event will 
#Halliburton be liable for failure to obtain any particular results or for 
#any damages, including, but not limited to, indirect, special or consequential damages, 
#resulting from the use of any information or interpretation provided by Halliburton.
#
~A   DEPT      AFRSAC     AFRMAC     AFRDAC   
# ...
   3277.2000     4.3256     4.0625     4.5282
   3277.3000     4.9892     4.7293     5.4125
   3277.4000     5.7836     5.6889     6.4902
   3277.5000     6.2408     6.5750     7.0910
   3277.6000     6.4389     6.8434     7.2869
   3277.7000     6.5369     6.8328     7.2915
   3277.8000     6.5791     6.7147     7.1952
   3277.9000     6.6268     6.6053     7.0816
   3278.0000     6.4003     6.2805     6.7149
   3278.1000     6.1316     5.9977     6.3474
   3278.2000     5.5353     5.5390     5.6474
   3278.3000     5.1089     5.1114     5.1752
   3278.4000     4.8635     4.7827     4.9391
   3278.5000     4.6718     4.6659     4.7866
   3278.6000     4.5257     4.6107     4.6803
   3278.7000     4.4140     4.6728     4.6043
   3278.8000     4.3436     4.6894     4.5912
   3278.9000     4.4414     4.7948     4.7881
   3279.0000     4.5476     4.9180     5.0115
   3279.1000     4.5959     4.9450     5.1821
   3279.2000     4.6765     5.0296     5.3673
   3279.3000     4.8580     5.1944     5.6523
   3279.4000     5.1935     5.6510     6.1517
   3279.5000     5.5373     6.1821     6.6695
   3279.6000     5.7155     6.3627     6.9090
   3279.7000     5.6576     6.3005     6.7951
   3279.8000     5.4885     6.0116     6.4945
   3279.9000     5.1709     5.4988     5.9770
   3280.0000     4.8128     5.0041     5.4381
   3280.1000     4.4889     4.5589     5.0053
   3280.2000     4.4044     4.6001     4.9466
   3280.3000     4.6848     5.1228     5.4164
   3280.4000     5.1493     5.8678     6.1463
   3280.5000     5.5832     6.4714     6.8294
   3280.6000     5.6489     6.5249     6.9954
   3280.7000     5.5973     6.3943     6.8606
   3280.8000     5.5928     6.3130     6.7339
   3280.9000     5.7212     6.3702     6.6983
   3281.0000     5.9965     6.6661     6.7415
   3281.1000     6.1943     7.0321     6.8349
   3281.2000     6.4650     7.0974     6.9244
   3281.3000     6.7432     6.6863     6.9304
   3281.4000     7.3047     6.5139     6.9813
   3281.5000     8.2495     7.1329     7.3547
   3281.6000    10.3474     9.7786     8.5443
   3281.7000    13.9350    15.7593    10.3910
   3281.8000    20.4130    27.3271    13.8633
   3281.9000    27.6161    40.7172    19.0490
   3282.0000    33.8987    47.5555    29.5950
   3282.1000    39.5356    56.1735    45.8857
   3282.2000    43.1661    68.6631    60.7358
   3282.3000    39.2847    95.9007    61.8268
   3282.4000    25.1591   103.8274    37.8471
   3282.5000    17.1006    72.9507    22.9795
   3282.6000    13.7839    41.1498    16.2140
   3282.7000    12.2788    24.6464    11.9696
   3282.8000    10.9908    16.4856     8.8978
   3282.9000     9.4321    12.0956     6.8377
   3283.0000     8.3833     9.7815     5.8075
   3283.1000     7.5336     7.5664     5.3383
   3283.2000     6.9259     6.3370     5.2678
   3283.3000     6.8221     6.0368     5.6657
   3283.4000     7.7182     7.1772     7.1136
   3283.5000    10.7707    11.2679    11.0812
   3283.6000    13.5012    15.9176    15.4939
   3283.7000    13.6622    16.5725    16.4272
   3283.8000    10.3511    11.9490    11.9124
   3283.9000     7.3886     8.1928     7.9758
   3284.0000     6.2060     6.8546     6.4719
   3284.1000     5.9958     6.7108     6.2775
   3284.2000     6.2828     7.1063     6.5848
   3284.3000     6.4992     7.2073     6.7067
   3284.4000     6.0405     6.5891     6.0381
   3284.5000     6.0212     6.5173     5.8512
   3284.6000     6.3885     6.8047     6.0840
   3284.7000     7.6160     7.8427     7.1832
   3284.8000     9.4885     9.5737     9.1541
   3284.9000    13.3853    13.8557    13.8895
   3285.0000    23.0942    25.8812    27.3210
   3285.1000    48.5533    61.1481    69.5814
   3285.2000    80.6227   103.7770   128.6839
   3285.3000    80.9189    98.0639   119.7991
   3285.4000    74.7358    83.2812   100.3416
   3285.5000    70.4683    71.7511    87.1749
   3285.6000    55.3488    50.5504    62.1785
   3285.7000    38.3360    32.4477    39.2459
   3285.8000    26.8696    22.1433    25.6913
   3285.9000    21.3374    17.5552    19.9958
   3286.0000    21.2601    18.2347    20.1834
   3286.1000    19.3682    17.9539    18.6717
   3286.2000    15.5591    15.4170    15.2266
   3286.3000    11.6912    11.9115    11.3931
   3286.4000     9.0845     9.1985     8.8458
   3286.5000     7.3741     7.3296     7.2247
   3286.6000     6.0319     6.0356     5.9327
   3286.7000     5.2692     5.3467     5.2182
   3286.8000     4.9144     5.1597     4.9588
   3286.9000     5.0398     5.4628     5.2865
   3287.0000     5.3179     5.9071     5.8151
   3287.1000     5.6887     6.4378     6.4700
   3287.2000     6.1557     6.9848     7.1994
   3287.3000     6.5474     7.3961     7.7921
   3287.4000     6.7349     7.4571     8.0695
   3287.5000     6.7405     7.3318     8.0683
   3287.6000     6.3475     6.8226     7.5768
   3287.7000     5.7673     6.1291     6.8079
   3287.8000     5.4119     5.6788     6.2985
   3287.9000     5.1288     5.3679     5.8948
   3288.0000     5.0546     5.3412     5.7990
   3288.1000     5.0756     5.4837     5.8638
   3288.2000     5.1924     5.7273     6.0736
   3288.3000     5.5342     6.2102     6.5542
   3288.4000     5.8136     6.5993     6.9420
   3288.5000     5.7542     6.4946     6.8633
   3288.6000     5.6950     6.3280     6.7281
   3288.7000     5.6038     6.0926     6.5171
   3288.8000     5.6561     6.0273     6.4605
   3288.9000     5.7762     6.0855     6.4758
   3289.0000     5.7978     6.0706     6.3645
   3289.1000     5.8872     6.1938     6.3623
   3289.2000     6.0852     6.4484     6.5382
   3289.3000     6.3461     6.7732     6.7791
   3289.4000     6.7043     7.1971     7.1062
   3289.5000     7.0698     7.5018     7.3965
   3289.6000     7.2995     7.5496     7.4925
   3289.7000     7.3379     7.4091     7.3700
   3289.8000     7.7438     7.6162     7.7002
   3289.9000     8.9687     8.7579     9.0524
   3290.0000    11.8799    11.7952    12.3861
   3290.1000    15.1892    15.5355    16.2234
   3290.2000    16.6707    16.9977    17.2325
   3290.3000    14.3006    14.1665    13.9376
   3290.4000    11.1224    10.7012    10.2151
   3290.5000    10.4255    10.0131     9.3762
   3290.6000     9.3289     8.9873     8.4345
   3290.7000     8.7890     8.3009     8.0198
   3290.8000     8.3392     7.6879     7.6400
   3290.9000     8.1082     7.4893     7.6039
   3291.0000     9.4744     8.9396     9.3311
   3291.1000    11.2532    11.1439    11.8985
   3291.2000    13.6905    14.5953    15.6255
   3291.3000    15.2988    17.3246    18.1454
   3291.4000    13.4893    14.6912    15.6999
   3291.5000    11.0527    11.3765    12.3166
   3291.6000     9.2849     9.1446     9.9699
   3291.7000     8.2968     8.0430     8.6587
   3291.8000     7.8442     7.5365     8.0250
   3291.9000     7.4349     7.0312     7.4844
   3292.0000     7.0187     6.5971     7.0022
   3292.1000     7.1710     6.8059     7.2311
   3292.2000     7.6725     7.5777     7.9635
   3292.3000     7.7898     8.2375     8.3358
   3292.4000     7.4003     8.2776     7.9444
   3292.5000     6.5431     7.4401     6.8557
   3292.6000     5.9089     6.6017     6.0078
   3292.7000     5.4802     5.9805     5.4387
   3292.8000     5.1917     5.5255     5.0385
   3292.9000     5.1436     5.3364     4.9012
   3293.0000     5.2399     5.3716     4.9622
   3293.1000     5.7303     5.9140     5.5292
   3293.2000     6.9224     7.2271     6.8853
   3293.3000     9.4056    10.1604     9.9513
   3293.4000    13.9697    16.0501    16.2971
   3293.5000    20.1018    23.7104    25.6071
   3293.6000    28.5340    33.1078    37.9026
   3293.7000    38.3753    42.7398    48.9820
   3293.8000    43.4735    50.1469    49.6613
   3293.9000    37.6104    43.3327    40.1789
   3294.0000    31.2719    33.5288    32.6232
   3294.1000    30.5279    21.5575    31.5268
   3294.2000    27.5596    12.7626    27.2609
   3294.3000    19.8187     8.7888    17.8404
   3294.4000    13.5287     7.3277    11.3845
   3294.5000    10.3797     7.5672     8.5844
