~Version Information
 VERS.                  2.0:   CWLS log ASCII Standard -VERSION 2.0
 WRAP.                   NO:   One line per depth step
~Well Information Block
#MNEM.UNIT     VALUE/NAME     DESCRIPTION
#---------     -----------    ---------------------------
 STRT.M              2355.0000: START DEPTH
 STOP.M              3523.6000: STOP DEPTH
 STEP.M                 0.1000: STEP DEPTH
 NULL.               -999.2500: NULL VALUE
 XYGR.     Australia/New Zealand Coordinate Systems:  XYGROUP
 LLGR.      Latitude/Longitude:  LLGROUP
 CREF.     Datum Geocentric Datum of Austra:  CART REFERENCE
 GREF.     Ellipsoid World Geodetic System :  GEO REFERENCE
 CGSY.             SS GDA94-50:  CART GRID SYS
 GGSY.                      LL:  GEO GRID SYS
 CCDE.     UTM Zone 50S on Geocentric Datum of Australia 1994, Meters:  CART COORD DESC
 GCDE.     Generic Lat/Long's, Degrees, -180 ==> +180:  GEO COORD DESC
 UWI .                 W006107:  UNIQUE WELL IDENTIFIER
 API .                 W006107:  API NUMBER
 UNIT.                11741669:  LOGGING EQUIPMENT ID
 DCON.        Sperry Drilling :  DIRECTNL CONTR
 RIG .              Ensign 970:  RIG NAME
 MWDS.                Jandakot:  MWD SHOP
 SRVC.     Ensign Energy Services:  CONTRACTOR
 FLD .               Walyering:  FIELD NAME
 CTRY.               Australia:  COUNTRY NAME
 PROV.       Western Australia:  PROVINCE
 STAT.       Western Australia:  STATE NAME
 REGN.            Asia Pacific:  REGION
 BASE.                   Perth:  LOGGING EQUIPMENT BASE LOCATION
 WTYP.                Vertical:  WELL TYPE
 PDAT.          Mean Sea Level:  PERMANENT DATUM
 MDS .              Win MagUTM:  MAG DATA SOURCE
 MMDD.          22 April, 2022:  MAG DATA DATE
 MMDL.            bggm2021.dat:  MAGNETIC MODEL
 SON .        PA-XX-0907756569:  JOB NUMBER
 COMP.     Strike South West Pty Ltd:  COMPANY
 WELL.             Walyering 6:  WELL NAME
 FTOP.          Formation Tops:  FORM TOPS DESC
 ILTD.               Lithology:  INTERP LTH DESC
 SVYD.                  Survey:  SURVEY DESC
 DMOD.             Drill Model:  DRILL MOD DESC
 HPTY.       Minimum Curvature:  HOLE POS TYPE
 NREF.                    Grid:  NORTH REFERENCE
 SPUD.               25-Apr-22:  SPUD DATE
 DATE.      12.00.00 13-May-22:  END TIME
 STIM.      17.00.00 24-Apr-22:  START TIME
 DMF .             Drill Floor:  DRILL MEAS FROM
 DFST.                        :  DIST FSL TEXT
 DFWT.                        :  DIST FWL TEXT
 CNTY.                        :  COUNTY
 LOC .                        :  LOCATION
 LMF .             Drill Floor:  LOG MEASURED FROM
 CMER.deg           117.000000:  CENTRL MERIDIAN
 DEP .m               0.000000:  DEPTH
 AGAP.m               7.160000:  AIR GAP
 MMDE.m             -31.623000:  MAGUTM CALC DEP
 APD .m               7.160000:  DEPTH ABOVE PD
 WDMS.m               0.000000:  WD ELEV
 EGL .m              96.589993:  GROUND ELEVATION
 EPD .m              96.589993:  ELEVATION
 AZTC.deg            -2.153514:  AZM TOTAL CORR
 GRDC.deg             0.779280:  GRID CORRECTION
 MDEC.deg            -1.374234:  MAGNETIC DECL
 MDIP.deg           -64.762985:  MAGNETIC DIP
 MFLD.nT          57671.410156:  MAGNETIC FIELD
 GVFD.g               1.000000:  GRAVITY FIELD
 VSDR.deg             0.000000:  VERT SEC DIRECT
 TDD .m            3551.000070:  TOTAL DEPTH (DRILLER)
 SDEP.m              74.999999:  START DEPTH
 DFSL.m               0.000000:  DISTANCE FSL
 DFWL.m               0.000000:  DISTANCE FWL
 UTMY.m         6601158.480000:  UTM Y
 UTMX.m          353924.590000:  UTM X
 WHEW.m               0.000000:  WELL HEAD E/W
 WHNS.m               0.000000:  WELL HEAD N/S
 LONG.deg           115.474500:  LONGITUDE
 LATI.deg           -30.713472:  LATITUDE
 TVDS.m             103.749993:  TVDSS CORRECTN
 EKB .m             103.750002:  KB ELEVATION
 EDF .m             103.750002:  DF ELEVATION
 TDL .m            1189.000020:  TOTAL DEPTH (LOGGER)
 CSGD.m            2359.000046:  CASING BOTTOM (DRILLER)
 CSGL.m            2359.000046:  CASING BOTTOM (LOGGER)
 CSGS.mm            244.474994:  CASING SIZE
 CSGW.kgpm           69.942862:  CASING WEIGHT
 MAGU.                 1391237:  MAGUTM CHECKSUM
 VSC .                       1:  VS TO CLOSURE
~Parameter Information Block
#MNEM.UNIT       Value        Description
#---------     -----------    ---------------------------
 AV  .mps             2.550000:  Ann Velocity 
 AVMX.mps             2.933333:  Max Ann Veloc 
 AZIF.deg             4.250000:  Azm, Final 
 BHAT.               Mud Motor:  BHA Type 
 BREV.krev         1163.365845:  Rev Bit Total 
 BROT.°/30m           0.050000:  Build Rotating 
 BS  .mm            215.899994:  Bit Size 
 BSZ .mm            215.899994:  Bit Size 
 BTPL.kPag         3033.715332:  Bit Press Loss 
 CABU.                      No:  Customer Abuse 
 CGEO.             Dan Walding:  Customer Geo 
 COMM.                     ì¿q:  Run Comments 1 
 TCS .hr            105.300003:  Time Ciculation Ended 
 CV  .mps             4.283333:  Crit Velocity 
 CVMX.mps             4.600000:  Max Crit Veloc 
 DD1 .     Christian Arrindell:  Direct Drillr 1 
 DD2 .            Ivan Tutynin:  Direct Drillr 2 
 DDSV.               Mud Motor:  DD Service 
 DEFF.%              95.000000:  % Det Eff 
 DLRX.°/30m           1.280000:  Dogleg Rot Max 
 DLSO.°/30m           1.400000:  Dogleg Oriented 
 DLSX.°/30m           2.000000:  Dogleg Str Max 
 DRET.      00.30.00 12-May-22:  Drill End Time 
 DRST.      19.30.00 07-May-22:  Drill Start Tim 
 DTIM.hr             80.400002:  Time Drilling 
 EDEP.m            3551.000000:  End Depth 
 ENG1.            Ade Suhendar:  Engineer 1 
 ENG2.        Yiek Chong Leong:  Engineer 2 
 ENG3.           Sufyan Zainal:  Engineer 3 
 ETIM.      23.45.00 12-May-22:  End Time 
 FLOI.m3pm            2.035733:  Flow In 
 FLON.m3pm            1.324854:  Flow In Min 
 FLOS.mptm            4.000000:  Fluid Loss 
 FLOX.m3pm            2.119767:  Flow In Max 
 DFT .                 Polymer:  Mud Type 
 FTRO.       Formation Presure:  FTWD Run Obj 
 HFLO.                      No:  High Flow 
 HPRE.                      No:  High Pressure 
 HTEM.                      No:  High Temp 
 HYDO.m               2.500000:  Hydro Offset 
 IFIN.deg             1.860000:  Inc, Final 
 IMAX.deg             5.744654:  Inc Max 
 IMIN.deg             0.433048:  Inc Min 
 IMND.m            2565.059814:  Inc Min Depth 
 IMXD.m            2364.389893:  Inc Max Depth 
 JARR.                      No:  Jarring 
 LETM.      00.30.00 12-May-22:  Log End Time 
 LOST.hr                     0:  Lost Rig Time 
 LSTM.      19.30.00 07-May-22:  Log Start Time 
 MDCL.ppm         79803.000000:  Mud Chlorides 
 MDES.             Fresh Water:  Mud Desc 
 DFD .kg/m3        1138.351074:  Mud Density 
 MDMN.kg/m3        1114.385986:  Dens Mud Min 
 MDMX.kg/m3        1150.333862:  Dens Mud Max 
 PH  .pH             10.100000:  Mud pH 
 MOIL.                       0:  Run Mud Oil % 
 MOWR.                   0 100:  Run Mud OWR 
 MSND.                     0.2:  Run Mud Sand % 
 MSOL.                     4.6:  Run Mud Solids% 
 MTV .                GeoForce:  Motor Variant 
 DFV .spl            82.445999:  Mud Viscosity 
 MWOD.mm            171.449997:  MWD Tool OD 
 MWSI.                      No:  Serv Intrp, MWD 
 OTIM.hr            146.500000:  Time Operating 
 PCON.          Wear / Scratch:  Pad Condition 
 PMAX.kPag        35887.472656:  Press Op, Max 
 PV  .mPsec          40.000000:  Mud PV 
 RMS .ohmm            0.606000:  Mud Resistivity 
 RMCS.ohmm            0.076000:  Mud Cake Resistivity 
 MCST.degC           19.830000:  Mud Cake Sample Temperature 
 RMFS.ohmm            0.050000:  Mud Filtrate Resistivity 
 RMFT.degC           21.499998:  Mud Filtrate Sample Temperature 
 RMMT.ohmm            0.266500:  Rm @ Max Temp 
 MST .degC           21.000002:  Mud Sample Temperature 
 RUN .                     300:  Run Number 
 ROPA.m/hr           14.790000:  ROP Avg 
 ROPN.m/hr            1.870000:  ROP Min 
 ROPX.m/hr           32.700001:  ROP Max 
 RPMA.rpm            52.500000:  RPM Surface Avg 
 RPMN.rpm            30.000000:  RPM Surface Min 
 RPMX.rpm            60.000000:  RPM Surface Max 
 RRUN.                       3:  Rig Run Number 
 RTIM.hr              8.510000:  Time Reaming 
 SAZI.deg           199.820007:  Azm, Start 
 SDEP.m            2362.000000:  Start Depth 
 SIDD.                      No:  Serv Intrp, DD 
 SINC.deg             5.740000:  Inc, Start 
 SPPA.kPag        17754.474609:  SPP Avg 
 SPPN.kPag        10893.795898:  SPP Min 
 SPPX.kPag        22063.382813:  SPP Max 
 STIM.      21.15.00 06-May-22:  Start Time 
 SVCS.                 DD, MWD:  Services 
 SVER.                9.200000:  Sperry Version 
 TDAT.m            1189.000000:  Tot Depth Attmp 
 TDDF.                      No:  Trip for DD 
 TDLG.m            1189.000000:  Tot Depth Loggd 
 TFF .                      No:  Trip for Fail 
 TQAA.kN-m            0.013558:  Torque Abs Avg 
 TQAN.kN-m            0.004067:  Torque Abs Min 
 TQAX.kN-m            0.024405:  Torque Abs Max 
 TRRT.°/30m           0.860000:  Turn Rotating 
 MRT .                  EWR-P4:  Maximum Recorded Temperature 
 TTMX.degC           75.199997:  Max Tool Temp 
 VS01.                12278995:  Virtual Str1 SN 
 VS02.                12394165:  Virtual Str2 SN 
 VS03.                13686255:  Virtual Str3 SN 
 VS04.                90681167:  Virtual Str4 SN 
 VS05.                90683981:  Virtual Str5 SN 
 VS06.                90683974:  Virtual Str6 SN 
 VS07.                90683978:  Virtual Str7 SN 
 VS08.                90683983:  Virtual Str8 SN 
 VS09.                13531224:  Virtual Str9 SN 
 WBMN.kdN             2.668932:  WOB Min 
 WITN.          Peter Clarkson:  Customer Rep 2 
 WITN.        Shaughan Corless:  Customer Rep 
 WOBA.kdN             7.045982:  WOB Avg 
 WOBX.kdN            10.675730:  WOB Max 
 YP  .pa             14.364045:  Yield Point 
~Curve Information Block
#MNEM.UNIT                 API CODE     Curve Description
#---------               -----------    ---------------------------
 DEPT.M                 00 000 000 000:  Depth
 AFRSAC.ohmm            00 000 000 000:  AFR Shallow Avg Res BC
 AFRMAC.ohmm            00 000 000 000:  AFR Medium Avg Res BC
 AFRDAC.ohmm            00 000 000 000:  AFR Deep Avg Res BC
#Other Information
#
#WARRANTY: Halliburton will use its best efforts to furnish customers with 
#accurate information and interpretations that are part of, and incident to, the services 
#provided.  However, Halliburton cannot and does not warrant the accuracy 
#or correctness of such information and interpretations.  Under no circumstances should any 
#such information or interpretation be relied upon as the sole basis for any drilling, 
#completion, production, or financial decision or any procedure involving any risk to the 
#safety of any drilling venture, drilling rig or its crew or any other third party.  The 
#Customer has full responsibility for all drilling, completion and production operation.  
#Halliburton makes no representations or warranties, either expressed or 
#implied, including, but not limited to, the implied warranties of merchantability or fitness 
#for a particular purpose, with respect to the services rendered.  In no event will 
#Halliburton be liable for failure to obtain any particular results or for 
#any damages, including, but not limited to, indirect, special or consequential damages, 
#resulting from the use of any information or interpretation provided by Halliburton.
#
~A   DEPT      AFRSAC     AFRMAC     AFRDAC   
# ...
   2581.2000    24.8057   108.9407   125.8116
   2581.3000    24.4466   113.8849   133.3779
   2581.4000    23.7225   112.4016   134.0340
   2581.5000    23.2942   107.5302   130.0967
   2581.6000    23.2201   106.7139   126.2073
   2581.7000    23.6607   108.3229   124.4809
   2581.8000    24.4390   108.9495   121.8486
   2581.9000    25.7848   108.2471   121.8298
   2582.0000    27.0614   104.8659   119.6920
   2582.1000    28.3078   102.8507   118.4927
   2582.2000    29.2781   103.2696   118.4780
   2582.3000    29.5051   104.8182   119.5354
   2582.4000    28.6152   111.2738   126.6786
   2582.5000    27.4099   120.0233   136.7648
   2582.6000    26.0589   128.7906   147.6874
   2582.7000    24.8084   132.3916   153.1587
   2582.8000    23.8424   128.0744   150.1738
   2582.9000    22.8081   122.8823   146.0355
   2583.0000    22.3141   125.1129   149.3573
   2583.1000    22.5299   130.4755   156.0815
   2583.2000    22.9116   131.5804   156.0160
   2583.3000    23.4493   126.8884   147.8319
   2583.4000    23.7271   121.7613   140.6366
   2583.5000    23.8577   123.4072   141.6520
   2583.6000    24.2101   128.3758   148.3221
   2583.7000    24.1742   131.3245   153.5482
   2583.8000    23.4113   131.6130   155.2832
   2583.9000    22.1073   131.4117   154.8298
   2584.0000    21.1183   134.0669   157.9996
   2584.1000    20.6283   139.4519   164.6566
   2584.2000    20.5649   146.6790   173.6598
   2584.3000    20.3515   153.8517   181.2965
   2584.4000    19.8232   158.1319   183.1863
   2584.5000    19.0127   156.2449   176.2777
   2584.6000    18.3932   150.7543   166.8000
   2584.7000    18.1116   147.5498   161.7109
   2584.8000    18.2418   148.5361   162.9261
   2584.9000    18.8794   151.5454   165.4189
   2585.0000    20.2351   154.8827   166.6909
   2585.1000    22.6815   158.9145   169.8142
   2585.2000    25.9966   162.6653   173.2484
   2585.3000    28.6762   147.6232   161.4831
   2585.4000    30.3965   133.9675   149.3063
   2585.5000    30.9691   123.5434   138.2355
   2585.6000    30.3332   125.7626   143.7987
   2585.7000    27.4950   136.8723   153.8320
   2585.8000    24.0694   145.1848   163.4367
   2585.9000    21.6066   154.5396   171.1963
   2586.0000    20.6386   155.5325   171.4989
   2586.1000    20.3798   152.4443   167.0107
   2586.2000    20.2851   146.4081   161.7216
   2586.3000    19.7653   142.1922   159.2600
   2586.4000    18.8829   139.8329   160.6488
   2586.5000    18.1906   138.5783   162.5576
   2586.6000    18.1117   135.6473   160.8455
   2586.7000    18.6545   132.0096   157.6109
   2586.8000    19.1570   128.7683   153.9290
   2586.9000    19.4216   127.9153   152.2416
   2587.0000    19.5441   128.4212   152.2303
   2587.1000    19.8415   128.0055   151.2400
   2587.2000    19.6647   128.7217   151.3376
   2587.3000    18.4992   127.8567   148.5792
   2587.4000    17.3470   127.9753   147.4435
   2587.5000    16.6863   128.5888   147.1342
   2587.6000    16.6510   128.5302   147.5383
   2587.7000    16.7844   128.3233   147.9532
   2587.8000    16.7058   126.8255   147.5958
   2587.9000    16.3703   125.3525   146.2267
   2588.0000    16.4506   125.1577   146.5361
   2588.1000    17.2771   124.8418   147.0928
   2588.2000    18.2691   123.2994   145.7832
   2588.3000    19.1908   124.0084   147.0715
   2588.4000    20.3676   128.2818   153.5479
   2588.5000    21.1482   128.5086   155.8883
   2588.6000    22.1691   127.7543   154.8097
   2588.7000    21.6711   123.2571   147.1515
   2588.8000    20.5960   123.7120   144.1821
   2588.9000    19.7147   127.3202   146.4722
   2589.0000    19.2612   128.6292   147.5652
   2589.1000    19.8283   128.9501   148.5438
   2589.2000    20.6333   129.2878   149.1725
   2589.3000    21.2642   129.7327   150.0281
   2589.4000    21.7848   131.1477   151.2452
   2589.5000    22.3432   130.9089   150.5652
   2589.6000    23.3283   130.0677   151.0560
   2589.7000    24.2031   131.5216   153.8270
   2589.8000    24.6235   134.2685   158.1622
   2589.9000    24.7365   137.1302   160.7177
   2590.0000    24.2653   137.9427   159.4883
   2590.1000    23.3114   136.0607   156.9580
   2590.2000    21.8070   133.5377   152.2933
   2590.3000    20.6555   131.6773   148.6073
   2590.4000    20.1367   129.2999   146.5813
   2590.5000    20.1339   127.5200   145.7326
   2590.6000    20.2479   128.0459   147.4322
   2590.7000    20.2350   132.1884   152.0342
   2590.8000    19.7964   137.9049   156.7413
   2590.9000    19.5822   140.5874   160.0202
   2591.0000    19.5977   140.8088   160.1252
   2591.1000    19.7477   141.7563   160.5373
   2591.2000    19.8333   143.8673   163.5402
   2591.3000    19.7699   149.9780   171.8911
   2591.4000    19.6692   152.9254   178.0560
   2591.5000    19.4805   153.6480   178.5514
   2591.6000    19.2847   152.3467   176.1070
   2591.7000    19.1999   153.0239   177.3398
   2591.8000    19.5839   160.4899   186.1670
   2591.9000    20.3967   168.2938   195.6258
   2592.0000    21.3444   170.1698   195.7144
   2592.1000    22.1642   165.5667   188.0443
   2592.2000    23.1264   159.0628   180.3759
   2592.3000    25.2770   145.6418   171.1526
   2592.4000    28.1184   133.0354   158.5539
   2592.5000    33.4899   135.4941   160.0531
   2592.6000    43.9011   165.7327   185.2098
   2592.7000    49.8573   190.2009   190.8886
   2592.8000    50.8569   175.7492   177.0856
   2592.9000    41.7915   136.5527   140.8269
   2593.0000    33.7196   110.2646   119.0478
   2593.1000    30.5320   107.2458   116.7580
   2593.2000    28.5871   109.7638   120.2601
   2593.3000    27.7250   111.3465   124.3708
   2593.4000    27.4735   110.0791   124.0085
   2593.5000    28.4668   108.6238   122.5474
   2593.6000    29.2266   107.5174   119.7050
   2593.7000    29.2531   105.6156   117.5006
   2593.8000    28.8840   105.8273   119.4297
   2593.9000    28.8057   104.4181   119.8071
   2594.0000    29.6244   105.6994   120.8624
   2594.1000    30.6224   106.6304   119.2683
   2594.2000    31.7022   109.9317   121.5049
   2594.3000    32.6638   110.9507   122.9686
   2594.4000    33.3270   111.5157   126.8091
   2594.5000    33.4549   110.4567   129.4980
   2594.6000    33.4240   113.0423   134.2767
   2594.7000    34.0347   117.8591   141.2446
   2594.8000    34.1047   122.8381   147.9346
   2594.9000    33.1281   122.3427   147.9213
   2595.0000    32.4675   121.0994   147.7976
   2595.1000    32.8842   120.1247   147.0188
   2595.2000    32.9398   118.7091   142.7703
   2595.3000    33.0613   114.9886   136.5085
   2595.4000    31.7114   104.1171   121.0745
   2595.5000    32.0111    93.0921   109.5933
   2595.6000    33.6907    88.8285   103.3574
   2595.7000    35.0791    85.9841    98.7790
   2595.8000    36.7715    87.1925    98.0705
   2595.9000    35.9629    87.3740    96.5424
   2596.0000    35.7090    91.7688   102.0931
   2596.1000    35.5897    98.9656   110.2925
   2596.2000    35.5709   106.4377   120.4751
   2596.3000    35.0056   110.7521   127.1705
   2596.4000    33.7820   111.9803   129.7568
   2596.5000    33.2501   114.8291   137.9799
   2596.6000    32.9948   121.0184   148.7007
   2596.7000    32.7312   122.9112   148.4268
   2596.8000    31.4834   104.0417   126.4298
   2596.9000    28.8283    81.7302    95.8407
   2597.0000    28.1033    75.2520    84.5020
   2597.1000    30.2227    85.6924    93.2859
   2597.2000    34.3135   112.4407   119.6987
   2597.3000    36.7308   127.4457   138.3126
   2597.4000    34.3892   111.1105   121.3542
   2597.5000    31.3973    92.6104   100.5592
   2597.6000    30.8756    84.4458    93.1048
   2597.7000    32.0881    87.6647    98.7424
   2597.8000    32.5810    90.4670   103.0332
   2597.9000    31.9706    90.0443   103.4749
   2598.0000    30.6605    88.8622   102.0271
   2598.1000    30.1719    90.6116   105.5477
   2598.2000    30.3965    97.6065   113.3229
   2598.3000    30.5692   103.2597   120.7289
   2598.4000    31.0839   107.8063   126.9851
   2598.5000    31.6509   108.6073   128.1329
