~Version Information
 VERS.                  2.0:   CWLS log ASCII Standard -VERSION 2.0
 WRAP.                   NO:   One line per depth step
~Well Information Block
#MNEM.UNIT     VALUE/NAME     DESCRIPTION
#---------     -----------    ---------------------------
 STRT.M              2355.0000: START DEPTH
 STOP.M              3523.6000: STOP DEPTH
 STEP.M                 0.1000: STEP DEPTH
 NULL.               -999.2500: NULL VALUE
 XYGR.     Australia/New Zealand Coordinate Systems:  XYGROUP
 LLGR.      Latitude/Longitude:  LLGROUP
 CREF.     Datum Geocentric Datum of Austra:  CART REFERENCE
 GREF.     Ellipsoid World Geodetic System :  GEO REFERENCE
 CGSY.             SS GDA94-50:  CART GRID SYS
 GGSY.                      LL:  GEO GRID SYS
 CCDE.     UTM Zone 50S on Geocentric Datum of Australia 1994, Meters:  CART COORD DESC
 GCDE.     Generic Lat/Long's, Degrees, -180 ==> +180:  GEO COORD DESC
 UWI .                 W006107:  UNIQUE WELL IDENTIFIER
 API .                 W006107:  API NUMBER
 UNIT.                11741669:  LOGGING EQUIPMENT ID
 DCON.        Sperry Drilling :  DIRECTNL CONTR
 RIG .              Ensign 970:  RIG NAME
 MWDS.                Jandakot:  MWD SHOP
 SRVC.     Ensign Energy Services:  CONTRACTOR
 FLD .               Walyering:  FIELD NAME
 CTRY.               Australia:  COUNTRY NAME
 PROV.       Western Australia:  PROVINCE
 STAT.       Western Australia:  STATE NAME
 REGN.            Asia Pacific:  REGION
 BASE.                   Perth:  LOGGING EQUIPMENT BASE LOCATION
 WTYP.                Vertical:  WELL TYPE
 PDAT.          Mean Sea Level:  PERMANENT DATUM
 MDS .              Win MagUTM:  MAG DATA SOURCE
 MMDD.          22 April, 2022:  MAG DATA DATE
 MMDL.            bggm2021.dat:  MAGNETIC MODEL
 SON .        PA-XX-0907756569:  JOB NUMBER
 COMP.     Strike South West Pty Ltd:  COMPANY
 WELL.             Walyering 6:  WELL NAME
 FTOP.          Formation Tops:  FORM TOPS DESC
 ILTD.               Lithology:  INTERP LTH DESC
 SVYD.                  Survey:  SURVEY DESC
 DMOD.             Drill Model:  DRILL MOD DESC
 HPTY.       Minimum Curvature:  HOLE POS TYPE
 NREF.                    Grid:  NORTH REFERENCE
 SPUD.               25-Apr-22:  SPUD DATE
 DATE.      12.00.00 13-May-22:  END TIME
 STIM.      17.00.00 24-Apr-22:  START TIME
 DMF .             Drill Floor:  DRILL MEAS FROM
 DFST.                        :  DIST FSL TEXT
 DFWT.                        :  DIST FWL TEXT
 CNTY.                        :  COUNTY
 LOC .                        :  LOCATION
 LMF .             Drill Floor:  LOG MEASURED FROM
 CMER.deg           117.000000:  CENTRL MERIDIAN
 DEP .m               0.000000:  DEPTH
 AGAP.m               7.160000:  AIR GAP
 MMDE.m             -31.623000:  MAGUTM CALC DEP
 APD .m               7.160000:  DEPTH ABOVE PD
 WDMS.m               0.000000:  WD ELEV
 EGL .m              96.589993:  GROUND ELEVATION
 EPD .m              96.589993:  ELEVATION
 AZTC.deg            -2.153514:  AZM TOTAL CORR
 GRDC.deg             0.779280:  GRID CORRECTION
 MDEC.deg            -1.374234:  MAGNETIC DECL
 MDIP.deg           -64.762985:  MAGNETIC DIP
 MFLD.nT          57671.410156:  MAGNETIC FIELD
 GVFD.g               1.000000:  GRAVITY FIELD
 VSDR.deg             0.000000:  VERT SEC DIRECT
 TDD .m            3551.000070:  TOTAL DEPTH (DRILLER)
 SDEP.m              74.999999:  START DEPTH
 DFSL.m               0.000000:  DISTANCE FSL
 DFWL.m               0.000000:  DISTANCE FWL
 UTMY.m         6601158.480000:  UTM Y
 UTMX.m          353924.590000:  UTM X
 WHEW.m               0.000000:  WELL HEAD E/W
 WHNS.m               0.000000:  WELL HEAD N/S
 LONG.deg           115.474500:  LONGITUDE
 LATI.deg           -30.713472:  LATITUDE
 TVDS.m             103.749993:  TVDSS CORRECTN
 EKB .m             103.750002:  KB ELEVATION
 EDF .m             103.750002:  DF ELEVATION
 TDL .m            1189.000020:  TOTAL DEPTH (LOGGER)
 CSGD.m            2359.000046:  CASING BOTTOM (DRILLER)
 CSGL.m            2359.000046:  CASING BOTTOM (LOGGER)
 CSGS.mm            244.474994:  CASING SIZE
 CSGW.kgpm           69.942862:  CASING WEIGHT
 MAGU.                 1391237:  MAGUTM CHECKSUM
 VSC .                       1:  VS TO CLOSURE
~Parameter Information Block
#MNEM.UNIT       Value        Description
#---------     -----------    ---------------------------
 AV  .mps             2.550000:  Ann Velocity 
 AVMX.mps             2.933333:  Max Ann Veloc 
 AZIF.deg             4.250000:  Azm, Final 
 BHAT.               Mud Motor:  BHA Type 
 BREV.krev         1163.365845:  Rev Bit Total 
 BROT.°/30m           0.050000:  Build Rotating 
 BS  .mm            215.899994:  Bit Size 
 BSZ .mm            215.899994:  Bit Size 
 BTPL.kPag         3033.715332:  Bit Press Loss 
 CABU.                      No:  Customer Abuse 
 CGEO.             Dan Walding:  Customer Geo 
 COMM.                     ì¿q:  Run Comments 1 
 TCS .hr            105.300003:  Time Ciculation Ended 
 CV  .mps             4.283333:  Crit Velocity 
 CVMX.mps             4.600000:  Max Crit Veloc 
 DD1 .     Christian Arrindell:  Direct Drillr 1 
 DD2 .            Ivan Tutynin:  Direct Drillr 2 
 DDSV.               Mud Motor:  DD Service 
 DEFF.%              95.000000:  % Det Eff 
 DLRX.°/30m           1.280000:  Dogleg Rot Max 
 DLSO.°/30m           1.400000:  Dogleg Oriented 
 DLSX.°/30m           2.000000:  Dogleg Str Max 
 DRET.      00.30.00 12-May-22:  Drill End Time 
 DRST.      19.30.00 07-May-22:  Drill Start Tim 
 DTIM.hr             80.400002:  Time Drilling 
 EDEP.m            3551.000000:  End Depth 
 ENG1.            Ade Suhendar:  Engineer 1 
 ENG2.        Yiek Chong Leong:  Engineer 2 
 ENG3.           Sufyan Zainal:  Engineer 3 
 ETIM.      23.45.00 12-May-22:  End Time 
 FLOI.m3pm            2.035733:  Flow In 
 FLON.m3pm            1.324854:  Flow In Min 
 FLOS.mptm            4.000000:  Fluid Loss 
 FLOX.m3pm            2.119767:  Flow In Max 
 DFT .                 Polymer:  Mud Type 
 FTRO.       Formation Presure:  FTWD Run Obj 
 HFLO.                      No:  High Flow 
 HPRE.                      No:  High Pressure 
 HTEM.                      No:  High Temp 
 HYDO.m               2.500000:  Hydro Offset 
 IFIN.deg             1.860000:  Inc, Final 
 IMAX.deg             5.744654:  Inc Max 
 IMIN.deg             0.433048:  Inc Min 
 IMND.m            2565.059814:  Inc Min Depth 
 IMXD.m            2364.389893:  Inc Max Depth 
 JARR.                      No:  Jarring 
 LETM.      00.30.00 12-May-22:  Log End Time 
 LOST.hr                     0:  Lost Rig Time 
 LSTM.      19.30.00 07-May-22:  Log Start Time 
 MDCL.ppm         79803.000000:  Mud Chlorides 
 MDES.             Fresh Water:  Mud Desc 
 DFD .kg/m3        1138.351074:  Mud Density 
 MDMN.kg/m3        1114.385986:  Dens Mud Min 
 MDMX.kg/m3        1150.333862:  Dens Mud Max 
 PH  .pH             10.100000:  Mud pH 
 MOIL.                       0:  Run Mud Oil % 
 MOWR.                   0 100:  Run Mud OWR 
 MSND.                     0.2:  Run Mud Sand % 
 MSOL.                     4.6:  Run Mud Solids% 
 MTV .                GeoForce:  Motor Variant 
 DFV .spl            82.445999:  Mud Viscosity 
 MWOD.mm            171.449997:  MWD Tool OD 
 MWSI.                      No:  Serv Intrp, MWD 
 OTIM.hr            146.500000:  Time Operating 
 PCON.          Wear / Scratch:  Pad Condition 
 PMAX.kPag        35887.472656:  Press Op, Max 
 PV  .mPsec          40.000000:  Mud PV 
 RMS .ohmm            0.606000:  Mud Resistivity 
 RMCS.ohmm            0.076000:  Mud Cake Resistivity 
 MCST.degC           19.830000:  Mud Cake Sample Temperature 
 RMFS.ohmm            0.050000:  Mud Filtrate Resistivity 
 RMFT.degC           21.499998:  Mud Filtrate Sample Temperature 
 RMMT.ohmm            0.266500:  Rm @ Max Temp 
 MST .degC           21.000002:  Mud Sample Temperature 
 RUN .                     300:  Run Number 
 ROPA.m/hr           14.790000:  ROP Avg 
 ROPN.m/hr            1.870000:  ROP Min 
 ROPX.m/hr           32.700001:  ROP Max 
 RPMA.rpm            52.500000:  RPM Surface Avg 
 RPMN.rpm            30.000000:  RPM Surface Min 
 RPMX.rpm            60.000000:  RPM Surface Max 
 RRUN.                       3:  Rig Run Number 
 RTIM.hr              8.510000:  Time Reaming 
 SAZI.deg           199.820007:  Azm, Start 
 SDEP.m            2362.000000:  Start Depth 
 SIDD.                      No:  Serv Intrp, DD 
 SINC.deg             5.740000:  Inc, Start 
 SPPA.kPag        17754.474609:  SPP Avg 
 SPPN.kPag        10893.795898:  SPP Min 
 SPPX.kPag        22063.382813:  SPP Max 
 STIM.      21.15.00 06-May-22:  Start Time 
 SVCS.                 DD, MWD:  Services 
 SVER.                9.200000:  Sperry Version 
 TDAT.m            1189.000000:  Tot Depth Attmp 
 TDDF.                      No:  Trip for DD 
 TDLG.m            1189.000000:  Tot Depth Loggd 
 TFF .                      No:  Trip for Fail 
 TQAA.kN-m            0.013558:  Torque Abs Avg 
 TQAN.kN-m            0.004067:  Torque Abs Min 
 TQAX.kN-m            0.024405:  Torque Abs Max 
 TRRT.°/30m           0.860000:  Turn Rotating 
 MRT .                  EWR-P4:  Maximum Recorded Temperature 
 TTMX.degC           75.199997:  Max Tool Temp 
 VS01.                12278995:  Virtual Str1 SN 
 VS02.                12394165:  Virtual Str2 SN 
 VS03.                13686255:  Virtual Str3 SN 
 VS04.                90681167:  Virtual Str4 SN 
 VS05.                90683981:  Virtual Str5 SN 
 VS06.                90683974:  Virtual Str6 SN 
 VS07.                90683978:  Virtual Str7 SN 
 VS08.                90683983:  Virtual Str8 SN 
 VS09.                13531224:  Virtual Str9 SN 
 WBMN.kdN             2.668932:  WOB Min 
 WITN.          Peter Clarkson:  Customer Rep 2 
 WITN.        Shaughan Corless:  Customer Rep 
 WOBA.kdN             7.045982:  WOB Avg 
 WOBX.kdN            10.675730:  WOB Max 
 YP  .pa             14.364045:  Yield Point 
~Curve Information Block
#MNEM.UNIT                 API CODE     Curve Description
#---------               -----------    ---------------------------
 DEPT.M                 00 000 000 000:  Depth
 AFRSAC.ohmm            00 000 000 000:  AFR Shallow Avg Res BC
 AFRMAC.ohmm            00 000 000 000:  AFR Medium Avg Res BC
 AFRDAC.ohmm            00 000 000 000:  AFR Deep Avg Res BC
#Other Information
#
#WARRANTY: Halliburton will use its best efforts to furnish customers with 
#accurate information and interpretations that are part of, and incident to, the services 
#provided.  However, Halliburton cannot and does not warrant the accuracy 
#or correctness of such information and interpretations.  Under no circumstances should any 
#such information or interpretation be relied upon as the sole basis for any drilling, 
#completion, production, or financial decision or any procedure involving any risk to the 
#safety of any drilling venture, drilling rig or its crew or any other third party.  The 
#Customer has full responsibility for all drilling, completion and production operation.  
#Halliburton makes no representations or warranties, either expressed or 
#implied, including, but not limited to, the implied warranties of merchantability or fitness 
#for a particular purpose, with respect to the services rendered.  In no event will 
#Halliburton be liable for failure to obtain any particular results or for 
#any damages, including, but not limited to, indirect, special or consequential damages, 
#resulting from the use of any information or interpretation provided by Halliburton.
#
~A   DEPT      AFRSAC     AFRMAC     AFRDAC   
# ...
   3190.2000     7.6663    18.4151    22.9304
   3190.3000     7.6621    18.7704    24.1153
   3190.4000     7.4446    19.3841    24.8916
   3190.5000     6.9143    18.7975    23.2619
   3190.6000     6.3687    17.3304    20.4465
   3190.7000     6.0517    16.2220    18.5415
   3190.8000     6.1987    17.0321    19.3498
   3190.9000     6.5400    18.9508    21.8564
   3191.0000     6.8257    20.4371    24.2137
   3191.1000     6.9376    20.7867    24.9354
   3191.2000     6.7742    19.8666    23.8803
   3191.3000     6.6475    19.3220    23.2726
   3191.4000     6.5521    19.2128    23.2112
   3191.5000     6.5583    19.4239    23.1840
   3191.6000     6.6034    19.7477    22.9545
   3191.7000     6.7852    20.5084    22.8235
   3191.8000     7.0426    21.7666    22.9664
   3191.9000     7.5909    22.7329    24.1450
   3192.0000     7.8773    21.7631    23.9509
   3192.1000     8.1074    20.1813    22.6375
   3192.2000     8.3168    20.2038    22.1970
   3192.3000     9.3191    23.5664    24.3171
   3192.4000    11.1457    27.9836    28.0051
   3192.5000    12.8724    29.9337    30.1588
   3192.6000    15.0700    33.0003    32.7473
   3192.7000    20.0240    46.1714    45.0893
   3192.8000    35.1606    93.0777    87.5411
   3192.9000    68.3202   158.6586   165.6071
   3193.0000    67.7679    97.3511   119.0916
   3193.1000    41.2436    44.2964    52.6979
   3193.2000    28.7574    27.8845    31.9247
   3193.3000    27.5234    26.1593    29.8427
   3193.4000    35.8687    36.4983    42.8053
   3193.5000    51.8203    63.2647    76.7564
   3193.6000    70.0669   105.3456   126.3573
   3193.7000    70.5612   117.4380   136.3107
   3193.8000    71.0558   120.5375   139.6527
   3193.9000    63.3960   101.6131   121.2673
   3194.0000    36.8781    58.6788    69.6005
   3194.1000    20.2061    34.0309    38.8186
   3194.2000    13.7125    24.5853    27.2040
   3194.3000    10.9785    21.5257    23.1268
   3194.4000     9.9479    22.1471    23.4619
   3194.5000     9.3593    23.6289    24.7731
   3194.6000     9.1202    25.8512    27.0015
   3194.7000     9.3453    28.3400    29.6272
   3194.8000     9.8038    29.5647    31.2700
   3194.9000    10.3192    29.6032    32.1356
   3195.0000    10.9078    29.7517    33.5873
   3195.1000    11.6060    30.7491    36.3179
   3195.2000    11.9378    30.9753    37.4575
   3195.3000    11.0180    26.8653    32.2022
   3195.4000     9.7652    22.0138    25.7364
   3195.5000     8.7215    18.8146    21.5547
   3195.6000     8.1253    17.8468    20.2493
   3195.7000     7.9153    18.5946    21.0110
   3195.8000     7.7990    19.7027    22.3013
   3195.9000     7.7939    20.5143    23.2707
   3196.0000     7.8349    20.6445    23.5594
   3196.1000     7.6603    19.7148    22.6606
   3196.2000     7.5365    19.0769    22.1199
   3196.3000     7.4144    18.6188    21.6472
   3196.4000     7.3243    18.2831    21.2743
   3196.5000     7.1936    17.9212    20.7699
   3196.6000     7.0852    17.8316    20.5152
   3196.7000     6.8649    17.6320    20.1727
   3196.8000     6.6797    17.5408    19.9958
   3196.9000     6.4076    17.0222    19.5136
   3197.0000     6.0510    15.9829    18.2773
   3197.1000     5.8515    15.1870    17.2750
   3197.2000     5.7596    14.7480    16.6562
   3197.3000     5.9199    15.4819    17.4287
   3197.4000     6.4382    17.7563    20.0756
   3197.5000     6.9363    19.9414    22.6247
   3197.6000     7.3266    20.9241    23.7181
   3197.7000     7.3901    19.9868    22.7175
   3197.8000     7.1169    18.5505    21.1278
   3197.9000     7.0726    18.5916    21.3614
   3198.0000     7.1356    19.4638    22.7072
   3198.1000     7.1530    19.6784    23.1131
   3198.2000     7.1748    18.6553    21.6996
   3198.3000     7.0623    16.9907    19.2897
   3198.4000     7.4955    17.3766    19.5070
   3198.5000     8.0261    18.7965    21.2619
   3198.6000     8.3496    20.0652    22.8476
   3198.7000     8.3054    19.4506    22.1246
   3198.8000     7.7705    18.0886    20.1130
   3198.9000     7.3613    17.5611    19.4519
   3199.0000     7.1758    18.1801    20.2888
   3199.1000     7.0405    18.6843    21.0220
   3199.2000     7.0323    18.8563    21.2474
   3199.3000     7.1076    18.8158    21.2343
   3199.4000     7.1235    18.4511    20.7813
   3199.5000     7.0630    17.7916    20.0195
   3199.6000     7.0936    17.5199    19.6999
   3199.7000     7.2906    18.0226    20.3008
   3199.8000     7.5774    19.2684    21.7985
   3199.9000     7.6611    19.8118    22.5341
   3200.0000     7.6387    19.5624    22.2933
   3200.1000     7.5870    18.9544    21.5810
   3200.2000     7.3829    18.0488    20.6215
   3200.3000     7.0445    17.2245    19.5228
   3200.4000     6.7806    16.5425    18.6513
   3200.5000     6.7432    16.3389    18.2528
   3200.6000     6.9219    16.5592    18.5603
   3200.7000     7.0333    16.6484    18.8006
   3200.8000     6.9814    16.9632    18.8939
   3200.9000     6.9295    17.2976    18.7673
   3201.0000     6.8404    17.4766    18.5263
   3201.1000     6.8243    17.2870    18.5092
   3201.2000     7.1358    17.4812    19.3585
   3201.3000     7.5077    17.4929    20.4280
   3201.4000     7.8543    18.0797    21.2823
   3201.5000     8.0093    18.4956    21.7518
   3201.6000     7.9481    19.5327    22.0780
   3201.7000     7.7030    19.8048    21.9871
   3201.8000     7.3279    18.6837    21.0545
   3201.9000     6.9030    17.0955    19.4549
   3202.0000     6.6287    16.1968    18.1728
   3202.1000     6.4911    16.2842    17.8017
   3202.2000     6.4123    16.3691    18.0840
   3202.3000     6.4158    16.3757    18.6496
   3202.4000     6.4754    16.2944    18.9468
   3202.5000     6.7418    16.4162    18.8271
   3202.6000     7.1806    16.4893    18.3183
   3202.7000     7.6333    16.0922    17.8093
   3202.8000     8.1029    15.8179    18.3702
   3202.9000     9.4532    16.9672    21.7046
   3203.0000    12.1993    20.8937    28.4186
   3203.1000    16.8072    26.7340    36.2334
   3203.2000    19.7654    34.1355    37.5310
   3203.3000    18.5749    32.7298    32.5496
   3203.4000    16.6479    31.0101    28.6626
   3203.5000    15.7831    28.3867    28.4791
   3203.6000    15.4054    26.2235    31.0589
   3203.7000    14.1084    24.1441    32.9026
   3203.8000    12.0167    21.6704    30.5167
   3203.9000     9.9729    20.3236    26.1833
   3204.0000     8.6082    20.2643    22.8688
   3204.1000     7.9990    20.5801    21.2089
   3204.2000     7.7179    19.7006    20.2418
   3204.3000     7.8363    18.2268    20.7789
   3204.4000     8.1744    17.7031    22.4342
   3204.5000     8.7410    19.2530    24.6879
   3204.6000    10.2227    21.5404    26.6887
   3204.7000    13.2679    23.1942    26.5071
   3204.8000    18.7100    23.6992    20.8553
   3204.9000    24.2170    19.9847    15.6729
   3205.0000    20.3957    15.2385    11.6048
   3205.1000    13.8701    11.2006     9.4144
   3205.2000     9.9204     8.8660     8.4195
   3205.3000     7.5995     7.5921     7.6471
   3205.4000     6.1111     6.7992     6.9452
   3205.5000     5.2176     6.4618     6.4358
   3205.6000     4.9212     6.7436     6.4737
   3205.7000     5.0055     7.2776     6.8705
   3205.8000     5.2162     7.7972     7.2997
   3205.9000     5.2333     7.8060     7.4647
   3206.0000     5.0104     7.3170     7.1768
   3206.1000     4.8317     6.7098     6.8692
   3206.2000     4.7144     6.2795     6.7008
   3206.3000     4.6052     6.0130     6.5445
   3206.4000     4.6195     5.8697     6.4597
   3206.5000     4.5939     5.6412     6.1808
   3206.6000     4.7133     5.7380     6.1397
   3206.7000     5.4321     6.5593     6.9829
   3206.8000     6.5434     7.9416     8.5089
   3206.9000     7.5730     9.0432     9.7869
   3207.0000     7.6595     8.8836     9.6547
   3207.1000     7.0357     7.8946     8.5371
   3207.2000     6.5379     7.0100     7.6043
   3207.3000     5.8637     5.9597     6.5246
   3207.4000     5.4163     5.3356     5.8931
   3207.5000     5.3589     5.1510     5.8989
