~Version Information
 VERS.                  2.0:   CWLS log ASCII Standard -VERSION 2.0
 WRAP.                   NO:   One line per depth step
~Well Information Block
#MNEM.UNIT     VALUE/NAME     DESCRIPTION
#---------     -----------    ---------------------------
 STRT.M              2355.0000: START DEPTH
 STOP.M              3523.6000: STOP DEPTH
 STEP.M                 0.1000: STEP DEPTH
 NULL.               -999.2500: NULL VALUE
 XYGR.     Australia/New Zealand Coordinate Systems:  XYGROUP
 LLGR.      Latitude/Longitude:  LLGROUP
 CREF.     Datum Geocentric Datum of Austra:  CART REFERENCE
 GREF.     Ellipsoid World Geodetic System :  GEO REFERENCE
 CGSY.             SS GDA94-50:  CART GRID SYS
 GGSY.                      LL:  GEO GRID SYS
 CCDE.     UTM Zone 50S on Geocentric Datum of Australia 1994, Meters:  CART COORD DESC
 GCDE.     Generic Lat/Long's, Degrees, -180 ==> +180:  GEO COORD DESC
 UWI .                 W006107:  UNIQUE WELL IDENTIFIER
 API .                 W006107:  API NUMBER
 UNIT.                11741669:  LOGGING EQUIPMENT ID
 DCON.        Sperry Drilling :  DIRECTNL CONTR
 RIG .              Ensign 970:  RIG NAME
 MWDS.                Jandakot:  MWD SHOP
 SRVC.     Ensign Energy Services:  CONTRACTOR
 FLD .               Walyering:  FIELD NAME
 CTRY.               Australia:  COUNTRY NAME
 PROV.       Western Australia:  PROVINCE
 STAT.       Western Australia:  STATE NAME
 REGN.            Asia Pacific:  REGION
 BASE.                   Perth:  LOGGING EQUIPMENT BASE LOCATION
 WTYP.                Vertical:  WELL TYPE
 PDAT.          Mean Sea Level:  PERMANENT DATUM
 MDS .              Win MagUTM:  MAG DATA SOURCE
 MMDD.          22 April, 2022:  MAG DATA DATE
 MMDL.            bggm2021.dat:  MAGNETIC MODEL
 SON .        PA-XX-0907756569:  JOB NUMBER
 COMP.     Strike South West Pty Ltd:  COMPANY
 WELL.             Walyering 6:  WELL NAME
 FTOP.          Formation Tops:  FORM TOPS DESC
 ILTD.               Lithology:  INTERP LTH DESC
 SVYD.                  Survey:  SURVEY DESC
 DMOD.             Drill Model:  DRILL MOD DESC
 HPTY.       Minimum Curvature:  HOLE POS TYPE
 NREF.                    Grid:  NORTH REFERENCE
 SPUD.               25-Apr-22:  SPUD DATE
 DATE.      12.00.00 13-May-22:  END TIME
 STIM.      17.00.00 24-Apr-22:  START TIME
 DMF .             Drill Floor:  DRILL MEAS FROM
 DFST.                        :  DIST FSL TEXT
 DFWT.                        :  DIST FWL TEXT
 CNTY.                        :  COUNTY
 LOC .                        :  LOCATION
 LMF .             Drill Floor:  LOG MEASURED FROM
 CMER.deg           117.000000:  CENTRL MERIDIAN
 DEP .m               0.000000:  DEPTH
 AGAP.m               7.160000:  AIR GAP
 MMDE.m             -31.623000:  MAGUTM CALC DEP
 APD .m               7.160000:  DEPTH ABOVE PD
 WDMS.m               0.000000:  WD ELEV
 EGL .m              96.589993:  GROUND ELEVATION
 EPD .m              96.589993:  ELEVATION
 AZTC.deg            -2.153514:  AZM TOTAL CORR
 GRDC.deg             0.779280:  GRID CORRECTION
 MDEC.deg            -1.374234:  MAGNETIC DECL
 MDIP.deg           -64.762985:  MAGNETIC DIP
 MFLD.nT          57671.410156:  MAGNETIC FIELD
 GVFD.g               1.000000:  GRAVITY FIELD
 VSDR.deg             0.000000:  VERT SEC DIRECT
 TDD .m            3551.000070:  TOTAL DEPTH (DRILLER)
 SDEP.m              74.999999:  START DEPTH
 DFSL.m               0.000000:  DISTANCE FSL
 DFWL.m               0.000000:  DISTANCE FWL
 UTMY.m         6601158.480000:  UTM Y
 UTMX.m          353924.590000:  UTM X
 WHEW.m               0.000000:  WELL HEAD E/W
 WHNS.m               0.000000:  WELL HEAD N/S
 LONG.deg           115.474500:  LONGITUDE
 LATI.deg           -30.713472:  LATITUDE
 TVDS.m             103.749993:  TVDSS CORRECTN
 EKB .m             103.750002:  KB ELEVATION
 EDF .m             103.750002:  DF ELEVATION
 TDL .m            1189.000020:  TOTAL DEPTH (LOGGER)
 CSGD.m            2359.000046:  CASING BOTTOM (DRILLER)
 CSGL.m            2359.000046:  CASING BOTTOM (LOGGER)
 CSGS.mm            244.474994:  CASING SIZE
 CSGW.kgpm           69.942862:  CASING WEIGHT
 MAGU.                 1391237:  MAGUTM CHECKSUM
 VSC .                       1:  VS TO CLOSURE
~Parameter Information Block
#MNEM.UNIT       Value        Description
#---------     -----------    ---------------------------
 AV  .mps             2.550000:  Ann Velocity 
 AVMX.mps             2.933333:  Max Ann Veloc 
 AZIF.deg             4.250000:  Azm, Final 
 BHAT.               Mud Motor:  BHA Type 
 BREV.krev         1163.365845:  Rev Bit Total 
 BROT.°/30m           0.050000:  Build Rotating 
 BS  .mm            215.899994:  Bit Size 
 BSZ .mm            215.899994:  Bit Size 
 BTPL.kPag         3033.715332:  Bit Press Loss 
 CABU.                      No:  Customer Abuse 
 CGEO.             Dan Walding:  Customer Geo 
 COMM.                     ì¿q:  Run Comments 1 
 TCS .hr            105.300003:  Time Ciculation Ended 
 CV  .mps             4.283333:  Crit Velocity 
 CVMX.mps             4.600000:  Max Crit Veloc 
 DD1 .     Christian Arrindell:  Direct Drillr 1 
 DD2 .            Ivan Tutynin:  Direct Drillr 2 
 DDSV.               Mud Motor:  DD Service 
 DEFF.%              95.000000:  % Det Eff 
 DLRX.°/30m           1.280000:  Dogleg Rot Max 
 DLSO.°/30m           1.400000:  Dogleg Oriented 
 DLSX.°/30m           2.000000:  Dogleg Str Max 
 DRET.      00.30.00 12-May-22:  Drill End Time 
 DRST.      19.30.00 07-May-22:  Drill Start Tim 
 DTIM.hr             80.400002:  Time Drilling 
 EDEP.m            3551.000000:  End Depth 
 ENG1.            Ade Suhendar:  Engineer 1 
 ENG2.        Yiek Chong Leong:  Engineer 2 
 ENG3.           Sufyan Zainal:  Engineer 3 
 ETIM.      23.45.00 12-May-22:  End Time 
 FLOI.m3pm            2.035733:  Flow In 
 FLON.m3pm            1.324854:  Flow In Min 
 FLOS.mptm            4.000000:  Fluid Loss 
 FLOX.m3pm            2.119767:  Flow In Max 
 DFT .                 Polymer:  Mud Type 
 FTRO.       Formation Presure:  FTWD Run Obj 
 HFLO.                      No:  High Flow 
 HPRE.                      No:  High Pressure 
 HTEM.                      No:  High Temp 
 HYDO.m               2.500000:  Hydro Offset 
 IFIN.deg             1.860000:  Inc, Final 
 IMAX.deg             5.744654:  Inc Max 
 IMIN.deg             0.433048:  Inc Min 
 IMND.m            2565.059814:  Inc Min Depth 
 IMXD.m            2364.389893:  Inc Max Depth 
 JARR.                      No:  Jarring 
 LETM.      00.30.00 12-May-22:  Log End Time 
 LOST.hr                     0:  Lost Rig Time 
 LSTM.      19.30.00 07-May-22:  Log Start Time 
 MDCL.ppm         79803.000000:  Mud Chlorides 
 MDES.             Fresh Water:  Mud Desc 
 DFD .kg/m3        1138.351074:  Mud Density 
 MDMN.kg/m3        1114.385986:  Dens Mud Min 
 MDMX.kg/m3        1150.333862:  Dens Mud Max 
 PH  .pH             10.100000:  Mud pH 
 MOIL.                       0:  Run Mud Oil % 
 MOWR.                   0 100:  Run Mud OWR 
 MSND.                     0.2:  Run Mud Sand % 
 MSOL.                     4.6:  Run Mud Solids% 
 MTV .                GeoForce:  Motor Variant 
 DFV .spl            82.445999:  Mud Viscosity 
 MWOD.mm            171.449997:  MWD Tool OD 
 MWSI.                      No:  Serv Intrp, MWD 
 OTIM.hr            146.500000:  Time Operating 
 PCON.          Wear / Scratch:  Pad Condition 
 PMAX.kPag        35887.472656:  Press Op, Max 
 PV  .mPsec          40.000000:  Mud PV 
 RMS .ohmm            0.606000:  Mud Resistivity 
 RMCS.ohmm            0.076000:  Mud Cake Resistivity 
 MCST.degC           19.830000:  Mud Cake Sample Temperature 
 RMFS.ohmm            0.050000:  Mud Filtrate Resistivity 
 RMFT.degC           21.499998:  Mud Filtrate Sample Temperature 
 RMMT.ohmm            0.266500:  Rm @ Max Temp 
 MST .degC           21.000002:  Mud Sample Temperature 
 RUN .                     300:  Run Number 
 ROPA.m/hr           14.790000:  ROP Avg 
 ROPN.m/hr            1.870000:  ROP Min 
 ROPX.m/hr           32.700001:  ROP Max 
 RPMA.rpm            52.500000:  RPM Surface Avg 
 RPMN.rpm            30.000000:  RPM Surface Min 
 RPMX.rpm            60.000000:  RPM Surface Max 
 RRUN.                       3:  Rig Run Number 
 RTIM.hr              8.510000:  Time Reaming 
 SAZI.deg           199.820007:  Azm, Start 
 SDEP.m            2362.000000:  Start Depth 
 SIDD.                      No:  Serv Intrp, DD 
 SINC.deg             5.740000:  Inc, Start 
 SPPA.kPag        17754.474609:  SPP Avg 
 SPPN.kPag        10893.795898:  SPP Min 
 SPPX.kPag        22063.382813:  SPP Max 
 STIM.      21.15.00 06-May-22:  Start Time 
 SVCS.                 DD, MWD:  Services 
 SVER.                9.200000:  Sperry Version 
 TDAT.m            1189.000000:  Tot Depth Attmp 
 TDDF.                      No:  Trip for DD 
 TDLG.m            1189.000000:  Tot Depth Loggd 
 TFF .                      No:  Trip for Fail 
 TQAA.kN-m            0.013558:  Torque Abs Avg 
 TQAN.kN-m            0.004067:  Torque Abs Min 
 TQAX.kN-m            0.024405:  Torque Abs Max 
 TRRT.°/30m           0.860000:  Turn Rotating 
 MRT .                  EWR-P4:  Maximum Recorded Temperature 
 TTMX.degC           75.199997:  Max Tool Temp 
 VS01.                12278995:  Virtual Str1 SN 
 VS02.                12394165:  Virtual Str2 SN 
 VS03.                13686255:  Virtual Str3 SN 
 VS04.                90681167:  Virtual Str4 SN 
 VS05.                90683981:  Virtual Str5 SN 
 VS06.                90683974:  Virtual Str6 SN 
 VS07.                90683978:  Virtual Str7 SN 
 VS08.                90683983:  Virtual Str8 SN 
 VS09.                13531224:  Virtual Str9 SN 
 WBMN.kdN             2.668932:  WOB Min 
 WITN.          Peter Clarkson:  Customer Rep 2 
 WITN.        Shaughan Corless:  Customer Rep 
 WOBA.kdN             7.045982:  WOB Avg 
 WOBX.kdN            10.675730:  WOB Max 
 YP  .pa             14.364045:  Yield Point 
~Curve Information Block
#MNEM.UNIT                 API CODE     Curve Description
#---------               -----------    ---------------------------
 DEPT.M                 00 000 000 000:  Depth
 AFRSAC.ohmm            00 000 000 000:  AFR Shallow Avg Res BC
 AFRMAC.ohmm            00 000 000 000:  AFR Medium Avg Res BC
 AFRDAC.ohmm            00 000 000 000:  AFR Deep Avg Res BC
#Other Information
#
#WARRANTY: Halliburton will use its best efforts to furnish customers with 
#accurate information and interpretations that are part of, and incident to, the services 
#provided.  However, Halliburton cannot and does not warrant the accuracy 
#or correctness of such information and interpretations.  Under no circumstances should any 
#such information or interpretation be relied upon as the sole basis for any drilling, 
#completion, production, or financial decision or any procedure involving any risk to the 
#safety of any drilling venture, drilling rig or its crew or any other third party.  The 
#Customer has full responsibility for all drilling, completion and production operation.  
#Halliburton makes no representations or warranties, either expressed or 
#implied, including, but not limited to, the implied warranties of merchantability or fitness 
#for a particular purpose, with respect to the services rendered.  In no event will 
#Halliburton be liable for failure to obtain any particular results or for 
#any damages, including, but not limited to, indirect, special or consequential damages, 
#resulting from the use of any information or interpretation provided by Halliburton.
#
~A   DEPT      AFRSAC     AFRMAC     AFRDAC   
# ...
   2511.6000    26.5276    98.6990   113.8558
   2511.7000    24.9667    93.9719   107.8232
   2511.8000    23.7076    93.5807   106.9277
   2511.9000    22.7445   100.0873   114.7464
   2512.0000    21.9150   110.5017   127.9986
   2512.1000    21.0198   118.2805   137.7527
   2512.2000    19.6868   115.9241   133.6438
   2512.3000    18.7261   109.2393   125.1923
   2512.4000    18.1355   103.2152   117.6810
   2512.5000    18.1165   100.8208   114.9617
   2512.6000    18.3003   100.0751   113.8284
   2512.7000    18.5351   101.8871   115.3899
   2512.8000    18.5395   106.2299   119.3486
   2512.9000    18.6307   111.4151   125.4123
   2513.0000    18.5351   114.3555   128.7968
   2513.1000    18.2742   114.2521   128.6358
   2513.2000    18.0619   113.8306   127.8301
   2513.3000    18.3225   115.0611   129.7413
   2513.4000    18.7675   115.3145   130.1365
   2513.5000    19.2133   114.2675   128.9109
   2513.6000    19.6723   113.8634   128.5567
   2513.7000    20.1975   117.8964   133.2962
   2513.8000    20.7010   124.1311   140.7824
   2513.9000    21.2661   128.6211   146.1858
   2514.0000    21.9008   128.9567   146.5138
   2514.1000    22.5469   127.5189   145.1554
   2514.2000    23.4566   131.0643   149.6845
   2514.3000    24.4987   135.2368   154.8907
   2514.4000    25.5800   136.8768   157.3961
   2514.5000    26.2471   132.7668   152.2805
   2514.6000    26.6739   128.8328   147.6156
   2514.7000    26.9928   125.8209   144.2154
   2514.8000    27.5262   123.1431   141.0184
   2514.9000    28.1760   120.3851   137.9085
   2515.0000    29.3129   119.9110   138.2663
   2515.1000    30.7634   123.3561   142.9152
   2515.2000    32.3422   128.8842   149.5755
   2515.3000    34.1752   134.3009   155.2136
   2515.4000    36.0524   138.0805   158.5713
   2515.5000    37.5680   138.9904   159.2874
   2515.6000    38.7681   136.4124   156.5960
   2515.7000    38.9547   131.0277   150.5788
   2515.8000    38.5262   127.0948   146.7160
   2515.9000    37.7470   125.0284   144.3392
   2516.0000    36.1927   124.1322   142.4755
   2516.1000    34.1861   122.3375   138.9675
   2516.2000    33.1456   121.2430   136.0952
   2516.3000    32.9252   122.9573   136.6828
   2516.4000    33.3223   125.1322   138.3250
   2516.5000    34.1376   127.3208   141.1821
   2516.6000    35.2386   128.6878   144.6188
   2516.7000    36.8613   129.4411   147.6337
   2516.8000    37.7024   124.4677   143.6043
   2516.9000    37.6564   120.0396   139.0178
   2517.0000    37.3311   119.8504   138.3553
   2517.1000    37.6430   129.4384   149.3224
   2517.2000    38.4494   145.1877   167.3026
   2517.3000    38.5138   154.7558   177.7578
   2517.4000    39.1661   155.6218   179.1281
   2517.5000    40.0537   149.7624   172.1233
   2517.6000    39.7113   140.4208   160.8619
   2517.7000    37.5638   128.9486   146.9930
   2517.8000    33.4558   109.9560   123.8750
   2517.9000    29.5711    94.7074   106.1017
   2518.0000    27.5494    94.0936   106.1349
   2518.1000    25.9078   101.9513   114.7658
   2518.2000    24.5856   116.0303   130.4213
   2518.3000    23.7075   120.0921   133.7530
   2518.4000    23.2992   114.5046   127.5442
   2518.5000    23.7990   112.9339   125.7662
   2518.6000    24.8989   115.0263   128.3292
   2518.7000    26.5934   116.4056   130.8644
   2518.8000    29.5513   115.5446   131.9773
   2518.9000    33.6015   111.8670   130.7056
   2519.0000    37.4716   110.5160   129.9216
   2519.1000    40.5117   111.8918   131.2401
   2519.2000    42.8483   113.1162   132.1466
   2519.3000    45.2457   115.8974   134.5064
   2519.4000    46.1404   118.5979   136.1803
   2519.5000    44.1259   123.5312   139.1237
   2519.6000    40.0329   123.5705   138.0107
   2519.7000    37.3217   121.4541   136.3329
   2519.8000    36.0195   118.9844   135.1329
   2519.9000    36.0247   118.3795   135.3744
   2520.0000    37.1969   116.2728   132.6132
   2520.1000    39.4808   112.7202   126.2550
   2520.2000    43.6603   112.8738   123.8640
   2520.3000    48.9736   115.6227   126.0152
   2520.4000    52.7499   116.9444   126.5976
   2520.5000    54.2416   110.8914   124.2275
   2520.6000    54.2011   107.9964   122.5693
   2520.7000    53.4116   107.1853   118.9750
   2520.8000    54.4856   110.7472   123.6246
   2520.9000    54.5869   112.5223   124.4669
   2521.0000    53.9480   107.5286   123.0229
   2521.1000    53.7901   109.4150   126.4543
   2521.2000    51.4657   103.6567   123.2254
   2521.3000    48.2094    99.3382   118.3477
   2521.4000    46.0164    96.5508   115.4588
   2521.5000    45.8824   100.7258   116.7321
   2521.6000    46.4759   110.1405   123.5101
   2521.7000    45.9241   115.4589   128.9238
   2521.8000    43.7813   114.9248   125.9788
   2521.9000    42.5487   107.9051   118.8417
   2522.0000    43.6329   106.3596   118.4029
   2522.1000    44.3986   104.1533   117.8975
   2522.2000    45.0321   102.0636   116.4996
   2522.3000    45.3376    99.3660   111.9441
   2522.4000    45.9518    96.4572   106.7860
   2522.5000    49.0742   100.4017   109.8148
   2522.6000    51.9207   105.9080   114.6771
   2522.7000    54.7927   110.8264   120.8173
   2522.8000    56.7353   116.0166   124.1658
   2522.9000    56.3611   114.8196   122.6015
   2523.0000    57.3498   117.8020   125.8578
   2523.1000    57.2305   114.8805   126.8008
   2523.2000    55.7553   108.4888   122.6116
   2523.3000    54.0629   106.6792   118.3231
   2523.4000    52.2695   105.1362   115.6329
   2523.5000    50.6985   109.8350   119.4417
   2523.6000    47.3927   114.4510   126.5424
   2523.7000    41.4507   110.0223   122.4015
   2523.8000    36.7449   104.4510   118.2518
   2523.9000    34.1296   104.0667   118.8628
   2524.0000    32.7410   108.0475   124.8395
   2524.1000    31.5225   114.6858   130.7019
   2524.2000    29.6914   111.3877   126.0951
   2524.3000    28.5540   103.0150   117.3510
   2524.4000    29.4162    98.3847   112.5213
   2524.5000    31.5327    96.0585   110.6921
   2524.6000    34.3539    93.8860   109.0463
   2524.7000    37.8116    96.3579   111.9556
   2524.8000    40.6352   100.6351   116.9377
   2524.9000    44.0763   106.8501   124.4520
   2525.0000    46.3436   107.6901   127.0804
   2525.1000    44.6559    96.4926   114.8141
   2525.2000    44.2159    89.6382   106.7959
   2525.3000    44.9240    87.8619   103.9770
   2525.4000    46.6609    91.7163   107.7083
   2525.5000    47.8110    97.6415   113.2582
   2525.6000    45.9546    97.1502   112.2548
   2525.7000    43.3893    95.2593   110.1586
   2525.8000    42.2154    94.9941   109.7373
   2525.9000    41.5712    92.7884   107.7407
   2526.0000    40.9086    88.4957   104.2544
   2526.1000    39.4712    83.1047    97.7392
   2526.2000    38.2170    78.7382    92.2313
   2526.3000    40.0355    84.4605    97.1161
   2526.4000    44.4609    96.6963   111.2324
   2526.5000    47.2488   104.2905   120.1730
   2526.6000    48.2406   104.1195   119.4679
   2526.7000    47.3188    95.4829   108.4208
   2526.8000    47.8890    90.4644   102.5567
   2526.9000    50.5166    94.0401   107.5389
   2527.0000    52.7360   101.1670   116.8667
   2527.1000    54.7314   107.3032   125.8108
   2527.2000    55.0788   108.0134   126.5650
   2527.3000    54.5305   101.9225   120.7324
   2527.4000    54.4499    97.1896   114.6081
   2527.5000    57.0374    99.1566   115.3938
   2527.6000    60.6939   103.9048   120.1725
   2527.7000    62.0115   107.2853   123.3342
   2527.8000    60.8852   107.9666   124.2211
   2527.9000    58.5180   108.5594   125.2431
   2528.0000    55.7099   108.6515   124.9946
   2528.1000    54.6016   109.9038   126.5177
   2528.2000    52.6531   109.7985   125.9751
   2528.3000    50.2731   108.6508   124.0994
   2528.4000    47.9768   105.1571   119.7828
   2528.5000    46.3056   102.0677   116.5474
   2528.6000    45.8574   100.2626   115.8737
   2528.7000    44.7717    99.5647   115.9867
   2528.8000    43.6205    99.9919   117.3485
   2528.9000    41.4946    96.3420   112.5624
