~Version Information
 VERS.                  2.0:   CWLS log ASCII Standard -VERSION 2.0
 WRAP.                   NO:   One line per depth step
~Well Information Block
#MNEM.UNIT     VALUE/NAME     DESCRIPTION
#---------     -----------    ---------------------------
 STRT.M              2355.0000: START DEPTH
 STOP.M              3523.6000: STOP DEPTH
 STEP.M                 0.1000: STEP DEPTH
 NULL.               -999.2500: NULL VALUE
 XYGR.     Australia/New Zealand Coordinate Systems:  XYGROUP
 LLGR.      Latitude/Longitude:  LLGROUP
 CREF.     Datum Geocentric Datum of Austra:  CART REFERENCE
 GREF.     Ellipsoid World Geodetic System :  GEO REFERENCE
 CGSY.             SS GDA94-50:  CART GRID SYS
 GGSY.                      LL:  GEO GRID SYS
 CCDE.     UTM Zone 50S on Geocentric Datum of Australia 1994, Meters:  CART COORD DESC
 GCDE.     Generic Lat/Long's, Degrees, -180 ==> +180:  GEO COORD DESC
 UWI .                 W006107:  UNIQUE WELL IDENTIFIER
 API .                 W006107:  API NUMBER
 UNIT.                11741669:  LOGGING EQUIPMENT ID
 DCON.        Sperry Drilling :  DIRECTNL CONTR
 RIG .              Ensign 970:  RIG NAME
 MWDS.                Jandakot:  MWD SHOP
 SRVC.     Ensign Energy Services:  CONTRACTOR
 FLD .               Walyering:  FIELD NAME
 CTRY.               Australia:  COUNTRY NAME
 PROV.       Western Australia:  PROVINCE
 STAT.       Western Australia:  STATE NAME
 REGN.            Asia Pacific:  REGION
 BASE.                   Perth:  LOGGING EQUIPMENT BASE LOCATION
 WTYP.                Vertical:  WELL TYPE
 PDAT.          Mean Sea Level:  PERMANENT DATUM
 MDS .              Win MagUTM:  MAG DATA SOURCE
 MMDD.          22 April, 2022:  MAG DATA DATE
 MMDL.            bggm2021.dat:  MAGNETIC MODEL
 SON .        PA-XX-0907756569:  JOB NUMBER
 COMP.     Strike South West Pty Ltd:  COMPANY
 WELL.             Walyering 6:  WELL NAME
 FTOP.          Formation Tops:  FORM TOPS DESC
 ILTD.               Lithology:  INTERP LTH DESC
 SVYD.                  Survey:  SURVEY DESC
 DMOD.             Drill Model:  DRILL MOD DESC
 HPTY.       Minimum Curvature:  HOLE POS TYPE
 NREF.                    Grid:  NORTH REFERENCE
 SPUD.               25-Apr-22:  SPUD DATE
 DATE.      12.00.00 13-May-22:  END TIME
 STIM.      17.00.00 24-Apr-22:  START TIME
 DMF .             Drill Floor:  DRILL MEAS FROM
 DFST.                        :  DIST FSL TEXT
 DFWT.                        :  DIST FWL TEXT
 CNTY.                        :  COUNTY
 LOC .                        :  LOCATION
 LMF .             Drill Floor:  LOG MEASURED FROM
 CMER.deg           117.000000:  CENTRL MERIDIAN
 DEP .m               0.000000:  DEPTH
 AGAP.m               7.160000:  AIR GAP
 MMDE.m             -31.623000:  MAGUTM CALC DEP
 APD .m               7.160000:  DEPTH ABOVE PD
 WDMS.m               0.000000:  WD ELEV
 EGL .m              96.589993:  GROUND ELEVATION
 EPD .m              96.589993:  ELEVATION
 AZTC.deg            -2.153514:  AZM TOTAL CORR
 GRDC.deg             0.779280:  GRID CORRECTION
 MDEC.deg            -1.374234:  MAGNETIC DECL
 MDIP.deg           -64.762985:  MAGNETIC DIP
 MFLD.nT          57671.410156:  MAGNETIC FIELD
 GVFD.g               1.000000:  GRAVITY FIELD
 VSDR.deg             0.000000:  VERT SEC DIRECT
 TDD .m            3551.000070:  TOTAL DEPTH (DRILLER)
 SDEP.m              74.999999:  START DEPTH
 DFSL.m               0.000000:  DISTANCE FSL
 DFWL.m               0.000000:  DISTANCE FWL
 UTMY.m         6601158.480000:  UTM Y
 UTMX.m          353924.590000:  UTM X
 WHEW.m               0.000000:  WELL HEAD E/W
 WHNS.m               0.000000:  WELL HEAD N/S
 LONG.deg           115.474500:  LONGITUDE
 LATI.deg           -30.713472:  LATITUDE
 TVDS.m             103.749993:  TVDSS CORRECTN
 EKB .m             103.750002:  KB ELEVATION
 EDF .m             103.750002:  DF ELEVATION
 TDL .m            1189.000020:  TOTAL DEPTH (LOGGER)
 CSGD.m            2359.000046:  CASING BOTTOM (DRILLER)
 CSGL.m            2359.000046:  CASING BOTTOM (LOGGER)
 CSGS.mm            244.474994:  CASING SIZE
 CSGW.kgpm           69.942862:  CASING WEIGHT
 MAGU.                 1391237:  MAGUTM CHECKSUM
 VSC .                       1:  VS TO CLOSURE
~Parameter Information Block
#MNEM.UNIT       Value        Description
#---------     -----------    ---------------------------
 AV  .mps             2.550000:  Ann Velocity 
 AVMX.mps             2.933333:  Max Ann Veloc 
 AZIF.deg             4.250000:  Azm, Final 
 BHAT.               Mud Motor:  BHA Type 
 BREV.krev         1163.365845:  Rev Bit Total 
 BROT.°/30m           0.050000:  Build Rotating 
 BS  .mm            215.899994:  Bit Size 
 BSZ .mm            215.899994:  Bit Size 
 BTPL.kPag         3033.715332:  Bit Press Loss 
 CABU.                      No:  Customer Abuse 
 CGEO.             Dan Walding:  Customer Geo 
 COMM.                     ì¿q:  Run Comments 1 
 TCS .hr            105.300003:  Time Ciculation Ended 
 CV  .mps             4.283333:  Crit Velocity 
 CVMX.mps             4.600000:  Max Crit Veloc 
 DD1 .     Christian Arrindell:  Direct Drillr 1 
 DD2 .            Ivan Tutynin:  Direct Drillr 2 
 DDSV.               Mud Motor:  DD Service 
 DEFF.%              95.000000:  % Det Eff 
 DLRX.°/30m           1.280000:  Dogleg Rot Max 
 DLSO.°/30m           1.400000:  Dogleg Oriented 
 DLSX.°/30m           2.000000:  Dogleg Str Max 
 DRET.      00.30.00 12-May-22:  Drill End Time 
 DRST.      19.30.00 07-May-22:  Drill Start Tim 
 DTIM.hr             80.400002:  Time Drilling 
 EDEP.m            3551.000000:  End Depth 
 ENG1.            Ade Suhendar:  Engineer 1 
 ENG2.        Yiek Chong Leong:  Engineer 2 
 ENG3.           Sufyan Zainal:  Engineer 3 
 ETIM.      23.45.00 12-May-22:  End Time 
 FLOI.m3pm            2.035733:  Flow In 
 FLON.m3pm            1.324854:  Flow In Min 
 FLOS.mptm            4.000000:  Fluid Loss 
 FLOX.m3pm            2.119767:  Flow In Max 
 DFT .                 Polymer:  Mud Type 
 FTRO.       Formation Presure:  FTWD Run Obj 
 HFLO.                      No:  High Flow 
 HPRE.                      No:  High Pressure 
 HTEM.                      No:  High Temp 
 HYDO.m               2.500000:  Hydro Offset 
 IFIN.deg             1.860000:  Inc, Final 
 IMAX.deg             5.744654:  Inc Max 
 IMIN.deg             0.433048:  Inc Min 
 IMND.m            2565.059814:  Inc Min Depth 
 IMXD.m            2364.389893:  Inc Max Depth 
 JARR.                      No:  Jarring 
 LETM.      00.30.00 12-May-22:  Log End Time 
 LOST.hr                     0:  Lost Rig Time 
 LSTM.      19.30.00 07-May-22:  Log Start Time 
 MDCL.ppm         79803.000000:  Mud Chlorides 
 MDES.             Fresh Water:  Mud Desc 
 DFD .kg/m3        1138.351074:  Mud Density 
 MDMN.kg/m3        1114.385986:  Dens Mud Min 
 MDMX.kg/m3        1150.333862:  Dens Mud Max 
 PH  .pH             10.100000:  Mud pH 
 MOIL.                       0:  Run Mud Oil % 
 MOWR.                   0 100:  Run Mud OWR 
 MSND.                     0.2:  Run Mud Sand % 
 MSOL.                     4.6:  Run Mud Solids% 
 MTV .                GeoForce:  Motor Variant 
 DFV .spl            82.445999:  Mud Viscosity 
 MWOD.mm            171.449997:  MWD Tool OD 
 MWSI.                      No:  Serv Intrp, MWD 
 OTIM.hr            146.500000:  Time Operating 
 PCON.          Wear / Scratch:  Pad Condition 
 PMAX.kPag        35887.472656:  Press Op, Max 
 PV  .mPsec          40.000000:  Mud PV 
 RMS .ohmm            0.606000:  Mud Resistivity 
 RMCS.ohmm            0.076000:  Mud Cake Resistivity 
 MCST.degC           19.830000:  Mud Cake Sample Temperature 
 RMFS.ohmm            0.050000:  Mud Filtrate Resistivity 
 RMFT.degC           21.499998:  Mud Filtrate Sample Temperature 
 RMMT.ohmm            0.266500:  Rm @ Max Temp 
 MST .degC           21.000002:  Mud Sample Temperature 
 RUN .                     300:  Run Number 
 ROPA.m/hr           14.790000:  ROP Avg 
 ROPN.m/hr            1.870000:  ROP Min 
 ROPX.m/hr           32.700001:  ROP Max 
 RPMA.rpm            52.500000:  RPM Surface Avg 
 RPMN.rpm            30.000000:  RPM Surface Min 
 RPMX.rpm            60.000000:  RPM Surface Max 
 RRUN.                       3:  Rig Run Number 
 RTIM.hr              8.510000:  Time Reaming 
 SAZI.deg           199.820007:  Azm, Start 
 SDEP.m            2362.000000:  Start Depth 
 SIDD.                      No:  Serv Intrp, DD 
 SINC.deg             5.740000:  Inc, Start 
 SPPA.kPag        17754.474609:  SPP Avg 
 SPPN.kPag        10893.795898:  SPP Min 
 SPPX.kPag        22063.382813:  SPP Max 
 STIM.      21.15.00 06-May-22:  Start Time 
 SVCS.                 DD, MWD:  Services 
 SVER.                9.200000:  Sperry Version 
 TDAT.m            1189.000000:  Tot Depth Attmp 
 TDDF.                      No:  Trip for DD 
 TDLG.m            1189.000000:  Tot Depth Loggd 
 TFF .                      No:  Trip for Fail 
 TQAA.kN-m            0.013558:  Torque Abs Avg 
 TQAN.kN-m            0.004067:  Torque Abs Min 
 TQAX.kN-m            0.024405:  Torque Abs Max 
 TRRT.°/30m           0.860000:  Turn Rotating 
 MRT .                  EWR-P4:  Maximum Recorded Temperature 
 TTMX.degC           75.199997:  Max Tool Temp 
 VS01.                12278995:  Virtual Str1 SN 
 VS02.                12394165:  Virtual Str2 SN 
 VS03.                13686255:  Virtual Str3 SN 
 VS04.                90681167:  Virtual Str4 SN 
 VS05.                90683981:  Virtual Str5 SN 
 VS06.                90683974:  Virtual Str6 SN 
 VS07.                90683978:  Virtual Str7 SN 
 VS08.                90683983:  Virtual Str8 SN 
 VS09.                13531224:  Virtual Str9 SN 
 WBMN.kdN             2.668932:  WOB Min 
 WITN.          Peter Clarkson:  Customer Rep 2 
 WITN.        Shaughan Corless:  Customer Rep 
 WOBA.kdN             7.045982:  WOB Avg 
 WOBX.kdN            10.675730:  WOB Max 
 YP  .pa             14.364045:  Yield Point 
~Curve Information Block
#MNEM.UNIT                 API CODE     Curve Description
#---------               -----------    ---------------------------
 DEPT.M                 00 000 000 000:  Depth
 AFRSAC.ohmm            00 000 000 000:  AFR Shallow Avg Res BC
 AFRMAC.ohmm            00 000 000 000:  AFR Medium Avg Res BC
 AFRDAC.ohmm            00 000 000 000:  AFR Deep Avg Res BC
#Other Information
#
#WARRANTY: Halliburton will use its best efforts to furnish customers with 
#accurate information and interpretations that are part of, and incident to, the services 
#provided.  However, Halliburton cannot and does not warrant the accuracy 
#or correctness of such information and interpretations.  Under no circumstances should any 
#such information or interpretation be relied upon as the sole basis for any drilling, 
#completion, production, or financial decision or any procedure involving any risk to the 
#safety of any drilling venture, drilling rig or its crew or any other third party.  The 
#Customer has full responsibility for all drilling, completion and production operation.  
#Halliburton makes no representations or warranties, either expressed or 
#implied, including, but not limited to, the implied warranties of merchantability or fitness 
#for a particular purpose, with respect to the services rendered.  In no event will 
#Halliburton be liable for failure to obtain any particular results or for 
#any damages, including, but not limited to, indirect, special or consequential damages, 
#resulting from the use of any information or interpretation provided by Halliburton.
#
~A   DEPT      AFRSAC     AFRMAC     AFRDAC   
# ...
   3346.8000    32.2169    35.4243    43.2090
   3346.9000    33.7381    46.8638    47.0239
   3347.0000    41.5353    63.4188    62.1051
   3347.1000    53.7522    80.6889    87.4715
   3347.2000    70.4520    92.5052   130.4851
   3347.3000    65.1873   119.9624   160.3092
   3347.4000    39.4813   147.8644   140.0158
   3347.5000    23.5084   105.6526    94.4087
   3347.6000    16.2381    56.8814    57.7805
   3347.7000    13.0293    35.1180    39.7456
   3347.8000    11.1093    26.5125    31.2627
   3347.9000     9.9381    24.6465    28.4514
   3348.0000     9.3998    25.3820    29.5463
   3348.1000     9.3779    28.1722    32.4557
   3348.2000     9.1788    30.8433    34.4236
   3348.3000     8.4530    30.4769    33.3636
   3348.4000     7.3980    28.0273    30.0298
   3348.5000     6.4572    24.7974    27.2755
   3348.6000     5.8040    22.7812    25.7334
   3348.7000     5.5971    22.4061    25.7933
   3348.8000     5.7614    22.8660    27.3817
   3348.9000     6.1311    23.7976    29.5938
   3349.0000     6.6265    24.2152    31.2096
   3349.1000     7.0405    23.4769    31.0622
   3349.2000     7.3928    23.0157    30.3425
   3349.3000     7.9098    23.8910    30.8237
   3349.4000     8.4272    25.9412    33.1387
   3349.5000     9.1214    28.7514    37.1069
   3349.6000     9.7162    30.7728    40.2780
   3349.7000     9.8639    30.4171    40.5720
   3349.8000     9.8876    27.6387    38.9054
   3349.9000     9.7596    24.8672    36.4122
   3350.0000     9.5960    23.6557    34.7704
   3350.1000     9.3466    24.6185    33.6289
   3350.2000     8.7369    25.7147    31.3855
   3350.3000     8.2078    24.4283    29.4399
   3350.4000     7.7799    22.5249    28.9301
   3350.5000     7.3353    22.2686    30.0068
   3350.6000     6.6662    22.0115    30.3386
   3350.7000     5.9382    21.4821    28.8913
   3350.8000     5.3031    19.9685    27.0945
   3350.9000     4.9881    19.6196    27.6842
   3351.0000     4.9335    20.6418    30.0406
   3351.1000     4.9759    22.1377    32.4710
   3351.2000     5.1363    24.4494    34.2512
   3351.3000     5.1257    25.9183    34.6745
   3351.4000     4.8209    23.1551    32.6345
   3351.5000     4.2502    19.3040    28.0602
   3351.6000     3.6946    16.4404    23.2105
   3351.7000     3.4152    16.1950    20.2910
   3351.8000     3.6118    19.0044    20.4866
   3351.9000     4.7113    26.6510    27.4095
   3352.0000     7.7941    46.2966    51.3435
   3352.1000    16.8714    95.6969   149.2469
   3352.2000    36.1771   139.6364   254.5580
   3352.3000    47.9627    98.5071   127.4138
   3352.4000    39.3156    52.2858    54.5717
   3352.5000    28.4953    29.9428    29.9341
   3352.6000    22.7716    21.9009    22.2468
   3352.7000    20.6112    18.8765    20.4919
   3352.8000    21.4577    20.0248    22.4696
   3352.9000    23.6798    24.8254    26.7357
   3353.0000    27.1044    32.1446    32.4129
   3353.1000    27.3948    35.8793    33.6337
   3353.2000    23.7382    28.9035    27.4544
   3353.3000    18.0349    18.7549    20.0009
   3353.4000    13.9603    12.4096    14.6951
   3353.5000    12.2438     9.7204    11.7148
   3353.6000    11.9667     9.1356    10.4520
   3353.7000    12.9549    10.1593    10.5119
   3353.8000    14.8558    11.7703    12.4506
   3353.9000    20.3556    14.0709    18.8590
   3354.0000    37.0161    19.4339    41.9001
   3354.1000    76.2200    33.4423   111.7410
   3354.2000    97.1001    68.3260   199.0355
   3354.3000    62.7282    79.0072   140.6950
   3354.4000    37.8450    42.8175    71.6028
   3354.5000    25.3805    22.0461    37.4552
   3354.6000    18.0447    12.5034    21.8670
   3354.7000    12.6485     8.6674    13.4844
   3354.8000     9.7686     7.2620     9.7422
   3354.9000     8.7775     7.4512     8.6623
   3355.0000     8.4584     8.5722     8.6836
   3355.1000     8.5256     9.7033     9.3415
   3355.2000     8.0017     9.8157     9.3142
   3355.3000     7.5687     9.5632     9.1800
   3355.4000     7.2848     9.2078     9.1514
   3355.5000     6.9078     8.5514     8.8493
   3355.6000     6.5223     7.9092     8.4366
   3355.7000     6.2660     7.4096     8.1646
   3355.8000     6.5252     7.4789     8.6205
   3355.9000     6.9862     7.8403     9.3896
   3356.0000     7.4377     8.2670    10.0518
   3356.1000     7.8713     8.7407    10.4150
   3356.2000     7.8148     8.3800     9.9522
   3356.3000     7.5832     7.6607     9.1082
   3356.4000     7.2964     6.9040     8.3440
   3356.5000     6.9861     6.6205     7.8001
   3356.6000     6.8983     7.0169     7.7986
   3356.7000     6.7004     7.6780     8.0214
   3356.8000     5.9844     8.0793     8.0775
   3356.9000     5.3297     7.6760     7.7460
   3357.0000     4.9355     7.0032     7.3045
   3357.1000     4.7874     6.3090     6.7632
   3357.2000     4.8205     6.1457     6.5979
   3357.3000     4.8985     6.2490     6.8003
   3357.4000     5.2922     6.8178     7.4659
   3357.5000     6.0800     7.6967     8.5864
   3357.6000     7.0472     8.6264     9.7504
   3357.7000     7.6443     9.2991    10.4252
   3357.8000     8.0498     9.7111    10.9248
   3357.9000     8.1915     9.8123    10.9731
   3358.0000     8.1377     9.4659    10.7281
   3358.1000     8.0333     9.0912    10.4486
   3358.2000     7.9286     8.8137    10.1773
   3358.3000     7.9672     8.7753     9.9621
   3358.4000     7.9518     8.7349     9.6866
   3358.5000     7.7589     8.6832     9.3794
   3358.6000     7.3166     8.6136     8.9367
   3358.7000     6.7950     8.3432     8.3933
   3358.8000     6.4206     7.9809     7.9010
   3358.9000     6.2919     7.6194     7.6439
   3359.0000     5.9820     7.2176     7.3588
   3359.1000     5.8694     7.0665     7.2709
   3359.2000     5.8623     7.0221     7.2315
   3359.3000     5.8988     7.0877     7.1363
   3359.4000     6.1425     7.3281     7.2263
   3359.5000     6.5160     7.9214     7.5478
   3359.6000     7.0810     8.6409     8.0785
   3359.7000     7.5308     9.0456     8.4866
   3359.8000     7.4504     8.6240     8.4480
   3359.9000     7.2320     8.0394     8.2885
   3360.0000     7.3423     7.9376     8.5412
   3360.1000     7.7259     8.3540     9.1566
   3360.2000     8.4830     9.2147    10.1041
   3360.3000     9.1992    10.0227    11.0751
   3360.4000    10.0012    10.9451    12.1390
   3360.5000    10.7909    11.6378    12.9271
   3360.6000    10.6013    11.3936    12.2425
   3360.7000     9.7989    10.4359    10.7994
   3360.8000     8.8281     9.1440     9.2607
   3360.9000     8.1675     8.2396     8.2363
   3361.0000     7.6694     7.5590     7.5173
   3361.1000     7.4102     7.5065     7.1603
   3361.2000     7.2907     7.7293     7.0344
   3361.3000     7.2793     7.9194     7.0248
   3361.4000     7.0504     7.6777     6.7897
   3361.5000     6.6499     6.9265     6.4248
   3361.6000     6.5703     6.8085     6.3972
   3361.7000     6.9564     7.2048     6.8467
   3361.8000     7.6009     7.9848     7.5534
   3361.9000     8.1172     8.6294     8.1784
   3362.0000     8.5047     9.3882     8.8034
   3362.1000     9.6365    11.0348    10.4781
   3362.2000    11.9268    14.0290    13.6093
   3362.3000    15.4526    18.0806    18.6174
   3362.4000    19.8931    23.3034    24.8612
   3362.5000    20.8868    26.2013    26.4960
   3362.6000    17.6415    23.2751    22.1106
   3362.7000    12.7833    15.4405    15.1891
   3362.8000     9.5805    10.3658    10.8340
   3362.9000     8.0685     8.5464     9.0879
   3363.0000     7.9264     8.8490     9.2934
   3363.1000     8.4555    10.1637    10.4716
   3363.2000     8.1766    10.6188    10.5506
   3363.3000     6.6616     9.0242     8.6113
   3363.4000     5.2590     7.3139     6.7440
   3363.5000     4.5232     6.5140     5.9464
   3363.6000     4.5101     6.6174     6.1586
   3363.7000     4.5631     6.8877     6.6131
   3363.8000     4.6441     7.0737     7.0103
   3363.9000     5.0365     7.5527     7.7088
   3364.0000     5.6970     8.3891     8.7723
   3364.1000     6.7582     9.6100    10.2066
