~Version Information
 VERS.                  2.0:   CWLS log ASCII Standard -VERSION 2.0
 WRAP.                   NO:   One line per depth step
~Well Information Block
#MNEM.UNIT     VALUE/NAME     DESCRIPTION
#---------     -----------    ---------------------------
 STRT.M              2355.0000: START DEPTH
 STOP.M              3523.6000: STOP DEPTH
 STEP.M                 0.1000: STEP DEPTH
 NULL.               -999.2500: NULL VALUE
 XYGR.     Australia/New Zealand Coordinate Systems:  XYGROUP
 LLGR.      Latitude/Longitude:  LLGROUP
 CREF.     Datum Geocentric Datum of Austra:  CART REFERENCE
 GREF.     Ellipsoid World Geodetic System :  GEO REFERENCE
 CGSY.             SS GDA94-50:  CART GRID SYS
 GGSY.                      LL:  GEO GRID SYS
 CCDE.     UTM Zone 50S on Geocentric Datum of Australia 1994, Meters:  CART COORD DESC
 GCDE.     Generic Lat/Long's, Degrees, -180 ==> +180:  GEO COORD DESC
 UWI .                 W006107:  UNIQUE WELL IDENTIFIER
 API .                 W006107:  API NUMBER
 UNIT.                11741669:  LOGGING EQUIPMENT ID
 DCON.        Sperry Drilling :  DIRECTNL CONTR
 RIG .              Ensign 970:  RIG NAME
 MWDS.                Jandakot:  MWD SHOP
 SRVC.     Ensign Energy Services:  CONTRACTOR
 FLD .               Walyering:  FIELD NAME
 CTRY.               Australia:  COUNTRY NAME
 PROV.       Western Australia:  PROVINCE
 STAT.       Western Australia:  STATE NAME
 REGN.            Asia Pacific:  REGION
 BASE.                   Perth:  LOGGING EQUIPMENT BASE LOCATION
 WTYP.                Vertical:  WELL TYPE
 PDAT.          Mean Sea Level:  PERMANENT DATUM
 MDS .              Win MagUTM:  MAG DATA SOURCE
 MMDD.          22 April, 2022:  MAG DATA DATE
 MMDL.            bggm2021.dat:  MAGNETIC MODEL
 SON .        PA-XX-0907756569:  JOB NUMBER
 COMP.     Strike South West Pty Ltd:  COMPANY
 WELL.             Walyering 6:  WELL NAME
 FTOP.          Formation Tops:  FORM TOPS DESC
 ILTD.               Lithology:  INTERP LTH DESC
 SVYD.                  Survey:  SURVEY DESC
 DMOD.             Drill Model:  DRILL MOD DESC
 HPTY.       Minimum Curvature:  HOLE POS TYPE
 NREF.                    Grid:  NORTH REFERENCE
 SPUD.               25-Apr-22:  SPUD DATE
 DATE.      12.00.00 13-May-22:  END TIME
 STIM.      17.00.00 24-Apr-22:  START TIME
 DMF .             Drill Floor:  DRILL MEAS FROM
 DFST.                        :  DIST FSL TEXT
 DFWT.                        :  DIST FWL TEXT
 CNTY.                        :  COUNTY
 LOC .                        :  LOCATION
 LMF .             Drill Floor:  LOG MEASURED FROM
 CMER.deg           117.000000:  CENTRL MERIDIAN
 DEP .m               0.000000:  DEPTH
 AGAP.m               7.160000:  AIR GAP
 MMDE.m             -31.623000:  MAGUTM CALC DEP
 APD .m               7.160000:  DEPTH ABOVE PD
 WDMS.m               0.000000:  WD ELEV
 EGL .m              96.589993:  GROUND ELEVATION
 EPD .m              96.589993:  ELEVATION
 AZTC.deg            -2.153514:  AZM TOTAL CORR
 GRDC.deg             0.779280:  GRID CORRECTION
 MDEC.deg            -1.374234:  MAGNETIC DECL
 MDIP.deg           -64.762985:  MAGNETIC DIP
 MFLD.nT          57671.410156:  MAGNETIC FIELD
 GVFD.g               1.000000:  GRAVITY FIELD
 VSDR.deg             0.000000:  VERT SEC DIRECT
 TDD .m            3551.000070:  TOTAL DEPTH (DRILLER)
 SDEP.m              74.999999:  START DEPTH
 DFSL.m               0.000000:  DISTANCE FSL
 DFWL.m               0.000000:  DISTANCE FWL
 UTMY.m         6601158.480000:  UTM Y
 UTMX.m          353924.590000:  UTM X
 WHEW.m               0.000000:  WELL HEAD E/W
 WHNS.m               0.000000:  WELL HEAD N/S
 LONG.deg           115.474500:  LONGITUDE
 LATI.deg           -30.713472:  LATITUDE
 TVDS.m             103.749993:  TVDSS CORRECTN
 EKB .m             103.750002:  KB ELEVATION
 EDF .m             103.750002:  DF ELEVATION
 TDL .m            1189.000020:  TOTAL DEPTH (LOGGER)
 CSGD.m            2359.000046:  CASING BOTTOM (DRILLER)
 CSGL.m            2359.000046:  CASING BOTTOM (LOGGER)
 CSGS.mm            244.474994:  CASING SIZE
 CSGW.kgpm           69.942862:  CASING WEIGHT
 MAGU.                 1391237:  MAGUTM CHECKSUM
 VSC .                       1:  VS TO CLOSURE
~Parameter Information Block
#MNEM.UNIT       Value        Description
#---------     -----------    ---------------------------
 AV  .mps             2.550000:  Ann Velocity 
 AVMX.mps             2.933333:  Max Ann Veloc 
 AZIF.deg             4.250000:  Azm, Final 
 BHAT.               Mud Motor:  BHA Type 
 BREV.krev         1163.365845:  Rev Bit Total 
 BROT.°/30m           0.050000:  Build Rotating 
 BS  .mm            215.899994:  Bit Size 
 BSZ .mm            215.899994:  Bit Size 
 BTPL.kPag         3033.715332:  Bit Press Loss 
 CABU.                      No:  Customer Abuse 
 CGEO.             Dan Walding:  Customer Geo 
 COMM.                     ì¿q:  Run Comments 1 
 TCS .hr            105.300003:  Time Ciculation Ended 
 CV  .mps             4.283333:  Crit Velocity 
 CVMX.mps             4.600000:  Max Crit Veloc 
 DD1 .     Christian Arrindell:  Direct Drillr 1 
 DD2 .            Ivan Tutynin:  Direct Drillr 2 
 DDSV.               Mud Motor:  DD Service 
 DEFF.%              95.000000:  % Det Eff 
 DLRX.°/30m           1.280000:  Dogleg Rot Max 
 DLSO.°/30m           1.400000:  Dogleg Oriented 
 DLSX.°/30m           2.000000:  Dogleg Str Max 
 DRET.      00.30.00 12-May-22:  Drill End Time 
 DRST.      19.30.00 07-May-22:  Drill Start Tim 
 DTIM.hr             80.400002:  Time Drilling 
 EDEP.m            3551.000000:  End Depth 
 ENG1.            Ade Suhendar:  Engineer 1 
 ENG2.        Yiek Chong Leong:  Engineer 2 
 ENG3.           Sufyan Zainal:  Engineer 3 
 ETIM.      23.45.00 12-May-22:  End Time 
 FLOI.m3pm            2.035733:  Flow In 
 FLON.m3pm            1.324854:  Flow In Min 
 FLOS.mptm            4.000000:  Fluid Loss 
 FLOX.m3pm            2.119767:  Flow In Max 
 DFT .                 Polymer:  Mud Type 
 FTRO.       Formation Presure:  FTWD Run Obj 
 HFLO.                      No:  High Flow 
 HPRE.                      No:  High Pressure 
 HTEM.                      No:  High Temp 
 HYDO.m               2.500000:  Hydro Offset 
 IFIN.deg             1.860000:  Inc, Final 
 IMAX.deg             5.744654:  Inc Max 
 IMIN.deg             0.433048:  Inc Min 
 IMND.m            2565.059814:  Inc Min Depth 
 IMXD.m            2364.389893:  Inc Max Depth 
 JARR.                      No:  Jarring 
 LETM.      00.30.00 12-May-22:  Log End Time 
 LOST.hr                     0:  Lost Rig Time 
 LSTM.      19.30.00 07-May-22:  Log Start Time 
 MDCL.ppm         79803.000000:  Mud Chlorides 
 MDES.             Fresh Water:  Mud Desc 
 DFD .kg/m3        1138.351074:  Mud Density 
 MDMN.kg/m3        1114.385986:  Dens Mud Min 
 MDMX.kg/m3        1150.333862:  Dens Mud Max 
 PH  .pH             10.100000:  Mud pH 
 MOIL.                       0:  Run Mud Oil % 
 MOWR.                   0 100:  Run Mud OWR 
 MSND.                     0.2:  Run Mud Sand % 
 MSOL.                     4.6:  Run Mud Solids% 
 MTV .                GeoForce:  Motor Variant 
 DFV .spl            82.445999:  Mud Viscosity 
 MWOD.mm            171.449997:  MWD Tool OD 
 MWSI.                      No:  Serv Intrp, MWD 
 OTIM.hr            146.500000:  Time Operating 
 PCON.          Wear / Scratch:  Pad Condition 
 PMAX.kPag        35887.472656:  Press Op, Max 
 PV  .mPsec          40.000000:  Mud PV 
 RMS .ohmm            0.606000:  Mud Resistivity 
 RMCS.ohmm            0.076000:  Mud Cake Resistivity 
 MCST.degC           19.830000:  Mud Cake Sample Temperature 
 RMFS.ohmm            0.050000:  Mud Filtrate Resistivity 
 RMFT.degC           21.499998:  Mud Filtrate Sample Temperature 
 RMMT.ohmm            0.266500:  Rm @ Max Temp 
 MST .degC           21.000002:  Mud Sample Temperature 
 RUN .                     300:  Run Number 
 ROPA.m/hr           14.790000:  ROP Avg 
 ROPN.m/hr            1.870000:  ROP Min 
 ROPX.m/hr           32.700001:  ROP Max 
 RPMA.rpm            52.500000:  RPM Surface Avg 
 RPMN.rpm            30.000000:  RPM Surface Min 
 RPMX.rpm            60.000000:  RPM Surface Max 
 RRUN.                       3:  Rig Run Number 
 RTIM.hr              8.510000:  Time Reaming 
 SAZI.deg           199.820007:  Azm, Start 
 SDEP.m            2362.000000:  Start Depth 
 SIDD.                      No:  Serv Intrp, DD 
 SINC.deg             5.740000:  Inc, Start 
 SPPA.kPag        17754.474609:  SPP Avg 
 SPPN.kPag        10893.795898:  SPP Min 
 SPPX.kPag        22063.382813:  SPP Max 
 STIM.      21.15.00 06-May-22:  Start Time 
 SVCS.                 DD, MWD:  Services 
 SVER.                9.200000:  Sperry Version 
 TDAT.m            1189.000000:  Tot Depth Attmp 
 TDDF.                      No:  Trip for DD 
 TDLG.m            1189.000000:  Tot Depth Loggd 
 TFF .                      No:  Trip for Fail 
 TQAA.kN-m            0.013558:  Torque Abs Avg 
 TQAN.kN-m            0.004067:  Torque Abs Min 
 TQAX.kN-m            0.024405:  Torque Abs Max 
 TRRT.°/30m           0.860000:  Turn Rotating 
 MRT .                  EWR-P4:  Maximum Recorded Temperature 
 TTMX.degC           75.199997:  Max Tool Temp 
 VS01.                12278995:  Virtual Str1 SN 
 VS02.                12394165:  Virtual Str2 SN 
 VS03.                13686255:  Virtual Str3 SN 
 VS04.                90681167:  Virtual Str4 SN 
 VS05.                90683981:  Virtual Str5 SN 
 VS06.                90683974:  Virtual Str6 SN 
 VS07.                90683978:  Virtual Str7 SN 
 VS08.                90683983:  Virtual Str8 SN 
 VS09.                13531224:  Virtual Str9 SN 
 WBMN.kdN             2.668932:  WOB Min 
 WITN.          Peter Clarkson:  Customer Rep 2 
 WITN.        Shaughan Corless:  Customer Rep 
 WOBA.kdN             7.045982:  WOB Avg 
 WOBX.kdN            10.675730:  WOB Max 
 YP  .pa             14.364045:  Yield Point 
~Curve Information Block
#MNEM.UNIT                 API CODE     Curve Description
#---------               -----------    ---------------------------
 DEPT.M                 00 000 000 000:  Depth
 AFRSAC.ohmm            00 000 000 000:  AFR Shallow Avg Res BC
 AFRMAC.ohmm            00 000 000 000:  AFR Medium Avg Res BC
 AFRDAC.ohmm            00 000 000 000:  AFR Deep Avg Res BC
#Other Information
#
#WARRANTY: Halliburton will use its best efforts to furnish customers with 
#accurate information and interpretations that are part of, and incident to, the services 
#provided.  However, Halliburton cannot and does not warrant the accuracy 
#or correctness of such information and interpretations.  Under no circumstances should any 
#such information or interpretation be relied upon as the sole basis for any drilling, 
#completion, production, or financial decision or any procedure involving any risk to the 
#safety of any drilling venture, drilling rig or its crew or any other third party.  The 
#Customer has full responsibility for all drilling, completion and production operation.  
#Halliburton makes no representations or warranties, either expressed or 
#implied, including, but not limited to, the implied warranties of merchantability or fitness 
#for a particular purpose, with respect to the services rendered.  In no event will 
#Halliburton be liable for failure to obtain any particular results or for 
#any damages, including, but not limited to, indirect, special or consequential damages, 
#resulting from the use of any information or interpretation provided by Halliburton.
#
~A   DEPT      AFRSAC     AFRMAC     AFRDAC   
# ...
   3433.8000     6.3850     6.5325     6.1783
   3433.9000     5.4756     5.3778     5.1538
   3434.0000     5.0566     5.4341     4.7470
   3434.1000     5.1200     6.1835     4.9680
   3434.2000     5.6926     7.1235     5.7578
   3434.3000     6.3943     7.7479     6.8185
   3434.4000     6.8630     8.2420     7.7287
   3434.5000     7.0499     8.6784     8.4511
   3434.6000     6.9404     8.7290     8.9441
   3434.7000     6.6584     8.4007     9.0199
   3434.8000     6.3227     7.8728     8.6616
   3434.9000     6.1370     7.5372     8.3793
   3435.0000     5.9799     7.5926     8.2816
   3435.1000     6.0221     7.7975     8.3602
   3435.2000     6.2171     7.9821     8.4490
   3435.3000     6.3919     7.7920     8.2174
   3435.4000     6.4297     7.2374     7.8064
   3435.5000     6.7624     6.9283     7.9331
   3435.6000     7.4808     7.2811     8.6560
   3435.7000     8.4025     8.3539     9.6954
   3435.8000     8.8431     9.4034    10.0838
   3435.9000     8.5285     9.0660     9.5066
   3436.0000     7.9155     7.9784     8.6516
   3436.1000     7.4029     7.1907     8.0668
   3436.2000     7.1296     7.0043     7.8258
   3436.3000     6.9020     6.8993     7.6320
   3436.4000     6.7550     6.7590     7.4944
   3436.5000     6.9416     6.8541     7.7669
   3436.6000     7.2677     7.2569     8.2349
   3436.7000     7.6593     8.0168     8.7577
   3436.8000     7.6395     8.5211     8.7095
   3436.9000     7.3625     8.4027     8.3169
   3437.0000     7.1642     7.9585     7.9883
   3437.1000     6.8524     7.0634     7.5387
   3437.2000     6.2500     6.1424     6.7637
   3437.3000     5.7175     5.8862     6.1437
   3437.4000     5.6084     6.2090     6.1926
   3437.5000     6.2682     7.1863     7.2529
   3437.6000     7.7411     8.5670     9.7350
   3437.7000     9.3126    10.1697    12.4600
   3437.8000    10.7173    12.1734    15.0220
   3437.9000    11.6941    14.5008    16.1646
   3438.0000    12.3054    15.7562    16.0031
   3438.1000    13.0906    16.3712    15.7403
   3438.2000    12.7919    13.6567    13.2786
   3438.3000    11.4520    10.7074    10.5311
   3438.4000    10.1531     8.7002     8.7201
   3438.5000     9.9559     8.3450     8.3963
   3438.6000    11.4846     9.6803     9.7974
   3438.7000    15.4524    13.0860    13.4466
   3438.8000    22.0841    18.8708    19.9318
   3438.9000    31.7632    26.3689    28.7582
   3439.0000    41.4385    36.7698    34.9247
   3439.1000    34.0904    36.1148    28.3147
   3439.2000    22.1593    22.2111    18.7406
   3439.3000    14.1783    13.6114    12.7485
   3439.4000    10.5409     9.6497    10.1262
   3439.5000     9.0362     8.0028     8.8838
   3439.6000     7.8881     7.1755     8.1241
   3439.7000     6.7799     6.4403     7.2260
   3439.8000     5.8619     6.1584     6.5007
   3439.9000     5.2218     5.9649     6.0388
   3440.0000     4.7999     5.8301     5.6973
   3440.1000     4.4077     5.6064     5.3327
   3440.2000     4.1588     5.2077     5.0513
   3440.3000     4.1220     4.9089     5.0443
   3440.4000     4.1940     4.7068     5.2660
   3440.5000     4.3807     4.7776     5.7007
   3440.6000     4.6293     5.1381     6.1381
   3440.7000     4.9616     5.7801     6.5580
   3440.8000     5.3233     6.7932     7.0249
   3440.9000     5.7970     8.0558     7.7188
   3441.0000     6.4415     9.6442     8.6935
   3441.1000     7.2368    10.6773     9.7228
   3441.2000     7.8908    10.4616    10.3889
   3441.3000     8.1492     9.4713    10.3941
   3441.4000     8.0596     8.5739     9.8461
   3441.5000     7.8899     8.2985     9.0599
   3441.6000     7.3860     8.1548     8.0595
   3441.7000     6.8198     7.7252     7.2252
   3441.8000     6.3371     7.1050     6.6276
   3441.9000     5.9361     6.6390     6.1564
   3442.0000     5.6567     6.3169     5.7860
   3442.1000     5.4107     6.0887     5.4408
   3442.2000     5.1506     5.7583     5.1349
   3442.3000     4.9656     5.3827     4.9029
   3442.4000     4.7979     5.0020     4.7373
   3442.5000     4.7256     4.9280     4.7721
   3442.6000     4.9023     5.2566     5.1341
   3442.7000     5.2315     5.7459     5.7037
   3442.8000     5.5418     6.2335     6.2688
   3442.9000     5.7276     6.3762     6.5947
   3443.0000     5.8680     6.4492     6.8298
   3443.1000     6.0413     6.5784     7.0877
   3443.2000     6.1270     6.6181     7.2146
   3443.3000     6.0122     6.4574     7.0534
   3443.4000     5.8228     6.2516     6.8176
   3443.5000     5.7435     6.2309     6.7141
   3443.6000     5.8078     6.3489     6.7575
   3443.7000     5.9089     6.4598     6.7960
   3443.8000     5.8372     6.2536     6.5513
   3443.9000     5.5966     5.8704     6.0972
   3444.0000     5.3270     5.5513     5.6235
   3444.1000     5.2036     5.3904     5.3139
   3444.2000     5.2667     5.4001     5.2505
   3444.3000     5.4966     5.5976     5.4199
   3444.4000     5.8972     5.9669     5.8061
   3444.5000     6.3624     6.4177     6.2782
   3444.6000     6.7945     6.8590     6.6812
   3444.7000     7.2011     7.2064     7.0968
   3444.8000     7.8238     7.6133     7.8939
   3444.9000     9.0574     8.5892     9.6398
   3445.0000    10.2501     9.7739    11.5373
   3445.1000    11.0858    11.1785    13.0303
   3445.2000    10.4132    11.3945    12.0337
   3445.3000     9.0833    10.0739    10.0633
   3445.4000     7.7986     8.4904     8.3199
   3445.5000     6.8959     7.4298     7.1521
   3445.6000     6.4310     6.8181     6.5711
   3445.7000     6.2384     6.4018     6.2175
   3445.8000     6.1617     5.9866     5.9694
   3445.9000     6.3187     6.0680     5.9825
   3446.0000     6.7081     6.9217     6.2337
   3446.1000     7.2873     8.0576     6.6685
   3446.2000     7.9518     8.5632     7.2981
   3446.3000     7.8432     7.9788     7.6011
   3446.4000     7.4911     7.3474     7.8995
   3446.5000     6.8319     6.9968     7.7314
   3446.6000     6.3125     6.6712     7.3782
   3446.7000     5.9089     6.4297     7.0495
   3446.8000     5.5613     6.3266     6.7760
   3446.9000     5.1572     6.2399     6.3620
   3447.0000     4.8334     5.9863     5.9162
   3447.1000     4.5128     5.4924     5.4819
   3447.2000     4.2230     4.9175     5.1201
   3447.3000     3.9916     4.5794     4.9211
   3447.4000     3.7445     4.4666     4.7787
   3447.5000     3.4768     4.4254     4.6367
   3447.6000     3.2517     4.3986     4.5806
   3447.7000     3.1360     4.3019     4.5970
   3447.8000     3.0815     4.2541     4.6861
   3447.9000     3.2491     4.2955     4.9927
   3448.0000     3.6872     4.4778     5.5765
   3448.1000     4.3542     4.8534     6.3840
   3448.2000     5.0886     5.2607     7.2055
   3448.3000     5.4061     5.5436     7.4428
   3448.4000     5.2958     5.7101     7.1405
   3448.5000     5.2576     5.8520     6.8227
   3448.6000     5.6259     6.0627     6.9413
   3448.7000     5.9297     6.3756     6.9831
   3448.8000     6.1950     6.7873     7.0660
   3448.9000     6.0965     6.8993     6.8983
   3449.0000     5.8586     6.5844     6.6131
   3449.1000     5.5695     5.9041     6.3231
   3449.2000     5.1347     5.3916     5.8655
   3449.3000     4.7766     5.1426     5.4651
   3449.4000     4.5250     5.0120     5.2363
   3449.5000     4.3964     4.9639     5.0995
   3449.6000     4.4221     5.0349     5.0824
   3449.7000     4.6564     5.3174     5.2432
   3449.8000     5.0385     5.7935     5.5811
   3449.9000     5.3854     6.1886     6.0066
   3450.0000     5.7614     6.5946     6.5141
   3450.1000     6.2124     6.8598     7.0583
   3450.2000     6.6039     6.9967     7.5038
   3450.3000     6.9915     7.2192     7.9071
   3450.4000     7.4279     7.6495     8.4196
   3450.5000     7.9179     8.2453     9.0635
   3450.6000     8.4909     9.1069     9.8780
   3450.7000     9.3652    10.2523    11.1462
   3450.8000    10.1286    11.7232    12.0451
   3450.9000    10.2736    12.2364    11.5331
   3451.0000     9.9990    11.2326    10.3809
   3451.1000     9.6627     9.7814     9.5462
