~Version Information
 VERS.                  2.0:   CWLS log ASCII Standard -VERSION 2.0
 WRAP.                   NO:   One line per depth step
~Well Information Block
#MNEM.UNIT     VALUE/NAME     DESCRIPTION
#---------     -----------    ---------------------------
 STRT.M              2355.0000: START DEPTH
 STOP.M              3523.6000: STOP DEPTH
 STEP.M                 0.1000: STEP DEPTH
 NULL.               -999.2500: NULL VALUE
 XYGR.     Australia/New Zealand Coordinate Systems:  XYGROUP
 LLGR.      Latitude/Longitude:  LLGROUP
 CREF.     Datum Geocentric Datum of Austra:  CART REFERENCE
 GREF.     Ellipsoid World Geodetic System :  GEO REFERENCE
 CGSY.             SS GDA94-50:  CART GRID SYS
 GGSY.                      LL:  GEO GRID SYS
 CCDE.     UTM Zone 50S on Geocentric Datum of Australia 1994, Meters:  CART COORD DESC
 GCDE.     Generic Lat/Long's, Degrees, -180 ==> +180:  GEO COORD DESC
 UWI .                 W006107:  UNIQUE WELL IDENTIFIER
 API .                 W006107:  API NUMBER
 UNIT.                11741669:  LOGGING EQUIPMENT ID
 DCON.        Sperry Drilling :  DIRECTNL CONTR
 RIG .              Ensign 970:  RIG NAME
 MWDS.                Jandakot:  MWD SHOP
 SRVC.     Ensign Energy Services:  CONTRACTOR
 FLD .               Walyering:  FIELD NAME
 CTRY.               Australia:  COUNTRY NAME
 PROV.       Western Australia:  PROVINCE
 STAT.       Western Australia:  STATE NAME
 REGN.            Asia Pacific:  REGION
 BASE.                   Perth:  LOGGING EQUIPMENT BASE LOCATION
 WTYP.                Vertical:  WELL TYPE
 PDAT.          Mean Sea Level:  PERMANENT DATUM
 MDS .              Win MagUTM:  MAG DATA SOURCE
 MMDD.          22 April, 2022:  MAG DATA DATE
 MMDL.            bggm2021.dat:  MAGNETIC MODEL
 SON .        PA-XX-0907756569:  JOB NUMBER
 COMP.     Strike South West Pty Ltd:  COMPANY
 WELL.             Walyering 6:  WELL NAME
 FTOP.          Formation Tops:  FORM TOPS DESC
 ILTD.               Lithology:  INTERP LTH DESC
 SVYD.                  Survey:  SURVEY DESC
 DMOD.             Drill Model:  DRILL MOD DESC
 HPTY.       Minimum Curvature:  HOLE POS TYPE
 NREF.                    Grid:  NORTH REFERENCE
 SPUD.               25-Apr-22:  SPUD DATE
 DATE.      12.00.00 13-May-22:  END TIME
 STIM.      17.00.00 24-Apr-22:  START TIME
 DMF .             Drill Floor:  DRILL MEAS FROM
 DFST.                        :  DIST FSL TEXT
 DFWT.                        :  DIST FWL TEXT
 CNTY.                        :  COUNTY
 LOC .                        :  LOCATION
 LMF .             Drill Floor:  LOG MEASURED FROM
 CMER.deg           117.000000:  CENTRL MERIDIAN
 DEP .m               0.000000:  DEPTH
 AGAP.m               7.160000:  AIR GAP
 MMDE.m             -31.623000:  MAGUTM CALC DEP
 APD .m               7.160000:  DEPTH ABOVE PD
 WDMS.m               0.000000:  WD ELEV
 EGL .m              96.589993:  GROUND ELEVATION
 EPD .m              96.589993:  ELEVATION
 AZTC.deg            -2.153514:  AZM TOTAL CORR
 GRDC.deg             0.779280:  GRID CORRECTION
 MDEC.deg            -1.374234:  MAGNETIC DECL
 MDIP.deg           -64.762985:  MAGNETIC DIP
 MFLD.nT          57671.410156:  MAGNETIC FIELD
 GVFD.g               1.000000:  GRAVITY FIELD
 VSDR.deg             0.000000:  VERT SEC DIRECT
 TDD .m            3551.000070:  TOTAL DEPTH (DRILLER)
 SDEP.m              74.999999:  START DEPTH
 DFSL.m               0.000000:  DISTANCE FSL
 DFWL.m               0.000000:  DISTANCE FWL
 UTMY.m         6601158.480000:  UTM Y
 UTMX.m          353924.590000:  UTM X
 WHEW.m               0.000000:  WELL HEAD E/W
 WHNS.m               0.000000:  WELL HEAD N/S
 LONG.deg           115.474500:  LONGITUDE
 LATI.deg           -30.713472:  LATITUDE
 TVDS.m             103.749993:  TVDSS CORRECTN
 EKB .m             103.750002:  KB ELEVATION
 EDF .m             103.750002:  DF ELEVATION
 TDL .m            1189.000020:  TOTAL DEPTH (LOGGER)
 CSGD.m            2359.000046:  CASING BOTTOM (DRILLER)
 CSGL.m            2359.000046:  CASING BOTTOM (LOGGER)
 CSGS.mm            244.474994:  CASING SIZE
 CSGW.kgpm           69.942862:  CASING WEIGHT
 MAGU.                 1391237:  MAGUTM CHECKSUM
 VSC .                       1:  VS TO CLOSURE
~Parameter Information Block
#MNEM.UNIT       Value        Description
#---------     -----------    ---------------------------
 AV  .mps             2.550000:  Ann Velocity 
 AVMX.mps             2.933333:  Max Ann Veloc 
 AZIF.deg             4.250000:  Azm, Final 
 BHAT.               Mud Motor:  BHA Type 
 BREV.krev         1163.365845:  Rev Bit Total 
 BROT.°/30m           0.050000:  Build Rotating 
 BS  .mm            215.899994:  Bit Size 
 BSZ .mm            215.899994:  Bit Size 
 BTPL.kPag         3033.715332:  Bit Press Loss 
 CABU.                      No:  Customer Abuse 
 CGEO.             Dan Walding:  Customer Geo 
 COMM.                     ì¿q:  Run Comments 1 
 TCS .hr            105.300003:  Time Ciculation Ended 
 CV  .mps             4.283333:  Crit Velocity 
 CVMX.mps             4.600000:  Max Crit Veloc 
 DD1 .     Christian Arrindell:  Direct Drillr 1 
 DD2 .            Ivan Tutynin:  Direct Drillr 2 
 DDSV.               Mud Motor:  DD Service 
 DEFF.%              95.000000:  % Det Eff 
 DLRX.°/30m           1.280000:  Dogleg Rot Max 
 DLSO.°/30m           1.400000:  Dogleg Oriented 
 DLSX.°/30m           2.000000:  Dogleg Str Max 
 DRET.      00.30.00 12-May-22:  Drill End Time 
 DRST.      19.30.00 07-May-22:  Drill Start Tim 
 DTIM.hr             80.400002:  Time Drilling 
 EDEP.m            3551.000000:  End Depth 
 ENG1.            Ade Suhendar:  Engineer 1 
 ENG2.        Yiek Chong Leong:  Engineer 2 
 ENG3.           Sufyan Zainal:  Engineer 3 
 ETIM.      23.45.00 12-May-22:  End Time 
 FLOI.m3pm            2.035733:  Flow In 
 FLON.m3pm            1.324854:  Flow In Min 
 FLOS.mptm            4.000000:  Fluid Loss 
 FLOX.m3pm            2.119767:  Flow In Max 
 DFT .                 Polymer:  Mud Type 
 FTRO.       Formation Presure:  FTWD Run Obj 
 HFLO.                      No:  High Flow 
 HPRE.                      No:  High Pressure 
 HTEM.                      No:  High Temp 
 HYDO.m               2.500000:  Hydro Offset 
 IFIN.deg             1.860000:  Inc, Final 
 IMAX.deg             5.744654:  Inc Max 
 IMIN.deg             0.433048:  Inc Min 
 IMND.m            2565.059814:  Inc Min Depth 
 IMXD.m            2364.389893:  Inc Max Depth 
 JARR.                      No:  Jarring 
 LETM.      00.30.00 12-May-22:  Log End Time 
 LOST.hr                     0:  Lost Rig Time 
 LSTM.      19.30.00 07-May-22:  Log Start Time 
 MDCL.ppm         79803.000000:  Mud Chlorides 
 MDES.             Fresh Water:  Mud Desc 
 DFD .kg/m3        1138.351074:  Mud Density 
 MDMN.kg/m3        1114.385986:  Dens Mud Min 
 MDMX.kg/m3        1150.333862:  Dens Mud Max 
 PH  .pH             10.100000:  Mud pH 
 MOIL.                       0:  Run Mud Oil % 
 MOWR.                   0 100:  Run Mud OWR 
 MSND.                     0.2:  Run Mud Sand % 
 MSOL.                     4.6:  Run Mud Solids% 
 MTV .                GeoForce:  Motor Variant 
 DFV .spl            82.445999:  Mud Viscosity 
 MWOD.mm            171.449997:  MWD Tool OD 
 MWSI.                      No:  Serv Intrp, MWD 
 OTIM.hr            146.500000:  Time Operating 
 PCON.          Wear / Scratch:  Pad Condition 
 PMAX.kPag        35887.472656:  Press Op, Max 
 PV  .mPsec          40.000000:  Mud PV 
 RMS .ohmm            0.606000:  Mud Resistivity 
 RMCS.ohmm            0.076000:  Mud Cake Resistivity 
 MCST.degC           19.830000:  Mud Cake Sample Temperature 
 RMFS.ohmm            0.050000:  Mud Filtrate Resistivity 
 RMFT.degC           21.499998:  Mud Filtrate Sample Temperature 
 RMMT.ohmm            0.266500:  Rm @ Max Temp 
 MST .degC           21.000002:  Mud Sample Temperature 
 RUN .                     300:  Run Number 
 ROPA.m/hr           14.790000:  ROP Avg 
 ROPN.m/hr            1.870000:  ROP Min 
 ROPX.m/hr           32.700001:  ROP Max 
 RPMA.rpm            52.500000:  RPM Surface Avg 
 RPMN.rpm            30.000000:  RPM Surface Min 
 RPMX.rpm            60.000000:  RPM Surface Max 
 RRUN.                       3:  Rig Run Number 
 RTIM.hr              8.510000:  Time Reaming 
 SAZI.deg           199.820007:  Azm, Start 
 SDEP.m            2362.000000:  Start Depth 
 SIDD.                      No:  Serv Intrp, DD 
 SINC.deg             5.740000:  Inc, Start 
 SPPA.kPag        17754.474609:  SPP Avg 
 SPPN.kPag        10893.795898:  SPP Min 
 SPPX.kPag        22063.382813:  SPP Max 
 STIM.      21.15.00 06-May-22:  Start Time 
 SVCS.                 DD, MWD:  Services 
 SVER.                9.200000:  Sperry Version 
 TDAT.m            1189.000000:  Tot Depth Attmp 
 TDDF.                      No:  Trip for DD 
 TDLG.m            1189.000000:  Tot Depth Loggd 
 TFF .                      No:  Trip for Fail 
 TQAA.kN-m            0.013558:  Torque Abs Avg 
 TQAN.kN-m            0.004067:  Torque Abs Min 
 TQAX.kN-m            0.024405:  Torque Abs Max 
 TRRT.°/30m           0.860000:  Turn Rotating 
 MRT .                  EWR-P4:  Maximum Recorded Temperature 
 TTMX.degC           75.199997:  Max Tool Temp 
 VS01.                12278995:  Virtual Str1 SN 
 VS02.                12394165:  Virtual Str2 SN 
 VS03.                13686255:  Virtual Str3 SN 
 VS04.                90681167:  Virtual Str4 SN 
 VS05.                90683981:  Virtual Str5 SN 
 VS06.                90683974:  Virtual Str6 SN 
 VS07.                90683978:  Virtual Str7 SN 
 VS08.                90683983:  Virtual Str8 SN 
 VS09.                13531224:  Virtual Str9 SN 
 WBMN.kdN             2.668932:  WOB Min 
 WITN.          Peter Clarkson:  Customer Rep 2 
 WITN.        Shaughan Corless:  Customer Rep 
 WOBA.kdN             7.045982:  WOB Avg 
 WOBX.kdN            10.675730:  WOB Max 
 YP  .pa             14.364045:  Yield Point 
~Curve Information Block
#MNEM.UNIT                 API CODE     Curve Description
#---------               -----------    ---------------------------
 DEPT.M                 00 000 000 000:  Depth
 AFRSAC.ohmm            00 000 000 000:  AFR Shallow Avg Res BC
 AFRMAC.ohmm            00 000 000 000:  AFR Medium Avg Res BC
 AFRDAC.ohmm            00 000 000 000:  AFR Deep Avg Res BC
#Other Information
#
#WARRANTY: Halliburton will use its best efforts to furnish customers with 
#accurate information and interpretations that are part of, and incident to, the services 
#provided.  However, Halliburton cannot and does not warrant the accuracy 
#or correctness of such information and interpretations.  Under no circumstances should any 
#such information or interpretation be relied upon as the sole basis for any drilling, 
#completion, production, or financial decision or any procedure involving any risk to the 
#safety of any drilling venture, drilling rig or its crew or any other third party.  The 
#Customer has full responsibility for all drilling, completion and production operation.  
#Halliburton makes no representations or warranties, either expressed or 
#implied, including, but not limited to, the implied warranties of merchantability or fitness 
#for a particular purpose, with respect to the services rendered.  In no event will 
#Halliburton be liable for failure to obtain any particular results or for 
#any damages, including, but not limited to, indirect, special or consequential damages, 
#resulting from the use of any information or interpretation provided by Halliburton.
#
~A   DEPT      AFRSAC     AFRMAC     AFRDAC   
# ...
   3503.4000     9.5507     9.4777     9.1921
   3503.5000     8.4463     8.2319     7.8385
   3503.6000     7.3174     7.2076     6.6620
   3503.7000     6.3755     6.4828     5.7772
   3503.8000     6.0643     6.4276     5.5315
   3503.9000     6.3415     6.8439     5.9018
   3504.0000     6.9424     7.5377     6.7448
   3504.1000     7.2836     7.8421     7.4501
   3504.2000     7.4288     8.0748     8.0688
   3504.3000     7.9263     8.5926     9.0553
   3504.4000     9.0544     9.3491    10.7654
   3504.5000    10.3823    10.4747    12.6808
   3504.6000    11.3637    11.6011    13.9605
   3504.7000    11.2672    12.0400    13.5735
   3504.8000    10.5910    11.3828    12.3775
   3504.9000    10.0003    10.3471    11.3794
   3505.0000     9.5224     9.5110    10.4919
   3505.1000     9.4138     9.0639    10.0388
   3505.2000     9.6035     9.0208     9.9995
   3505.3000    10.2873     9.6674    10.6784
   3505.4000    11.3446    10.9187    12.0160
   3505.5000    12.6809    12.5910    13.8375
   3505.6000    13.3405    13.5877    14.8176
   3505.7000    13.0456    13.0956    14.3425
   3505.8000    11.9876    11.7361    12.6566
   3505.9000    10.3480     9.4766    10.2774
   3506.0000     8.9886     7.7799     8.5718
   3506.1000     8.4640     7.0697     7.9708
   3506.2000     8.7365     7.3165     8.3549
   3506.3000     9.8325     8.5325     9.7776
   3506.4000    10.9315    11.0537    11.4195
   3506.5000    12.0341    13.2473    12.9481
   3506.6000    12.9226    14.9908    13.8895
   3506.7000    13.3873    15.2312    14.0416
   3506.8000    13.6147    16.1982    14.0107
   3506.9000    13.7723    16.9852    14.0396
   3507.0000    13.9360    16.6363    14.2001
   3507.1000    13.8551    14.8790    14.5116
   3507.2000    13.4856    13.0172    13.8157
   3507.3000    12.5643    12.1581    12.3875
   3507.4000    11.6786    11.5646    10.8580
   3507.5000    10.7191    10.8907     9.6924
   3507.6000    10.2056    10.1298     9.2419
   3507.7000    10.1329     9.8258     9.2711
   3507.8000    10.3264    10.9248     9.6263
   3507.9000    10.6255    13.9077    10.1833
   3508.0000    12.0068    16.5924    12.0772
   3508.1000    14.7911    15.9239    15.8329
   3508.2000    15.6732    12.0910    17.7455
   3508.3000    13.2811     9.6566    15.0829
   3508.4000     9.8713     8.6335    10.8464
   3508.5000     7.5870     8.1057     8.1764
   3508.6000     6.6802     7.4371     7.1582
   3508.7000     6.4428     6.6496     6.9202
   3508.8000     6.3693     6.2626     6.8806
   3508.9000     6.4858     6.4774     7.1247
   3509.0000     6.4532     6.8935     7.3289
   3509.1000     6.5322     7.4544     7.6729
   3509.2000     6.6058     7.6809     7.9672
   3509.3000     6.7195     7.8356     8.2464
   3509.4000     6.9139     8.0341     8.6008
   3509.5000     6.9822     7.9789     8.7790
   3509.6000     6.8857     7.7545     8.6713
   3509.7000     6.4265     7.2434     8.0252
   3509.8000     5.9030     6.5192     7.3048
   3509.9000     5.6830     6.2886     7.0185
   3510.0000     5.8222     6.5392     7.2486
   3510.1000     6.1890     7.1310     7.7882
   3510.2000     6.4676     7.5418     8.1912
   3510.3000     6.6694     7.1809     8.3412
   3510.4000     7.0593     6.8468     8.4407
   3510.5000     7.4256     7.1186     8.5953
   3510.6000     7.9228     7.9570     9.1061
   3510.7000     7.9810     9.0012     9.3746
   3510.8000     8.2754     9.2760     9.5969
   3510.9000     8.6789     9.4377     9.6440
   3511.0000     9.7641    10.6499    10.1183
   3511.1000    11.0692    12.0353    10.7202
   3511.2000    12.2738    14.5621    11.5505
   3511.3000    13.7216    17.5633    12.1686
   3511.4000    15.0793    20.6163    13.3719
   3511.5000    17.8292    22.8615    15.5474
   3511.6000    20.4036    21.4599    17.6489
   3511.7000    20.8040    18.5705    18.1360
   3511.8000    22.7372    18.5030    19.9321
   3511.9000    24.8192    19.7972    21.6312
   3512.0000    29.0382    24.3178    25.8060
   3512.1000    35.3669    34.0412    32.3469
   3512.2000    45.3077    50.3113    43.6156
   3512.3000    68.8705    78.7535    72.9622
   3512.4000    95.3848   111.5718   101.8009
   3512.5000   100.7762   109.8938   102.3572
   3512.6000    69.0547    67.8184    65.7375
   3512.7000    58.8284    58.8388    57.7060
   3512.8000    67.4419    70.4699    71.1194
   3512.9000    90.5841   103.5990   110.2782
   3513.0000   114.8002   122.5809   142.3582
   3513.1000   102.1068   106.5482   124.8421
   3513.2000    92.4868    98.6501   115.1837
   3513.3000    86.8752    98.9353   110.2136
   3513.4000    74.1174    85.1335    92.9439
   3513.5000    65.1466    74.6125    81.2927
   3513.6000    61.5918    71.3969    77.6725
   3513.7000    60.1864    72.0678    78.0500
   3513.8000    59.5373    74.3109    79.8704
   3513.9000    58.9456    75.6794    81.2844
   3514.0000    58.7840    75.6718    82.5506
   3514.1000    58.5220    74.0910    82.9006
   3514.2000    57.9183    71.7620    82.4322
   3514.3000    56.7889    70.2160    81.2422
   3514.4000    55.7279    69.0059    79.5371
   3514.5000    55.2581    68.2490    77.8050
   3514.6000    55.4752    68.2643    76.7232
   3514.7000    55.0072    68.5066    75.7707
   3514.8000    53.6514    68.5396    75.6694
   3514.9000    52.3179    68.0435    76.2602
   3515.0000    52.1732    68.3667    77.9860
   3515.1000    53.4904    70.6044    81.0944
   3515.2000    56.5292    74.1195    85.4738
   3515.3000    60.8204    76.9246    91.8007
   3515.4000    65.7995    81.0871   100.1431
   3515.5000    72.2171    87.1767   111.7956
   3515.6000    83.0510   101.5427   127.9249
   3515.7000    99.0088   121.9290   140.7600
   3515.8000    97.3931    86.2628   101.4175
   3515.9000    73.3120    34.7877    51.6928
   3516.0000    38.8533    19.6490    29.1032
   3516.1000    20.7661    14.5784    19.2159
   3516.2000    13.6901    13.2880    15.0685
   3516.3000    10.4254    12.9303    12.6942
   3516.4000     9.4580    12.5203    11.6588
   3516.5000     9.0949    12.2342    11.1347
   3516.6000     8.7785    11.4835    10.4693
   3516.7000     8.5012    10.2360     9.8917
   3516.8000     8.4296     9.4137     9.6812
   3516.9000     8.8211     9.4162    10.2822
   3517.0000    10.1848    11.1673    12.5336
   3517.1000    12.9743    16.3114    17.4872
   3517.2000    17.9190    28.6167    27.4331
   3517.3000    24.2668    50.5614    42.8819
   3517.4000    30.0338    60.2137    58.5721
   3517.5000    30.3807    39.6170    58.8757
   3517.6000    25.6200    23.1948    42.8038
   3517.7000    21.0907    16.4149    28.1159
   3517.8000    17.6862    14.3464    20.7853
   3517.9000    16.5559    14.7959    17.9870
   3518.0000    15.5006    15.9039    16.2419
   3518.1000    13.4689    16.0594    13.5907
   3518.2000    12.0503    14.7598    11.7358
   3518.3000    12.1135    14.3910    11.4393
   3518.4000    13.6749    16.3439    12.6883
   3518.5000    16.3659    20.1767    15.1925
   3518.6000    21.6464    28.5187    21.0556
   3518.7000    31.0072    34.8417    33.2379
   3518.8000    48.2070    43.5150    56.5045
   3518.9000    51.0786    45.1237    57.0804
   3519.0000    35.2034    30.7417    35.0662
   3519.1000    22.8730    20.5644    20.5792
   3519.2000    17.5733    15.7768    14.8511
   3519.3000    16.1941    14.2609    13.3331
   3519.4000    17.5708    15.5744    14.8202
   3519.5000    22.9611    22.0104    21.4920
   3519.6000    33.8858    37.8009    37.2869
   3519.7000    50.1941    67.5770    63.8987
   3519.8000    54.2012    77.5462    69.3119
   3519.9000    43.3589    52.7707    50.4424
   3520.0000    30.7860    32.2566    32.8646
   3520.1000    24.6100    23.2247    25.1935
   3520.2000    21.5723    19.3087    22.0890
   3520.3000    19.0489    18.0954    20.3904
   3520.4000    19.2222    19.7948    21.9196
   3520.5000    18.9405    21.5529    23.0146
   3520.6000    17.9704    22.0347    22.7819
   3520.7000    15.2200    18.6709    18.9124
