~Version Information
 VERS.                  2.0:   CWLS log ASCII Standard -VERSION 2.0
 WRAP.                   NO:   One line per depth step
~Well Information Block
#MNEM.UNIT     VALUE/NAME     DESCRIPTION
#---------     -----------    ---------------------------
 STRT.M              2900.0000: START DEPTH
 STOP.M              3434.8000: STOP DEPTH
 STEP.M                 0.1000: STEP DEPTH
 NULL.               -999.2500: NULL VALUE
 UWI .                 W006102:  UNIQUE WELL IDENTIFIER
 API .                 W006102:  API NUMBER
 DFWT.                        :  DIST FWL TEXT
 DFST.                        :  DIST FSL TEXT
 DMF .             Drill Floor:  DRILL MEAS FROM
 STIM.      12.00.00 12-Nov-21:  START TIME
 DATE.      08.19.12 13-Dec-21:  END TIME
 SPUD.               14-Nov-21:  SPUD DATE
 NREF.                    Grid:  NORTH REFERENCE
 HPTY.       Minimum Curvature:  HOLE POS TYPE
 DMOD.             Drill Model:  DRILL MOD DESC
 SVYD.                  Survey:  SURVEY DESC
 ILTD.               Lithology:  INTERP LTH DESC
 FTOP.          Formation Tops:  FORM TOPS DESC
 WELL.             Walyering 5:  WELL NAME
 COMP.     Strike South West Pty Ltd:  COMPANY
 SON .        PA-XX-0907373664:  JOB NUMBER
 GCDE.     Generic Lat/Long's, Degrees, -180 ==> +180:  GEO COORD DESC
 CCDE.     UTM Zone 50S on Geocentric Datum of Australia 1994, Meters:  CART COORD DESC
 GGSY.                      LL:  GEO GRID SYS
 CGSY.             SS GDA94-50:  CART GRID SYS
 GREF.     Ellipsoid World Geodetic System :  GEO REFERENCE
 CREF.     Datum Geocentric Datum of Austra:  CART REFERENCE
 MMDL.            bggm2021.dat:  MAGNETIC MODEL
 MMDD.       10 November, 2021:  MAG DATA DATE
 MDS .              Win MagUTM:  MAG DATA SOURCE
 LLGR.      Latitude/Longitude:  LLGROUP
 XYGR.     Australia/New Zealand Coordinate Systems:  XYGROUP
 WTYP.                Deviated:  WELL TYPE
 PDAT.          Mean Sea Level:  PERMANENT DATUM
 BASE.                   Perth:  LOGGING EQUIPMENT BASE LOCATION
 REGN.            Asia Pacific:  REGION
 CTRY.               Australia:  COUNTRY NAME
 FLD .             Perth Basin:  FIELD NAME
 SRVC.     Ensign Energy Services:  CONTRACTOR
 MWDS.                Jandakot:  MWD SHOP
 RIG .              Ensign 970:  RIG NAME
 DCON.         Sperry Drilling:  DIRECTNL CONTR
 UNIT.                11741669:  LOGGING EQUIPMENT ID
 CNTY.                        :  COUNTY
 PROV.                        :  PROVINCE
 STAT.                        :  STATE
 LOC .                        :  LOCATION
 DEP .m               0.000000:  DEPTH
 TVDS.m             101.180001:  TVDSS CORRECTN
 LATI.deg           -30.730083:  LATITUDE
 LONG.deg           115.478781:  LONGITUDE
 WHNS.m               0.000000:  WELL HEAD N/S
 WHEW.m               0.000000:  WELL HEAD E/W
 UTMX.m          354359.500000:  UTM X
 UTMY.m         6599322.900000:  UTM Y
 DFWL.m               0.000000:  DISTANCE FWL
 DFSL.m               0.000000:  DISTANCE FSL
 SDEP.m              73.999999:  START DEPTH
 TDD .m            3434.999857:  TOTAL DEPTH (DRILLER)
 VSDR.deg           243.910004:  VERT SEC DIRECT
 GVFD.g               1.000000:  GRAVITY FIELD
 MFLD.nT          57661.890625:  MAGNETIC FIELD
 MDIP.deg           -64.786583:  MAGNETIC DIP
 MDEC.deg            -1.367809:  MAGNETIC DECL
 GRDC.deg             0.777471:  GRID CORRECTION
 AZTC.deg            -2.145280:  AZM TOTAL CORR
 EPD .m              94.030000:  ELEVATION
 EGL .m              94.030000:  GROUND ELEVATION
 WDMS.m               0.000000:  WD ELEV
 APD .m               7.150000:  DEPTH ABOVE PD
 MMDE.m             -30.842712:  MAGUTM CALC DEP
 CMER.deg           117.000000:  CENTRL MERIDIAN
 AGAP.m               7.150000:  AIR GAP
 VSC .                       0:  VS TO CLOSURE
 MAGU.                 1390910:  MAGUTM CHECKSUM
~Curve Information Block
#MNEM.UNIT                 API CODE     Curve Description
#---------               -----------    ---------------------------
 DEPT.M                 00 000 000 000:  Depth
 ALPELC.                00 000 000 000:  ALD LCRB Pe Factor
 XBCS.uspf              00 000 000 000:  XBAT Comp Slowness
 RSPD.m/hr              00 000 000 000:  Running Speed
 PGRC.api               00 000 000 000:  PCG Gamma Ray BCorr
 XBEDX.in               00 000 000 000:  XCAL Eqv Hole Size Cor
 AFRSAC.ohmm             00 000 000 000:  AFR Shall Resistivity BC
 AFRMAC.ohmm             00 000 000 000:  AFR Medium Resistivity BC
 AFRDAC.ohmm             00 000 000 000:  AFR Deep Resistivity BC
 ALCDLC.g/cc            00 000 000 000:  ALD LCRB Comp Density
 TNPL.pu                00 000 000 000:  CTN Porosity Limestone
 ALDCLC.g/cc            00 000 000 000:  ALD LCRB Den Correction
 R09PC.ohmm             00 000 000 000:  9in Phase Resistivity BC
 R15PC.ohmm             00 000 000 000:  15in Phase Resistivity BC
 R27PC.ohmm             00 000 000 000:  27in Phase Resistivity BC
 R39PC.ohmm             00 000 000 000:  39in Phase Resistivity BC
 R09AC.ohmm             00 000 000 000:  9in Atten Resistivity BC
 R15AC.ohmm             00 000 000 000:  15in Atten Resistivity BC
 R27AC.ohmm             00 000 000 000:  27in Atten Resistivity BC
 R39AC.ohmm             00 000 000 000:  39in Atten Resistivity BC
 TVD .m                 00 000 000 000:  True Vertical Depth
#Other Information
#
#WARRANTY: Halliburton will use its best efforts to furnish customers with 
#accurate information and interpretations that are part of, and incident to, the services 
#provided.  However, Halliburton cannot and does not warrant the accuracy 
#or correctness of such information and interpretations.  Under no circumstances should any 
#such information or interpretation be relied upon as the sole basis for any drilling, 
#completion, production, or financial decision or any procedure involving any risk to the 
#safety of any drilling venture, drilling rig or its crew or any other third party.  The 
#Customer has full responsibility for all drilling, completion and production operation.  
#Halliburton makes no representations or warranties, either expressed or 
#implied, including, but not limited to, the implied warranties of merchantability or fitness 
#for a particular purpose, with respect to the services rendered.  In no event will 
#Halliburton be liable for failure to obtain any particular results or for 
#any damages, including, but not limited to, indirect, special or consequential damages, 
#resulting from the use of any information or interpretation provided by Halliburton.
#
~A   DEPT     ALPELC     XBCS      RSPD      PGRC      XBEDX     AFRSAC     AFRMAC     AFRDAC    ALCDLC     TNPL     ALDCLC     R09PC     R15PC     R27PC     R39PC     R09AC     R15AC     R27AC     R39AC      TVD    
# ...
   3131.8000    4.5653   76.4716   22.3164 -999.2500    9.1863    1.0013    8.2084   10.1870    2.5659   30.5951    0.0217    2.8080    6.0114    3.6357   26.9296    1.9969    2.8375   19.4354  199.5482 3104.7925
   3131.9000    3.7390   74.5752   23.3500 -999.2500    9.1863    1.4927    8.8515   10.6868    2.6027   26.0682    0.0435    2.5443    3.8568    3.7809    7.7369    2.2020    3.1166    4.2599  111.0958 3104.8901
   3132.0000    3.2330   72.7955   27.5411 -999.2500    9.6100    2.1124    8.6193    9.9481    2.6034   25.4225    0.0614    2.7426    4.6211    5.7173    5.8913    2.5845    6.0016    6.9935   37.0872 3104.9907
   3132.1000    3.1670   69.7692   27.5582 -999.2500    9.6100    2.4579    7.6370    8.5899    2.5395   25.5803    0.0535    3.6830    7.5077    9.6229    8.3472    3.6508   11.6015   10.0432   57.1978 3105.0776
   3132.2000    3.4787   69.3187   28.7045 -999.2500    9.6100    2.9482    8.5177    9.5715    2.5066   25.0417    0.0054    4.5339   12.0050   13.5136   12.7189    4.0558   17.0462   10.2595   15.8448 3105.1804
   3132.3000    3.8732   69.1024   27.2033 -999.2500    9.1887    3.8067   11.1006   12.6303    2.5324   23.4874    0.0095    6.6020   28.6831   27.8623   28.5016    4.4459   35.9721   14.5505    8.2592 3105.2666
   3132.4000    3.8279   68.9025   27.2379 -999.2500    9.1887    5.5151   20.9402   23.2456    2.5758   22.1720    0.0173    7.6042   20.6024   20.5243   20.2818    7.2831   54.7595   19.5989    8.4562 3105.3638
   3132.5000    3.4188   68.6054   24.9805 -999.2500    9.1887    8.8423   40.3386   44.5247    2.6089   20.5437    0.0327    7.6708   14.3258   15.4331   13.8968    8.4934   44.9485   20.7117    9.3741 3105.4653
   3132.6000    3.1309   66.4071   11.6643 -999.2500    8.7045   10.3747   31.8041   37.5864    2.6181   20.9034    0.0648    6.6196   12.9974   14.4013   12.8051    7.0232   18.6652   17.0444    9.8855 3105.5510
   3132.7000    3.4324   64.6132   24.6303 -999.2500    8.7045    9.0132   18.3561   20.9211    2.6089   21.4311    0.0633    5.3353   10.6162   12.3573   11.8884    4.4418   10.6528   12.4174   10.5041 3105.6545
   3132.8000    3.8363   64.3642   27.2196 -999.2500    8.7045    7.8957   14.3282   13.6740    2.5487   22.8232    0.0319    8.5658   18.4575   26.0655   21.8614    5.5582   29.2808   19.0783   14.1357 3105.7407
   3132.9000    3.3279   64.1969   27.2393 -999.2500    9.4062    8.8224   22.4862   19.5303    2.5604   22.9808    0.0229    9.1313   17.1554   23.0825   22.0989    6.9777  158.7483   30.7461   15.5892 3105.8379
   3133.0000    2.9934   63.9903   28.2822 -999.2500    9.4062    8.8554   38.1294   34.2479    2.5966   21.8464    0.0417    6.1333   11.4681   14.1120   13.8781    5.9139   71.2843   21.4291   14.6132 3105.9397
   3133.1000    3.1645   64.9735   27.0647 -999.2500    9.4062    8.3058   49.0929   45.8335    2.6065   19.0761    0.0651    5.7700   11.2272   13.6715   16.6169    5.0044   10.8880   14.6330   14.4798 3106.0251
   3133.2000    2.7800   65.7917   28.7168 -999.2500    9.3299    7.3047   41.3174   38.9255    2.5481   19.4692    0.0268    8.9301   35.6270   54.0400   29.3178    5.1276   52.8811   56.3248   17.8159 3106.1284
   3133.3000    2.5227   65.6484   27.2274 -999.2500    9.3299    6.3582   37.3199   36.1375    2.5208   19.7158    0.0069   13.2741   91.2979  145.4516   40.2778    6.2400  186.6669  167.5960   25.6638 3106.2148
   3133.4000    2.6715   65.5700   23.6048 -999.2500    9.3299    6.5723   41.7481   41.6229    2.5184   19.2010    0.0281    8.5601   36.9102   42.7992   28.7290    5.6966  194.8206   63.1287   23.9558 3106.3130
   3133.5000    2.6888   66.5708   10.7877 -999.2500    9.4104    6.2419   40.4140   40.7852    2.5210   19.1951    0.0372    8.2828   24.2673   35.1901   36.2486    6.0276  128.3509   76.7624   26.3841 3106.4126
   3133.6000    2.5845   66.8938   18.2162 -999.2500    9.4104    6.1763   36.6695   37.1982    2.5202   19.0955    0.0286   10.2125   27.8351   47.4948   42.1148    6.9831  151.2398  143.8073   32.3669 3106.4988
   3133.7000    2.6723   66.5000   28.1030 -999.2500    9.4104    7.0283   34.6565   35.1627    2.5115   18.2125    0.0219   10.9889   29.1032   48.4729   39.5613    7.8044  159.5419  159.5119   35.1321 3106.6025
   3133.8000    2.8710   66.6810   27.1951 -999.2500    9.3337    7.8723   35.0330   34.6922    2.5122   19.0347    0.0294    9.1606   23.0343   35.2164   32.1240    8.1105   89.0318   84.7191   32.0640 3106.6890
   3133.9000    3.0906   67.1697   27.2437 -999.2500    9.2570    8.8259   37.2329   36.3785    2.5636   19.8017    0.0370    9.4445   31.2603   44.6814   40.0627    9.3395  142.6482   89.0684   37.3122 3106.7861
   3134.0000    3.0392   66.7619   23.2145 -999.2500    9.2570   10.7577   38.2819   37.6974    2.5563   20.7428    0.0395    9.4448   27.3168   31.2163   29.7332    8.3561   79.4601   59.8676   31.8610 3106.8967
   3134.1000    2.6096   66.6694   10.6875 -999.2500    9.2570   12.8642   37.9863   37.3959    2.5418   20.5614    0.0321    8.1461   21.3011   22.8402   25.2360   10.3965  142.5173  138.5911   38.6187 3106.9839
   3134.2000    2.3177   67.1819    3.5395 -999.2500    9.2613   13.8971   34.5462   32.7763    2.5589   20.6736    0.0245   13.3239   69.0599   76.3531   33.8777   14.3528  200.9169  198.4285   48.9947 3107.1331
   3134.3000    2.9723   67.1256    1.1589 -999.2500    9.2613   15.1938   29.2379   27.1995    2.5548   21.6512    0.0343   21.6182  134.4457  146.4025   46.5011   17.5089  200.9169  198.4285   54.1447 3107.1824
   3134.4000    3.3611   66.0952    1.4768 -999.2500    9.2613   16.8257   29.0073   26.8547    2.5368   21.6897    0.0288   14.1731   50.9501   46.3052   36.4830   14.2387  196.3447  194.0831   44.4897 3107.2363
   3134.5000    3.8425   66.5220    5.7010 -999.2500    9.2045   19.6905   34.2875   32.1288    2.5382   21.7503    0.0414   12.4784   28.9036   33.0751   37.7246   11.8680  151.3783  151.3471   47.4494 3107.2847
   3134.6000    3.9370   68.2467   20.0327 -999.2500    9.2045   20.3377   37.0546   36.0083    2.5498   21.8070    0.0545   10.1963   18.7848   22.2046   28.3358   11.0479   92.3626  104.8943   48.3501 3107.4470
   3134.7000    3.7389   69.7756   21.4646 -999.2500    9.2045   17.9729   30.9831   30.6799    2.5611   21.8223    0.0578    9.3060   21.4794   26.9454   29.7744   11.9118  119.7679  130.2474   52.4291 3107.5876
   3134.8000    3.6647   71.4743    7.9886 -999.2500    8.8058   17.8174   27.2158   26.6163    2.5568   22.4012    0.0440    9.9129   27.5880   35.1941   34.8710   12.2841  154.6918  154.9997   53.8542 3107.6597
   3134.9000    3.4935   71.3010   10.7282 -999.2500    8.8058   19.3545   26.8198   25.6246    2.5195   23.9685    0.0253   10.6431   19.9266   19.4441   23.6815    9.1004   42.0277   49.1403   42.9689 3107.6826
   3135.0000    3.1116   70.5584   45.9119 -999.2500    8.8058   21.2590   28.6716   27.7865    2.5123   23.5035    0.0126    9.9239   23.9681   26.0427   30.9972   10.0674   48.1286   79.1603   53.2103 3107.8284
   3135.1000    2.7859   70.3734   38.3010 -999.2500    9.2578   24.2746   35.1988   33.7934    2.5109   22.9221    0.0228   14.2220   52.1086   37.3453   43.7135   18.2669  157.4699  165.6637   58.5299 3107.9277
   3135.2000    2.8867   71.1268   35.5782 -999.2500    9.2578   28.9667   49.7706   47.9411    2.5087   21.8017    0.0410   18.8537   50.6773   41.4505   41.7239   31.2064  200.9169  154.7021   62.4835 3108.0200
   3135.3000    3.4536   72.8437   35.0092 -999.2500    9.2578   27.9339   55.9851   55.6376    2.5054   20.6595    0.0446   16.9337   28.9679   31.3369   28.9372   30.3904  142.5461   82.4260   54.5493 3108.1123
   3135.4000    2.8813   72.8868   28.6345 -999.2500    9.1773   22.5562   48.1960   48.7497    2.5014   20.6371    0.0478    7.3298   11.3569   12.8387   17.9263    9.1528   26.0722   27.6939   34.8153 3108.2124
   3135.5000    3.0768   72.9298   39.3035 -999.2500    9.1773   19.1994   37.4963   37.9305    2.5291   21.2565    0.0434    6.4139  115.2528   27.1566   24.9715   29.8028   26.6001   45.9070   45.0671 3108.3044
