~Version Information
 VERS.                  2.0:   CWLS log ASCII Standard -VERSION 2.0
 WRAP.                   NO:   One line per depth step
~Well Information Block
#MNEM.UNIT     VALUE/NAME     DESCRIPTION
#---------     -----------    ---------------------------
 STRT.M              2900.0000: START DEPTH
 STOP.M              3434.8000: STOP DEPTH
 STEP.M                 0.1000: STEP DEPTH
 NULL.               -999.2500: NULL VALUE
 UWI .                 W006102:  UNIQUE WELL IDENTIFIER
 API .                 W006102:  API NUMBER
 DFWT.                        :  DIST FWL TEXT
 DFST.                        :  DIST FSL TEXT
 DMF .             Drill Floor:  DRILL MEAS FROM
 STIM.      12.00.00 12-Nov-21:  START TIME
 DATE.      08.19.12 13-Dec-21:  END TIME
 SPUD.               14-Nov-21:  SPUD DATE
 NREF.                    Grid:  NORTH REFERENCE
 HPTY.       Minimum Curvature:  HOLE POS TYPE
 DMOD.             Drill Model:  DRILL MOD DESC
 SVYD.                  Survey:  SURVEY DESC
 ILTD.               Lithology:  INTERP LTH DESC
 FTOP.          Formation Tops:  FORM TOPS DESC
 WELL.             Walyering 5:  WELL NAME
 COMP.     Strike South West Pty Ltd:  COMPANY
 SON .        PA-XX-0907373664:  JOB NUMBER
 GCDE.     Generic Lat/Long's, Degrees, -180 ==> +180:  GEO COORD DESC
 CCDE.     UTM Zone 50S on Geocentric Datum of Australia 1994, Meters:  CART COORD DESC
 GGSY.                      LL:  GEO GRID SYS
 CGSY.             SS GDA94-50:  CART GRID SYS
 GREF.     Ellipsoid World Geodetic System :  GEO REFERENCE
 CREF.     Datum Geocentric Datum of Austra:  CART REFERENCE
 MMDL.            bggm2021.dat:  MAGNETIC MODEL
 MMDD.       10 November, 2021:  MAG DATA DATE
 MDS .              Win MagUTM:  MAG DATA SOURCE
 LLGR.      Latitude/Longitude:  LLGROUP
 XYGR.     Australia/New Zealand Coordinate Systems:  XYGROUP
 WTYP.                Deviated:  WELL TYPE
 PDAT.          Mean Sea Level:  PERMANENT DATUM
 BASE.                   Perth:  LOGGING EQUIPMENT BASE LOCATION
 REGN.            Asia Pacific:  REGION
 CTRY.               Australia:  COUNTRY NAME
 FLD .             Perth Basin:  FIELD NAME
 SRVC.     Ensign Energy Services:  CONTRACTOR
 MWDS.                Jandakot:  MWD SHOP
 RIG .              Ensign 970:  RIG NAME
 DCON.         Sperry Drilling:  DIRECTNL CONTR
 UNIT.                11741669:  LOGGING EQUIPMENT ID
 CNTY.                        :  COUNTY
 PROV.                        :  PROVINCE
 STAT.                        :  STATE
 LOC .                        :  LOCATION
 DEP .m               0.000000:  DEPTH
 TVDS.m             101.180001:  TVDSS CORRECTN
 LATI.deg           -30.730083:  LATITUDE
 LONG.deg           115.478781:  LONGITUDE
 WHNS.m               0.000000:  WELL HEAD N/S
 WHEW.m               0.000000:  WELL HEAD E/W
 UTMX.m          354359.500000:  UTM X
 UTMY.m         6599322.900000:  UTM Y
 DFWL.m               0.000000:  DISTANCE FWL
 DFSL.m               0.000000:  DISTANCE FSL
 SDEP.m              73.999999:  START DEPTH
 TDD .m            3434.999857:  TOTAL DEPTH (DRILLER)
 VSDR.deg           243.910004:  VERT SEC DIRECT
 GVFD.g               1.000000:  GRAVITY FIELD
 MFLD.nT          57661.890625:  MAGNETIC FIELD
 MDIP.deg           -64.786583:  MAGNETIC DIP
 MDEC.deg            -1.367809:  MAGNETIC DECL
 GRDC.deg             0.777471:  GRID CORRECTION
 AZTC.deg            -2.145280:  AZM TOTAL CORR
 EPD .m              94.030000:  ELEVATION
 EGL .m              94.030000:  GROUND ELEVATION
 WDMS.m               0.000000:  WD ELEV
 APD .m               7.150000:  DEPTH ABOVE PD
 MMDE.m             -30.842712:  MAGUTM CALC DEP
 CMER.deg           117.000000:  CENTRL MERIDIAN
 AGAP.m               7.150000:  AIR GAP
 VSC .                       0:  VS TO CLOSURE
 MAGU.                 1390910:  MAGUTM CHECKSUM
~Curve Information Block
#MNEM.UNIT                 API CODE     Curve Description
#---------               -----------    ---------------------------
 DEPT.M                 00 000 000 000:  Depth
 ALPELC.                00 000 000 000:  ALD LCRB Pe Factor
 XBCS.uspf              00 000 000 000:  XBAT Comp Slowness
 RSPD.m/hr              00 000 000 000:  Running Speed
 PGRC.api               00 000 000 000:  PCG Gamma Ray BCorr
 XBEDX.in               00 000 000 000:  XCAL Eqv Hole Size Cor
 AFRSAC.ohmm             00 000 000 000:  AFR Shall Resistivity BC
 AFRMAC.ohmm             00 000 000 000:  AFR Medium Resistivity BC
 AFRDAC.ohmm             00 000 000 000:  AFR Deep Resistivity BC
 ALCDLC.g/cc            00 000 000 000:  ALD LCRB Comp Density
 TNPL.pu                00 000 000 000:  CTN Porosity Limestone
 ALDCLC.g/cc            00 000 000 000:  ALD LCRB Den Correction
 R09PC.ohmm             00 000 000 000:  9in Phase Resistivity BC
 R15PC.ohmm             00 000 000 000:  15in Phase Resistivity BC
 R27PC.ohmm             00 000 000 000:  27in Phase Resistivity BC
 R39PC.ohmm             00 000 000 000:  39in Phase Resistivity BC
 R09AC.ohmm             00 000 000 000:  9in Atten Resistivity BC
 R15AC.ohmm             00 000 000 000:  15in Atten Resistivity BC
 R27AC.ohmm             00 000 000 000:  27in Atten Resistivity BC
 R39AC.ohmm             00 000 000 000:  39in Atten Resistivity BC
 TVD .m                 00 000 000 000:  True Vertical Depth
#Other Information
#
#WARRANTY: Halliburton will use its best efforts to furnish customers with 
#accurate information and interpretations that are part of, and incident to, the services 
#provided.  However, Halliburton cannot and does not warrant the accuracy 
#or correctness of such information and interpretations.  Under no circumstances should any 
#such information or interpretation be relied upon as the sole basis for any drilling, 
#completion, production, or financial decision or any procedure involving any risk to the 
#safety of any drilling venture, drilling rig or its crew or any other third party.  The 
#Customer has full responsibility for all drilling, completion and production operation.  
#Halliburton makes no representations or warranties, either expressed or 
#implied, including, but not limited to, the implied warranties of merchantability or fitness 
#for a particular purpose, with respect to the services rendered.  In no event will 
#Halliburton be liable for failure to obtain any particular results or for 
#any damages, including, but not limited to, indirect, special or consequential damages, 
#resulting from the use of any information or interpretation provided by Halliburton.
#
~A   DEPT     ALPELC     XBCS      RSPD      PGRC      XBEDX     AFRSAC     AFRMAC     AFRDAC    ALCDLC     TNPL     ALDCLC     R09PC     R15PC     R27PC     R39PC     R09AC     R15AC     R27AC     R39AC      TVD    
# ...
   3036.8000    2.8058   67.4967   31.5922 -999.2500    8.4854    9.6181   11.9607   16.6873    2.4986   16.4036    0.0301    6.7015    6.7961    6.6616    7.0849    6.8496    7.3698    7.4543    8.3432 3014.7747
   3036.9000    2.4845   69.7063   24.9188 -999.2500    8.4168    7.2503    9.1602   13.1107    2.4941   16.3854    0.0246    5.1302    5.0105    5.0193    5.1882    5.5815    5.9505    6.4080    7.7939 3014.8728
   3037.0000    2.2950   71.5715   32.4051 -999.2500    8.4168    5.0216    7.0956   10.7841    2.4948   15.9038    0.0277    3.3139    3.2400    3.1986    3.7755    4.1699    4.8993    5.5512    7.4497 3014.9734
   3037.1000    2.0282   72.2453   37.6693 -999.2500    8.4168    2.5648    4.3799    6.3873    2.4806   15.4952    0.0257    2.2086    2.4717    2.6593    3.3087    3.2938    4.1875    5.2816    7.4986 3015.0608
   3037.2000    2.0813   73.4325   35.8101 -999.2500    8.4408    1.6687    3.1180    3.9266    2.4557   16.5947    0.0267    1.6883    2.0563    2.4644    3.3255    2.7569    3.6744    5.1337    7.7737 3015.1594
   3037.3000    2.2457   73.9646   36.4390 -999.2500    8.4408    1.5218    2.9751    3.4417    2.4281   16.7501    0.0294    1.4689    1.7743    2.3327    3.4842    2.3845    3.2919    4.9581    8.1292 3015.2468
   3037.4000    2.2685   75.4064   36.2715 -999.2500    8.4408    1.3538    2.8930    3.1817    2.3991   17.1706    0.0286    1.2097    1.6281    2.3452    3.5460    1.9954    2.9607    4.7739    8.5421 3015.3472
   3037.5000    2.0786   75.3473   27.8034 -999.2500    8.4669    1.2215    2.8561    3.0742    2.3643   19.2129    0.0194    1.1777    1.4848    2.2228    3.8215    1.8826    2.7913    5.0650    9.1947 3015.4446
   3037.6000    2.3218   75.2399   27.8713 -999.2500    8.4669    1.2131    2.9392    3.2101    2.3754   19.0640    0.0170    1.1742    1.3478    2.3418    4.4999    1.8877    2.7484    5.5433    9.9599 3015.5310
   3037.7000    2.8416   75.2642   33.7916 -999.2500    8.4669    1.2595    3.0883    3.4955    2.3676   18.8271    0.0012    1.1903    1.3548    2.4389    5.1633    1.9268    2.8971    6.2301   10.6499 3015.6338
   3037.8000    3.1106   75.0466   27.2869 -999.2500    8.4367    1.3098    3.1478    3.7852    2.3842   18.0991    0.0008    1.2182    1.4349    2.4681    5.6101    1.9773    3.1016    6.8809   11.1462 3015.7251
   3037.9000    3.2286   73.7367   33.5710 -999.2500    8.4367    1.3433    3.0326    4.0253    2.4143   18.2918    0.0151    1.2647    1.4430    2.5586    5.8816    2.0663    3.1579    7.1641   11.4119 3015.8162
   3038.0000    3.2451   73.2700   36.4031 -999.2500    8.4367    1.4932    3.1596    4.7097    2.4409   18.6108    0.0358    1.4592    1.6878    3.1009    7.3245    2.2659    3.4511    7.6160   11.9037 3015.9192
   3038.1000    2.8556   72.8430   34.1385 -999.2500    8.4213    1.7737    3.6139    5.8932    2.4462   18.8652    0.0351    1.5712    1.7672    3.1645    7.6518    2.3796    3.5126    7.6686   11.4842 3016.0054
   3038.2000    2.1691   72.9448   27.2811 -999.2500    8.4213    2.1203    4.1463    7.3491    2.4359   18.2951    0.0156    1.9529    2.0943    3.6272    7.9137    2.7708    3.7711    7.2377   10.1945 3016.1030
   3038.3000    2.1980   73.0279   27.1347 -999.2500    8.4213    2.2683    4.1855    7.7911    2.4339   17.9692    0.0108    2.2093    2.3025    3.4044    6.5463    3.0465    3.8312    6.3307    9.0508 3016.2034
   3038.4000    2.1615   72.4139   29.6829 -999.2500    8.4277    2.3709    4.2473    7.6299    2.4297   17.6410    0.0096    2.0425    2.1242    2.6510    4.5252    2.9559    3.6628    5.3779    7.9760 3016.2908
   3038.5000    2.0363   72.1388   31.8784 -999.2500    8.4341    2.0644    3.6083    6.1172    2.4310   16.2071    0.0147    2.0469    2.1376    2.8217    5.0858    2.9296    3.6961    5.6282    8.1866 3016.3894
   3038.6000    2.0962   71.4095   27.1748 -999.2500    8.4341    1.9944    3.4243    5.5509    2.4404   15.7349    0.0264    2.0629    2.1576    2.9259    5.4000    2.9279    3.7178    5.7720    8.3330 3016.4771
   3038.7000    2.1659   72.3112   35.7871 -999.2500    8.4341    1.7109    2.9367    4.5786    2.4171   16.0210    0.0186    1.9758    2.0798    2.8062    5.1357    2.8505    3.6691    5.6928    8.2688 3016.5774
   3038.8000    1.9360   74.4200   30.4391 -999.2500    8.4477    1.3423    2.4107    3.5266    2.4166   15.4050    0.0211    1.8017    1.9040    2.3743    3.9925    2.7128    3.5314    5.2624    7.8323 3016.6748
   3038.9000    1.4541   74.8783   27.3185 -999.2500    8.4477    1.3235    2.4741    3.5727    2.3956   15.5260    0.0111    1.4652    1.6132    2.1207    3.5271    2.3855    3.4140    5.4540    7.8397 3016.7610
   3039.0000    1.4212   74.9026   28.8707 -999.2500    8.4477    1.3386    2.6369    3.7977    2.3849   16.0212    0.0040    1.2221    1.4199    2.1244    3.6445    2.1411    3.4034    6.0168    7.9720 3016.8640
   3039.1000    1.8446   74.5638   27.0968 -999.2500    8.4246    1.3109    2.7596    3.8898    2.3867   16.5941    0.0046    1.1658    1.3980    2.2540    3.9491    2.1005    3.4654    6.3991    8.1460 3016.9551
   3039.2000    2.0342   74.3729   26.6010 -999.2500    8.4246    1.2372    2.7552    3.7166    2.3719   16.3716    0.0029    1.1468    1.3863    2.3339    4.0735    2.0951    3.4571    6.4767    8.0130 3017.0464
   3039.3000    2.0464   73.6782   27.7432 -999.2500    8.4246    1.2146    2.8552    3.5522    2.3791   15.4712    0.0079    1.1610    1.3768    2.4465    4.5633    2.1472    3.4942    6.5560    7.8447 3017.1494
   3039.4000    1.8572   73.1288   30.9063 -999.2500    8.4272    1.2132    2.9244    3.3828    2.3939   14.6846   -0.0029    1.1744    1.4067    2.5963    4.7877    2.1893    3.4594    6.3029    7.6731 3017.2356
   3039.5000    1.7706   70.7750   19.1676 -999.2500    8.4272    1.1973    2.9131    3.2083    2.3972   14.3678    0.0035    1.1763    1.4445    2.7065    4.7960    2.2080    3.3790    5.9050    7.4130 3017.3330
   3039.6000    2.0296   69.9506   23.1020 -999.2500    8.4272    1.2532    2.9750    3.2429    2.4046   14.3639    0.0197    1.1923    1.4723    2.6837    4.8259    2.2280    3.3225    5.5854    7.1675 3017.4336
   3039.7000    2.3674   69.3461   28.5775 -999.2500    8.4154    1.4452    3.3664    3.6924    2.4140   14.4881    0.0307    1.2644    1.5728    2.6671    5.0672    2.2301    3.2399    5.1380    6.9399 3017.5210
   3039.8000    2.1580   69.5571   27.0948 -999.2500    8.4154    1.5182    3.0620    3.6809    2.4073   14.1667    0.0251    1.3179    1.7187    2.8088    4.6956    2.0972    3.0730    4.8231    6.9347 3017.6199
   3039.9000    2.0730   69.8707   28.0037 -999.2500    8.4154    1.4082    2.4190    2.9546    2.4073   13.7577    0.0263    1.3333    1.5936    2.5421    4.2384    2.0727    2.9671    4.7050    6.9337 3017.7087
   3040.0000    1.7882   70.9085   27.3496 -999.2500    8.5520    1.3595    2.0008    2.4256    2.3838   14.2786    0.0166    1.2985    1.4893    2.2451    3.8336    2.0523    2.9663    4.8169    7.1182 3017.8062
   3040.1000    1.7613   72.3127   27.7183 -999.2500    8.5520    1.5038    2.1178    2.5173    2.3739   14.9297    0.0115    1.2570    1.4581    2.1692    3.8130    2.0796    3.0524    5.2554    7.5118 3017.9041
   3040.2000    2.0689   74.8630   30.0314 -999.2500    8.5520    2.3990    3.6473    4.2192    2.3931   16.5764    0.0168    1.3097    1.5535    2.5535    4.9172    2.2759    3.2575    6.0124    7.9106 3017.9946
   3040.3000    2.6400   76.1203   22.7226 -999.2500    8.6689    6.0267    9.2081   10.7303    2.4391   19.5937    0.0301    1.5389    2.0375    3.6863    7.5245    2.4944    3.5622    6.3223    7.8506 3018.0933
   3040.4000    3.4797   77.3761   26.1843 -999.2500    8.6689    8.9043   12.9430   15.9879    2.4769   21.8472    0.0347    2.0720    3.0043    5.7481   10.6668    2.5170    3.7876    5.9712    7.6895 3018.1797
   3040.5000    3.2795   77.4022   29.1918 -999.2500    8.6689    9.3469   12.9651   16.3558    2.5132   23.4765    0.0575    3.7029    4.1340    7.0030   11.5040    3.2548    4.2882    6.6085    7.7955 3018.2810
