~Version Information
 VERS.                  2.0:   CWLS log ASCII Standard -VERSION 2.0
 WRAP.                   NO:   One line per depth step
~Well Information Block
#MNEM.UNIT     VALUE/NAME     DESCRIPTION
#---------     -----------    ---------------------------
 STRT.M              2900.0000: START DEPTH
 STOP.M              3434.8000: STOP DEPTH
 STEP.M                 0.1000: STEP DEPTH
 NULL.               -999.2500: NULL VALUE
 UWI .                 W006102:  UNIQUE WELL IDENTIFIER
 API .                 W006102:  API NUMBER
 DFWT.                        :  DIST FWL TEXT
 DFST.                        :  DIST FSL TEXT
 DMF .             Drill Floor:  DRILL MEAS FROM
 STIM.      12.00.00 12-Nov-21:  START TIME
 DATE.      08.19.12 13-Dec-21:  END TIME
 SPUD.               14-Nov-21:  SPUD DATE
 NREF.                    Grid:  NORTH REFERENCE
 HPTY.       Minimum Curvature:  HOLE POS TYPE
 DMOD.             Drill Model:  DRILL MOD DESC
 SVYD.                  Survey:  SURVEY DESC
 ILTD.               Lithology:  INTERP LTH DESC
 FTOP.          Formation Tops:  FORM TOPS DESC
 WELL.             Walyering 5:  WELL NAME
 COMP.     Strike South West Pty Ltd:  COMPANY
 SON .        PA-XX-0907373664:  JOB NUMBER
 GCDE.     Generic Lat/Long's, Degrees, -180 ==> +180:  GEO COORD DESC
 CCDE.     UTM Zone 50S on Geocentric Datum of Australia 1994, Meters:  CART COORD DESC
 GGSY.                      LL:  GEO GRID SYS
 CGSY.             SS GDA94-50:  CART GRID SYS
 GREF.     Ellipsoid World Geodetic System :  GEO REFERENCE
 CREF.     Datum Geocentric Datum of Austra:  CART REFERENCE
 MMDL.            bggm2021.dat:  MAGNETIC MODEL
 MMDD.       10 November, 2021:  MAG DATA DATE
 MDS .              Win MagUTM:  MAG DATA SOURCE
 LLGR.      Latitude/Longitude:  LLGROUP
 XYGR.     Australia/New Zealand Coordinate Systems:  XYGROUP
 WTYP.                Deviated:  WELL TYPE
 PDAT.          Mean Sea Level:  PERMANENT DATUM
 BASE.                   Perth:  LOGGING EQUIPMENT BASE LOCATION
 REGN.            Asia Pacific:  REGION
 CTRY.               Australia:  COUNTRY NAME
 FLD .             Perth Basin:  FIELD NAME
 SRVC.     Ensign Energy Services:  CONTRACTOR
 MWDS.                Jandakot:  MWD SHOP
 RIG .              Ensign 970:  RIG NAME
 DCON.         Sperry Drilling:  DIRECTNL CONTR
 UNIT.                11741669:  LOGGING EQUIPMENT ID
 CNTY.                        :  COUNTY
 PROV.                        :  PROVINCE
 STAT.                        :  STATE
 LOC .                        :  LOCATION
 DEP .m               0.000000:  DEPTH
 TVDS.m             101.180001:  TVDSS CORRECTN
 LATI.deg           -30.730083:  LATITUDE
 LONG.deg           115.478781:  LONGITUDE
 WHNS.m               0.000000:  WELL HEAD N/S
 WHEW.m               0.000000:  WELL HEAD E/W
 UTMX.m          354359.500000:  UTM X
 UTMY.m         6599322.900000:  UTM Y
 DFWL.m               0.000000:  DISTANCE FWL
 DFSL.m               0.000000:  DISTANCE FSL
 SDEP.m              73.999999:  START DEPTH
 TDD .m            3434.999857:  TOTAL DEPTH (DRILLER)
 VSDR.deg           243.910004:  VERT SEC DIRECT
 GVFD.g               1.000000:  GRAVITY FIELD
 MFLD.nT          57661.890625:  MAGNETIC FIELD
 MDIP.deg           -64.786583:  MAGNETIC DIP
 MDEC.deg            -1.367809:  MAGNETIC DECL
 GRDC.deg             0.777471:  GRID CORRECTION
 AZTC.deg            -2.145280:  AZM TOTAL CORR
 EPD .m              94.030000:  ELEVATION
 EGL .m              94.030000:  GROUND ELEVATION
 WDMS.m               0.000000:  WD ELEV
 APD .m               7.150000:  DEPTH ABOVE PD
 MMDE.m             -30.842712:  MAGUTM CALC DEP
 CMER.deg           117.000000:  CENTRL MERIDIAN
 AGAP.m               7.150000:  AIR GAP
 VSC .                       0:  VS TO CLOSURE
 MAGU.                 1390910:  MAGUTM CHECKSUM
~Curve Information Block
#MNEM.UNIT                 API CODE     Curve Description
#---------               -----------    ---------------------------
 DEPT.M                 00 000 000 000:  Depth
 ALPELC.                00 000 000 000:  ALD LCRB Pe Factor
 XBCS.uspf              00 000 000 000:  XBAT Comp Slowness
 RSPD.m/hr              00 000 000 000:  Running Speed
 PGRC.api               00 000 000 000:  PCG Gamma Ray BCorr
 XBEDX.in               00 000 000 000:  XCAL Eqv Hole Size Cor
 AFRSAC.ohmm             00 000 000 000:  AFR Shall Resistivity BC
 AFRMAC.ohmm             00 000 000 000:  AFR Medium Resistivity BC
 AFRDAC.ohmm             00 000 000 000:  AFR Deep Resistivity BC
 ALCDLC.g/cc            00 000 000 000:  ALD LCRB Comp Density
 TNPL.pu                00 000 000 000:  CTN Porosity Limestone
 ALDCLC.g/cc            00 000 000 000:  ALD LCRB Den Correction
 R09PC.ohmm             00 000 000 000:  9in Phase Resistivity BC
 R15PC.ohmm             00 000 000 000:  15in Phase Resistivity BC
 R27PC.ohmm             00 000 000 000:  27in Phase Resistivity BC
 R39PC.ohmm             00 000 000 000:  39in Phase Resistivity BC
 R09AC.ohmm             00 000 000 000:  9in Atten Resistivity BC
 R15AC.ohmm             00 000 000 000:  15in Atten Resistivity BC
 R27AC.ohmm             00 000 000 000:  27in Atten Resistivity BC
 R39AC.ohmm             00 000 000 000:  39in Atten Resistivity BC
 TVD .m                 00 000 000 000:  True Vertical Depth
#Other Information
#
#WARRANTY: Halliburton will use its best efforts to furnish customers with 
#accurate information and interpretations that are part of, and incident to, the services 
#provided.  However, Halliburton cannot and does not warrant the accuracy 
#or correctness of such information and interpretations.  Under no circumstances should any 
#such information or interpretation be relied upon as the sole basis for any drilling, 
#completion, production, or financial decision or any procedure involving any risk to the 
#safety of any drilling venture, drilling rig or its crew or any other third party.  The 
#Customer has full responsibility for all drilling, completion and production operation.  
#Halliburton makes no representations or warranties, either expressed or 
#implied, including, but not limited to, the implied warranties of merchantability or fitness 
#for a particular purpose, with respect to the services rendered.  In no event will 
#Halliburton be liable for failure to obtain any particular results or for 
#any damages, including, but not limited to, indirect, special or consequential damages, 
#resulting from the use of any information or interpretation provided by Halliburton.
#
~A   DEPT     ALPELC     XBCS      RSPD      PGRC      XBEDX     AFRSAC     AFRMAC     AFRDAC    ALCDLC     TNPL     ALDCLC     R09PC     R15PC     R27PC     R39PC     R09AC     R15AC     R27AC     R39AC      TVD    
# ...
   3006.4000    2.9032   75.9810   37.2668 -999.2500    8.4717    3.1147    6.1756    8.8359    2.4459   18.6016    0.0480    2.7958    3.1434    4.3508    7.5825    4.9106    6.5472   10.3790   11.5138 2985.9954
   3006.5000    2.2358   76.3781   35.0591 -999.2500    8.4717    2.6354    5.2239    7.2942    2.4265   19.1233    0.0345    2.6009    3.0682    4.0934    7.1454    4.6234    6.3905    9.8138   11.7613 2986.0828
   3006.6000    2.4085   76.5133   29.2305 -999.2500    8.4717    2.4797    4.8833    6.6030    2.4270   19.0204    0.0235    2.4033    2.9255    3.9502    6.7570    4.2661    6.1366    9.4176   12.0118 2986.1821
   3006.7000    2.8568   76.7934   27.3697 -999.2500    8.4668    2.4046    4.7020    6.1966    2.4294   18.4014    0.0388    2.2417    2.7180    3.8677    6.5031    3.9920    5.8745    9.3742   12.0687 2986.2695
   3006.8000    2.6377   76.6898   25.8458 -999.2500    8.4619    2.3211    4.5475    5.8487    2.4260   17.3861    0.0350    2.1810    2.6196    3.7989    6.7579    3.9068    5.7899    9.7759   11.9302 2986.3708
   3006.9000    2.5534   76.2043   23.2780 -999.2500    8.4619    2.3002    4.5327    5.6340    2.4196   17.2754    0.0308    2.1644    2.6074    3.9756    7.3297    3.8962    5.9142   10.4368   11.7452 2986.4670
   3007.0000    2.7443   75.1608   33.3080 -999.2500    8.4619    2.2537    4.3899    5.3826    2.4139   17.3199    0.0317    2.2315    2.7068    4.3768    8.1821    3.8519    5.9748   10.5998   11.6043 2986.5542
   3007.1000    2.9091   73.9694   35.8643 -999.2500    8.5138    2.2955    4.4326    5.4221    2.4170   17.4743    0.0335    2.3770    2.8980    4.7972    8.9477    3.9157    5.9502   10.5287   11.3595 2986.6523
   3007.2000    2.7792   71.3019   36.3806 -999.2500    8.5138    2.4261    4.7714    5.7848    2.4462   17.9680    0.0344    2.5781    3.1286    5.0750    9.3841    4.0678    5.8768   10.2402   10.9479 2986.7549
   3007.3000    3.0722   71.1998   29.1011 -999.2500    8.5138    2.6936    5.2479    6.4614    2.4588   17.8345    0.0362    2.8217    3.3545    5.0747    9.2663    4.2440    5.8293    9.6275   10.2849 2986.8398
   3007.4000    3.4608   70.9735   26.6010 -999.2500    8.5985    3.1223    5.7699    7.3309    2.4817   17.7414    0.0518    3.0602    3.6358    5.2301    8.9794    4.3935    6.0041    8.9459    9.6306 2986.9395
   3007.5000    3.4636   67.3384   26.6009 -999.2500    8.5985    3.2324    5.7487    7.2767    2.4938   19.4652    0.0510    3.3697    3.9860    5.5060    8.6269    4.5703    5.9565    8.0631    8.6842 2987.0322
   3007.6000    3.1473   63.7152   25.2654 -999.2500    8.5985    3.4294    5.9807    7.5391    2.4891   20.3507    0.0366    3.2654    3.6828    4.4594    6.5073    4.3179    5.2645    6.4286    7.3091 2987.1245
   3007.7000    3.0651   71.6106   17.2250 -999.2500   10.4627    4.1341    7.0579    8.9605    2.4880   21.4961    0.0636    2.0915    2.2177    2.2579    3.1282    3.0416    3.5568    4.0340    5.3629 2987.2239
   3007.8000    2.7504   75.1465   29.4857 -999.2500   10.4627    4.6543    8.0896   10.0709    2.4988   25.6773    0.2092    0.8545    0.9407    1.0147    1.4497    1.7077    2.1216    2.5473    4.0431 2987.3113
   3007.9000    1.8072   86.8827   37.4646 -999.2500   10.4627    3.0323    6.1452    6.9865    2.4412   27.7006    0.2457    0.5570    0.8437    1.0074    1.3296    0.9653    1.4152    1.8086    3.2198 2987.4119
   3008.0000    1.9561   90.3475   30.4478 -999.2500    9.9624    1.4329    4.0715    4.1750    2.3070   29.9027    0.2611    0.5251    0.7478    0.8007    1.2370    0.6668    1.2110    1.5439    2.8621 2987.5093
   3008.1000    2.0101   91.7996   27.3252 -999.2500    9.9624    1.0100    3.2302    3.2031    2.1615   37.0981    0.2121    0.5152    3.4585    4.2374    5.0018    0.6229    1.1601    2.6437    4.9000 2987.5955
   3008.2000    1.7527   92.0655   28.8662 -999.2500    9.9624    0.8316    2.6259    2.4211    2.1008   46.8757    0.1458    0.6620  235.5234  295.0246   30.9062    0.7610    3.4577   56.1229   15.7298 2987.6985
   3008.3000    2.3954   92.2757   27.0988 -999.2500   10.0013    0.7499    2.8656    2.5707    2.2041   53.9871    0.1837    0.9790  669.8979  839.6156   75.0427    1.0488    8.5928  156.0893   33.4052 2987.7852
   3008.4000    3.2222   93.9094   26.8794 -999.2500   10.0013    0.7339    3.2719    2.9985    2.2405   56.3236    0.1066    0.9638   85.2104  112.9567   20.2236    1.2815    7.4343   26.6775   11.0451 2987.8809
   3008.5000    4.3480   93.8025   25.6565 -999.2500   10.0013    0.7368    3.3336    3.1178    2.2926   50.5473    0.0194    1.9023    5.1531   41.5590   18.9781    0.9947    3.2668   12.1051    7.2845 2987.9846
   3008.6000    4.1809   90.9547   16.3062 -999.2500    9.4725    0.7828    3.4758    3.2210    2.3655   43.8547   -0.0328    2.9253    6.5533   38.8442   19.9613    1.3183    4.3853   19.3512    8.2193 2988.0701
   3008.7000    3.7532   90.3711   24.4251 -999.2500    9.4725    0.8548    3.7469    3.5392    2.4491   40.1804   -0.0323    3.3495    6.4825   23.2426   17.1032    1.8546   70.5153   19.7322    9.1952 2988.1677
   3008.8000    4.3565   87.5734   28.2953 -999.2500    9.4725    0.9988    4.4085    4.4667    2.5234   36.7450   -0.0044    3.0089    4.7188    8.7122   11.7860    2.3655  171.4237   10.5340    9.0084 2988.2693
   3008.9000    3.4972   84.8473   27.2795 -999.2500    8.6937    1.1408    4.8737    5.1986    2.5448   34.5373   -0.0054    2.9065    3.2622    5.6634    6.7896    2.7832   22.8181    7.8329    6.4735 2988.3557
   3009.0000    3.2648   82.6940   26.7602 -999.2500    8.6937    1.4014    4.9750    5.5485    2.5647   33.6110    0.0296    3.1977    3.4663    4.2047    5.0310    3.0669    4.7867    5.9858    5.3818 2988.4543
   3009.1000    2.9675   82.4616   27.9532 -999.2500    8.6937    1.6696    4.9059    5.5978    2.5393   33.1382    0.0334    3.1420    3.5525    3.6330    4.4108    3.1977    4.5409    4.8492    4.7342 2988.5449
   3009.2000    2.8932   82.4297   27.2705 -999.2500    8.7713    1.6618    4.5021    5.2560    2.5317   32.8144    0.0330    2.8982    3.5322    3.5459    4.0100    3.2470    4.3310    4.4318    4.3218 2988.6423
   3009.3000    3.3933   82.3241   26.0286 -999.2500    8.7713    1.4474    4.3533    4.9508    2.4658   32.4583    0.0265    2.6287    3.4178    3.4738    3.5104    3.2026    4.3219    4.3745    4.0505 2988.7405
   3009.4000    3.3799   84.2790   22.5260 -999.2500    8.7713    1.2731    4.2958    4.7278    2.4762   36.6604    0.0325    2.2496    2.7287    2.7804    3.0104    2.8162    3.4129    3.2781    3.4324 2988.8267
   3009.5000    3.3091   87.8294   24.6906 -999.2500    8.8116    1.1342    4.5965    5.0314    2.5325   38.5677    0.0738    1.4122    1.6003    1.5826    1.6241    1.6038    1.8845    2.0866    2.5705 2988.9299
   3009.6000    3.3703   92.1995   26.7963 -999.2500    8.8116    0.8441    4.4877    5.0078    2.5050   38.9797    0.1358    0.9559    0.9741    1.0541    1.1606    0.9239    1.2033    1.5099    2.2578 2989.0166
   3009.7000    2.9901   96.5552   27.4325 -999.2500    8.8116    0.5286    3.2570    3.6241    2.4711   38.0595    0.1633    0.8283    0.9625    1.2173    1.4897    0.6860    1.1424    1.7602    2.7221 2989.1121
   3009.8000    2.7493   95.6696   27.9352 -999.2500    8.8191    0.4377    2.2855    2.3482    2.3861   38.6008    0.1391    0.9322    1.7870    4.3500    4.8256    0.7230    1.6035    4.6639    4.7653 2989.2156
   3009.9000    3.1508   94.9776   26.7786 -999.2500    8.8191    0.4259    1.9989    1.9820    2.2848   40.7874    0.0710    1.7092    9.8268   86.4952  425.8724    1.0657   40.7072   78.1812   14.0021 2989.3013
   3010.0000    4.2707   93.8547   26.0857 -999.2500    8.8191    0.4028    2.3727    2.2339    2.2938   41.4647   -0.0225    2.4717   18.0773  188.1365  920.1347    1.2991   95.0231  184.3807   19.0134 2989.3989
   3010.1000    4.1485   91.9278   14.2484 -999.2500    8.6312    0.4390    3.2535    3.0116    2.4591   43.0680    0.0029    2.3820   17.4653  310.6268  811.6281    1.2505   85.9175  184.9332   19.9759 2989.5007
