~Version Information
 VERS.                  2.0:   CWLS log ASCII Standard -VERSION 2.0
 WRAP.                   NO:   One line per depth step
~Well Information Block
#MNEM.UNIT     VALUE/NAME     DESCRIPTION
#---------     -----------    ---------------------------
 STRT.M              2355.0000: START DEPTH
 STOP.M              3523.6000: STOP DEPTH
 STEP.M                 0.1000: STEP DEPTH
 NULL.               -999.2500: NULL VALUE
 XYGR.     Australia/New Zealand Coordinate Systems:  XYGROUP
 LLGR.      Latitude/Longitude:  LLGROUP
 CREF.     Datum Geocentric Datum of Austra:  CART REFERENCE
 GREF.     Ellipsoid World Geodetic System :  GEO REFERENCE
 CGSY.             SS GDA94-50:  CART GRID SYS
 GGSY.                      LL:  GEO GRID SYS
 CCDE.     UTM Zone 50S on Geocentric Datum of Australia 1994, Meters:  CART COORD DESC
 GCDE.     Generic Lat/Long's, Degrees, -180 ==> +180:  GEO COORD DESC
 UWI .                 W006107:  UNIQUE WELL IDENTIFIER
 API .                 W006107:  API NUMBER
 UNIT.                11741669:  LOGGING EQUIPMENT ID
 DCON.        Sperry Drilling :  DIRECTNL CONTR
 RIG .              Ensign 970:  RIG NAME
 MWDS.                Jandakot:  MWD SHOP
 SRVC.     Ensign Energy Services:  CONTRACTOR
 FLD .               Walyering:  FIELD NAME
 CTRY.               Australia:  COUNTRY NAME
 PROV.       Western Australia:  PROVINCE
 STAT.       Western Australia:  STATE NAME
 REGN.            Asia Pacific:  REGION
 BASE.                   Perth:  LOGGING EQUIPMENT BASE LOCATION
 WTYP.                Vertical:  WELL TYPE
 PDAT.          Mean Sea Level:  PERMANENT DATUM
 MDS .              Win MagUTM:  MAG DATA SOURCE
 MMDD.          22 April, 2022:  MAG DATA DATE
 MMDL.            bggm2021.dat:  MAGNETIC MODEL
 SON .        PA-XX-0907756569:  JOB NUMBER
 COMP.     Strike South West Pty Ltd:  COMPANY
 WELL.             Walyering 6:  WELL NAME
 FTOP.          Formation Tops:  FORM TOPS DESC
 ILTD.               Lithology:  INTERP LTH DESC
 SVYD.                  Survey:  SURVEY DESC
 DMOD.             Drill Model:  DRILL MOD DESC
 HPTY.       Minimum Curvature:  HOLE POS TYPE
 NREF.                    Grid:  NORTH REFERENCE
 SPUD.               25-Apr-22:  SPUD DATE
 DATE.      12.00.00 13-May-22:  END TIME
 STIM.      17.00.00 24-Apr-22:  START TIME
 DMF .             Drill Floor:  DRILL MEAS FROM
 DFST.                        :  DIST FSL TEXT
 DFWT.                        :  DIST FWL TEXT
 CNTY.                        :  COUNTY
 LOC .                        :  LOCATION
 LMF .             Drill Floor:  LOG MEASURED FROM
 CMER.deg           117.000000:  CENTRL MERIDIAN
 DEP .m               0.000000:  DEPTH
 AGAP.m               7.160000:  AIR GAP
 MMDE.m             -31.623000:  MAGUTM CALC DEP
 APD .m               7.160000:  DEPTH ABOVE PD
 WDMS.m               0.000000:  WD ELEV
 EGL .m              96.589993:  GROUND ELEVATION
 EPD .m              96.589993:  ELEVATION
 AZTC.deg            -2.153514:  AZM TOTAL CORR
 GRDC.deg             0.779280:  GRID CORRECTION
 MDEC.deg            -1.374234:  MAGNETIC DECL
 MDIP.deg           -64.762985:  MAGNETIC DIP
 MFLD.nT          57671.410156:  MAGNETIC FIELD
 GVFD.g               1.000000:  GRAVITY FIELD
 VSDR.deg             0.000000:  VERT SEC DIRECT
 TDD .m            3551.000070:  TOTAL DEPTH (DRILLER)
 SDEP.m              74.999999:  START DEPTH
 DFSL.m               0.000000:  DISTANCE FSL
 DFWL.m               0.000000:  DISTANCE FWL
 UTMY.m         6601158.480000:  UTM Y
 UTMX.m          353924.590000:  UTM X
 WHEW.m               0.000000:  WELL HEAD E/W
 WHNS.m               0.000000:  WELL HEAD N/S
 LONG.deg           115.474500:  LONGITUDE
 LATI.deg           -30.713472:  LATITUDE
 TVDS.m             103.749993:  TVDSS CORRECTN
 EKB .m             103.750002:  KB ELEVATION
 EDF .m             103.750002:  DF ELEVATION
 TDL .m            1189.000020:  TOTAL DEPTH (LOGGER)
 CSGD.m            2359.000046:  CASING BOTTOM (DRILLER)
 CSGL.m            2359.000046:  CASING BOTTOM (LOGGER)
 CSGS.mm            244.474994:  CASING SIZE
 CSGW.kgpm           69.942862:  CASING WEIGHT
 MAGU.                 1391237:  MAGUTM CHECKSUM
 VSC .                       1:  VS TO CLOSURE
~Parameter Information Block
#MNEM.UNIT       Value        Description
#---------     -----------    ---------------------------
 AV  .mps             2.550000:  Ann Velocity 
 AVMX.mps             2.933333:  Max Ann Veloc 
 AZIF.deg             4.250000:  Azm, Final 
 BHAT.               Mud Motor:  BHA Type 
 BREV.krev         1163.365845:  Rev Bit Total 
 BROT.°/30m           0.050000:  Build Rotating 
 BS  .mm            215.899994:  Bit Size 
 BSZ .mm            215.899994:  Bit Size 
 BTPL.kPag         3033.715332:  Bit Press Loss 
 CABU.                      No:  Customer Abuse 
 CGEO.             Dan Walding:  Customer Geo 
 COMM.                     ì¿q:  Run Comments 1 
 TCS .hr            105.300003:  Time Ciculation Ended 
 CV  .mps             4.283333:  Crit Velocity 
 CVMX.mps             4.600000:  Max Crit Veloc 
 DD1 .     Christian Arrindell:  Direct Drillr 1 
 DD2 .            Ivan Tutynin:  Direct Drillr 2 
 DDSV.               Mud Motor:  DD Service 
 DEFF.%              95.000000:  % Det Eff 
 DLRX.°/30m           1.280000:  Dogleg Rot Max 
 DLSO.°/30m           1.400000:  Dogleg Oriented 
 DLSX.°/30m           2.000000:  Dogleg Str Max 
 DRET.      00.30.00 12-May-22:  Drill End Time 
 DRST.      19.30.00 07-May-22:  Drill Start Tim 
 DTIM.hr             80.400002:  Time Drilling 
 EDEP.m            3551.000000:  End Depth 
 ENG1.            Ade Suhendar:  Engineer 1 
 ENG2.        Yiek Chong Leong:  Engineer 2 
 ENG3.           Sufyan Zainal:  Engineer 3 
 ETIM.      23.45.00 12-May-22:  End Time 
 FLOI.m3pm            2.035733:  Flow In 
 FLON.m3pm            1.324854:  Flow In Min 
 FLOS.mptm            4.000000:  Fluid Loss 
 FLOX.m3pm            2.119767:  Flow In Max 
 DFT .                 Polymer:  Mud Type 
 FTRO.       Formation Presure:  FTWD Run Obj 
 HFLO.                      No:  High Flow 
 HPRE.                      No:  High Pressure 
 HTEM.                      No:  High Temp 
 HYDO.m               2.500000:  Hydro Offset 
 IFIN.deg             1.860000:  Inc, Final 
 IMAX.deg             5.744654:  Inc Max 
 IMIN.deg             0.433048:  Inc Min 
 IMND.m            2565.059814:  Inc Min Depth 
 IMXD.m            2364.389893:  Inc Max Depth 
 JARR.                      No:  Jarring 
 LETM.      00.30.00 12-May-22:  Log End Time 
 LOST.hr                     0:  Lost Rig Time 
 LSTM.      19.30.00 07-May-22:  Log Start Time 
 MDCL.ppm         79803.000000:  Mud Chlorides 
 MDES.             Fresh Water:  Mud Desc 
 DFD .kg/m3        1138.351074:  Mud Density 
 MDMN.kg/m3        1114.385986:  Dens Mud Min 
 MDMX.kg/m3        1150.333862:  Dens Mud Max 
 PH  .pH             10.100000:  Mud pH 
 MOIL.                       0:  Run Mud Oil % 
 MOWR.                   0 100:  Run Mud OWR 
 MSND.                     0.2:  Run Mud Sand % 
 MSOL.                     4.6:  Run Mud Solids% 
 MTV .                GeoForce:  Motor Variant 
 DFV .spl            82.445999:  Mud Viscosity 
 MWOD.mm            171.449997:  MWD Tool OD 
 MWSI.                      No:  Serv Intrp, MWD 
 OTIM.hr            146.500000:  Time Operating 
 PCON.          Wear / Scratch:  Pad Condition 
 PMAX.kPag        35887.472656:  Press Op, Max 
 PV  .mPsec          40.000000:  Mud PV 
 RMS .ohmm            0.606000:  Mud Resistivity 
 RMCS.ohmm            0.076000:  Mud Cake Resistivity 
 MCST.degC           19.830000:  Mud Cake Sample Temperature 
 RMFS.ohmm            0.050000:  Mud Filtrate Resistivity 
 RMFT.degC           21.499998:  Mud Filtrate Sample Temperature 
 RMMT.ohmm            0.266500:  Rm @ Max Temp 
 MST .degC           21.000002:  Mud Sample Temperature 
 RUN .                     300:  Run Number 
 ROPA.m/hr           14.790000:  ROP Avg 
 ROPN.m/hr            1.870000:  ROP Min 
 ROPX.m/hr           32.700001:  ROP Max 
 RPMA.rpm            52.500000:  RPM Surface Avg 
 RPMN.rpm            30.000000:  RPM Surface Min 
 RPMX.rpm            60.000000:  RPM Surface Max 
 RRUN.                       3:  Rig Run Number 
 RTIM.hr              8.510000:  Time Reaming 
 SAZI.deg           199.820007:  Azm, Start 
 SDEP.m            2362.000000:  Start Depth 
 SIDD.                      No:  Serv Intrp, DD 
 SINC.deg             5.740000:  Inc, Start 
 SPPA.kPag        17754.474609:  SPP Avg 
 SPPN.kPag        10893.795898:  SPP Min 
 SPPX.kPag        22063.382813:  SPP Max 
 STIM.      21.15.00 06-May-22:  Start Time 
 SVCS.                 DD, MWD:  Services 
 SVER.                9.200000:  Sperry Version 
 TDAT.m            1189.000000:  Tot Depth Attmp 
 TDDF.                      No:  Trip for DD 
 TDLG.m            1189.000000:  Tot Depth Loggd 
 TFF .                      No:  Trip for Fail 
 TQAA.kN-m            0.013558:  Torque Abs Avg 
 TQAN.kN-m            0.004067:  Torque Abs Min 
 TQAX.kN-m            0.024405:  Torque Abs Max 
 TRRT.°/30m           0.860000:  Turn Rotating 
 MRT .                  EWR-P4:  Maximum Recorded Temperature 
 TTMX.degC           75.199997:  Max Tool Temp 
 VS01.                12278995:  Virtual Str1 SN 
 VS02.                12394165:  Virtual Str2 SN 
 VS03.                13686255:  Virtual Str3 SN 
 VS04.                90681167:  Virtual Str4 SN 
 VS05.                90683981:  Virtual Str5 SN 
 VS06.                90683974:  Virtual Str6 SN 
 VS07.                90683978:  Virtual Str7 SN 
 VS08.                90683983:  Virtual Str8 SN 
 VS09.                13531224:  Virtual Str9 SN 
 WBMN.kdN             2.668932:  WOB Min 
 WITN.          Peter Clarkson:  Customer Rep 2 
 WITN.        Shaughan Corless:  Customer Rep 
 WOBA.kdN             7.045982:  WOB Avg 
 WOBX.kdN            10.675730:  WOB Max 
 YP  .pa             14.364045:  Yield Point 
~Curve Information Block
#MNEM.UNIT                 API CODE     Curve Description
#---------               -----------    ---------------------------
 DEPT.M                 00 000 000 000:  Depth
 AFRSAC.ohmm            00 000 000 000:  AFR Shallow Avg Res BC
 AFRMAC.ohmm            00 000 000 000:  AFR Medium Avg Res BC
 AFRDAC.ohmm            00 000 000 000:  AFR Deep Avg Res BC
#Other Information
#
#WARRANTY: Halliburton will use its best efforts to furnish customers with 
#accurate information and interpretations that are part of, and incident to, the services 
#provided.  However, Halliburton cannot and does not warrant the accuracy 
#or correctness of such information and interpretations.  Under no circumstances should any 
#such information or interpretation be relied upon as the sole basis for any drilling, 
#completion, production, or financial decision or any procedure involving any risk to the 
#safety of any drilling venture, drilling rig or its crew or any other third party.  The 
#Customer has full responsibility for all drilling, completion and production operation.  
#Halliburton makes no representations or warranties, either expressed or 
#implied, including, but not limited to, the implied warranties of merchantability or fitness 
#for a particular purpose, with respect to the services rendered.  In no event will 
#Halliburton be liable for failure to obtain any particular results or for 
#any damages, including, but not limited to, indirect, special or consequential damages, 
#resulting from the use of any information or interpretation provided by Halliburton.
#
~A   DEPT      AFRSAC     AFRMAC     AFRDAC   
# ...
   2668.2000    13.1023    12.4552    12.7068
   2668.3000    13.2648    12.9935    13.2090
   2668.4000    13.7915    14.1191    14.2552
   2668.5000    13.8176    13.9856    14.1802
   2668.6000    13.5817    13.2845    13.6554
   2668.7000    13.2225    12.6322    13.0004
   2668.8000    12.8730    12.2180    12.4087
   2668.9000    12.7880    11.9338    12.3115
   2669.0000    13.0948    12.3943    12.8166
   2669.1000    14.7056    14.5251    14.8847
   2669.2000    15.7447    16.2553    16.3222
   2669.3000    15.9223    16.7638    16.3185
   2669.4000    14.8066    14.9903    14.9783
   2669.5000    12.9364    12.7016    12.8879
   2669.6000    11.8294    11.7307    11.6620
   2669.7000    10.9225    10.7942    10.7611
   2669.8000    10.3828    10.3565    10.1313
   2669.9000    10.1540    10.0193     9.9058
   2670.0000    10.1089    10.0964     9.9025
   2670.1000     9.8281     9.8218     9.6341
   2670.2000     9.7895     9.8194     9.6566
   2670.3000     9.8252     9.8626     9.7743
   2670.4000     9.9870     9.9272    10.1475
   2670.5000    10.4819    10.8110    10.9554
   2670.6000    10.6815    11.3169    11.4387
   2670.7000    10.7257    11.5058    11.7369
   2670.8000    10.8569    11.4615    11.9101
   2670.9000    10.9634    10.7161    11.8921
   2671.0000    10.3436     9.7701    10.9916
   2671.1000     9.6792     8.9935    10.0962
   2671.2000     9.2399     8.5042     9.5468
   2671.3000     9.0379     8.6846     9.3451
   2671.4000     9.1712     9.1596     9.5259
   2671.5000     9.1640     9.3760     9.5232
   2671.6000     8.9106     9.0601     9.1778
   2671.7000     8.5213     8.3084     8.6478
   2671.8000     8.0535     7.9559     8.0822
   2671.9000     7.8807     7.8079     7.8825
   2672.0000     8.0871     8.0019     8.1468
   2672.1000     8.3354     8.1700     8.5097
   2672.2000     8.6320     8.5723     9.0028
   2672.3000     9.0582     9.3186     9.6432
   2672.4000     9.5249    10.0767    10.2778
   2672.5000     9.9140    10.6050    10.7345
   2672.6000     9.9645    10.5678    10.7629
   2672.7000    10.1767    10.6356    11.0002
   2672.8000    10.7574    10.9072    11.6474
   2672.9000    10.7072    10.5555    11.4100
   2673.0000    10.4256    10.0627    10.7943
   2673.1000     9.8279     9.4153     9.9062
   2673.2000     9.7792     9.4717     9.7132
   2673.3000    10.2346     9.5354    10.1431
   2673.4000    10.2478     9.3260    10.0697
   2673.5000    10.1020     9.0132     9.8579
   2673.6000     9.9317     9.0002     9.7095
   2673.7000    10.4942     9.9816    10.5534
   2673.8000    10.9801    10.8790    11.4682
   2673.9000    11.0901    11.3944    11.9709
   2674.0000    10.4727    10.9188    11.4495
   2674.1000    10.0381    10.3807    11.0428
   2674.2000     9.4870     9.8654    10.4920
   2674.3000     9.1280     9.4549    10.1612
   2674.4000     9.1648     9.6110    10.3077
   2674.5000     9.3418     9.7014    10.5160
   2674.6000     9.3007     9.7138    10.4780
   2674.7000     8.9096     9.4192     9.8789
   2674.8000     8.5674     9.3118     9.3474
   2674.9000     8.5835     9.4244     9.2244
   2675.0000     8.9284     9.5539     9.5954
   2675.1000     9.0655     9.4280     9.8061
   2675.2000     9.4173     9.0116    10.2909
   2675.3000     9.9741     9.1236    10.8975
   2675.4000    10.9311     9.5964    12.0337
   2675.5000    11.7180    10.7318    12.8550
   2675.6000    11.5805    11.9439    12.3936
   2675.7000    11.2598    13.9858    11.6672
   2675.8000    12.2265    16.7785    11.1071
   2675.9000    14.6716    18.7888    12.5131
   2676.0000    17.8313    18.8048    15.2807
   2676.1000    17.6496    16.0958    17.3835
   2676.2000    15.6984    14.6682    17.5220
   2676.3000    14.3158    14.4380    15.4867
   2676.4000    14.8582    15.2588    15.4322
   2676.5000    15.2700    15.0985    15.2682
   2676.6000    14.8207    14.5198    14.2303
   2676.7000    14.7212    14.0985    13.4052
   2676.8000    16.1825    15.7198    14.3541
   2676.9000    21.0089    20.6498    19.1421
   2677.0000    30.0459    30.5026    30.1171
   2677.1000    41.8999    44.4396    48.3422
   2677.2000    48.6704    58.7467    61.9088
   2677.3000    46.4444    61.4125    62.7882
   2677.4000    38.0646    48.7331    47.6975
   2677.5000    30.0504    36.3143    32.3256
   2677.6000    23.6928    25.7055    22.2116
   2677.7000    20.3084    20.4982    17.6889
   2677.8000    19.6650    19.2701    17.0393
   2677.9000    21.8831    22.6166    19.9056
   2678.0000    30.1409    33.5868    29.7719
   2678.1000    50.7262    61.4533    56.7936
   2678.2000    90.7214   106.6006   115.5028
   2678.3000   131.5265   152.1025   172.6732
   2678.4000   125.9771   137.2517   157.0027
   2678.5000   108.3158   119.2131   129.4478
   2678.6000   100.5186   112.9747   121.3468
   2678.7000    97.1158   116.7038   124.3665
   2678.8000   100.6323   126.6445   133.7326
   2678.9000    88.2277   107.4836   109.9488
   2679.0000    61.1798    68.6457    64.0977
   2679.1000    40.8534    40.5270    36.3674
   2679.2000    33.9541    32.1394    28.2720
   2679.3000    36.5374    34.8500    30.7908
   2679.4000    50.6256    51.0261    46.2582
   2679.5000    69.4463    72.8884    70.5427
   2679.6000    67.7278    68.1965    72.8704
   2679.7000    59.5751    59.0387    65.5384
   2679.8000    55.2879    56.0620    62.3768
   2679.9000    56.2876    59.6381    68.3648
   2680.0000    52.4996    58.5014    68.6255
   2680.1000    42.7916    49.7373    56.6417
   2680.2000    36.3797    43.9626    46.7505
   2680.3000    31.6456    39.1937    39.0746
   2680.4000    28.5953    35.7203    34.3773
   2680.5000    25.1279    30.9152    29.1794
   2680.6000    22.4871    27.3380    25.0275
   2680.7000    20.7830    24.9400    22.1983
   2680.8000    19.1828    22.2985    19.8619
   2680.9000    17.6447    20.0924    17.8833
   2681.0000    16.8595    18.8863    16.6687
   2681.1000    17.0071    18.7002    16.5546
   2681.2000    17.4506    18.4860    16.8300
   2681.3000    19.3200    19.5334    18.9125
   2681.4000    23.5162    23.1135    23.9185
   2681.5000    34.0370    33.7698    36.8259
   2681.6000    59.2593    61.5299    68.8841
   2681.7000    94.1253   100.3084   110.1620
   2681.8000    87.8294    81.6810    92.8065
   2681.9000    68.4103    61.0887    66.6016
   2682.0000    64.3546    57.7700    62.5724
   2682.1000    90.8306    89.2588    98.5366
   2682.2000   147.7433   163.7020   194.5067
   2682.3000   163.4115   202.8174   243.4326
   2682.4000   114.3516   165.0183   167.0074
   2682.5000    90.2401   130.2412   125.0407
   2682.6000    78.9280   103.5819   105.3222
   2682.7000    68.9094    73.0293    86.2959
   2682.8000    60.4681    59.6869    72.7829
   2682.9000    47.5224    49.0811    56.1349
   2683.0000    40.3560    45.0928    46.6475
   2683.1000    34.8838    41.4001    39.0756
   2683.2000    28.5418    33.4523    30.7194
   2683.3000    23.4905    26.5650    23.9342
   2683.4000    20.2082    21.1740    19.4457
   2683.5000    18.2122    17.4959    16.3337
   2683.6000    16.6131    15.3297    14.1574
   2683.7000    15.5129    14.8610    13.2985
   2683.8000    16.9585    17.2565    15.4620
   2683.9000    20.7129    23.2913    21.3815
   2684.0000    30.9831    37.1449    37.3043
   2684.1000    49.2527    61.2519    70.6905
   2684.2000    77.2989    96.5754   123.8545
   2684.3000    98.5221   123.1490   163.1401
   2684.4000   106.2173   149.3314   178.6752
   2684.5000   103.4506   159.4654   179.4862
   2684.6000    92.9351   145.8055   175.8248
   2684.7000    87.6299   135.7267   185.4495
   2684.8000    87.3222   139.9415   207.3897
   2684.9000    93.9248   168.6704   269.1024
   2685.0000    94.8213   188.6209   294.6639
   2685.1000    90.2185   188.8635   270.9219
   2685.2000    87.5689   184.0221   242.7072
   2685.3000    88.4364   193.1237   221.3616
   2685.4000    85.5179   189.3193   192.8077
   2685.5000    77.7341   154.0775   152.7917
