~Version Information
 VERS.                  2.0:   CWLS log ASCII Standard -VERSION 2.0
 WRAP.                   NO:   One line per depth step
~Well Information Block
#MNEM.UNIT     VALUE/NAME     DESCRIPTION
#---------     -----------    ---------------------------
 STRT.M              2900.0000: START DEPTH
 STOP.M              3434.8000: STOP DEPTH
 STEP.M                 0.1000: STEP DEPTH
 NULL.               -999.2500: NULL VALUE
 UWI .                 W006102:  UNIQUE WELL IDENTIFIER
 API .                 W006102:  API NUMBER
 DFWT.                        :  DIST FWL TEXT
 DFST.                        :  DIST FSL TEXT
 DMF .             Drill Floor:  DRILL MEAS FROM
 STIM.      12.00.00 12-Nov-21:  START TIME
 DATE.      08.19.12 13-Dec-21:  END TIME
 SPUD.               14-Nov-21:  SPUD DATE
 NREF.                    Grid:  NORTH REFERENCE
 HPTY.       Minimum Curvature:  HOLE POS TYPE
 DMOD.             Drill Model:  DRILL MOD DESC
 SVYD.                  Survey:  SURVEY DESC
 ILTD.               Lithology:  INTERP LTH DESC
 FTOP.          Formation Tops:  FORM TOPS DESC
 WELL.             Walyering 5:  WELL NAME
 COMP.     Strike South West Pty Ltd:  COMPANY
 SON .        PA-XX-0907373664:  JOB NUMBER
 GCDE.     Generic Lat/Long's, Degrees, -180 ==> +180:  GEO COORD DESC
 CCDE.     UTM Zone 50S on Geocentric Datum of Australia 1994, Meters:  CART COORD DESC
 GGSY.                      LL:  GEO GRID SYS
 CGSY.             SS GDA94-50:  CART GRID SYS
 GREF.     Ellipsoid World Geodetic System :  GEO REFERENCE
 CREF.     Datum Geocentric Datum of Austra:  CART REFERENCE
 MMDL.            bggm2021.dat:  MAGNETIC MODEL
 MMDD.       10 November, 2021:  MAG DATA DATE
 MDS .              Win MagUTM:  MAG DATA SOURCE
 LLGR.      Latitude/Longitude:  LLGROUP
 XYGR.     Australia/New Zealand Coordinate Systems:  XYGROUP
 WTYP.                Deviated:  WELL TYPE
 PDAT.          Mean Sea Level:  PERMANENT DATUM
 BASE.                   Perth:  LOGGING EQUIPMENT BASE LOCATION
 REGN.            Asia Pacific:  REGION
 CTRY.               Australia:  COUNTRY NAME
 FLD .             Perth Basin:  FIELD NAME
 SRVC.     Ensign Energy Services:  CONTRACTOR
 MWDS.                Jandakot:  MWD SHOP
 RIG .              Ensign 970:  RIG NAME
 DCON.         Sperry Drilling:  DIRECTNL CONTR
 UNIT.                11741669:  LOGGING EQUIPMENT ID
 CNTY.                        :  COUNTY
 PROV.                        :  PROVINCE
 STAT.                        :  STATE
 LOC .                        :  LOCATION
 DEP .m               0.000000:  DEPTH
 TVDS.m             101.180001:  TVDSS CORRECTN
 LATI.deg           -30.730083:  LATITUDE
 LONG.deg           115.478781:  LONGITUDE
 WHNS.m               0.000000:  WELL HEAD N/S
 WHEW.m               0.000000:  WELL HEAD E/W
 UTMX.m          354359.500000:  UTM X
 UTMY.m         6599322.900000:  UTM Y
 DFWL.m               0.000000:  DISTANCE FWL
 DFSL.m               0.000000:  DISTANCE FSL
 SDEP.m              73.999999:  START DEPTH
 TDD .m            3434.999857:  TOTAL DEPTH (DRILLER)
 VSDR.deg           243.910004:  VERT SEC DIRECT
 GVFD.g               1.000000:  GRAVITY FIELD
 MFLD.nT          57661.890625:  MAGNETIC FIELD
 MDIP.deg           -64.786583:  MAGNETIC DIP
 MDEC.deg            -1.367809:  MAGNETIC DECL
 GRDC.deg             0.777471:  GRID CORRECTION
 AZTC.deg            -2.145280:  AZM TOTAL CORR
 EPD .m              94.030000:  ELEVATION
 EGL .m              94.030000:  GROUND ELEVATION
 WDMS.m               0.000000:  WD ELEV
 APD .m               7.150000:  DEPTH ABOVE PD
 MMDE.m             -30.842712:  MAGUTM CALC DEP
 CMER.deg           117.000000:  CENTRL MERIDIAN
 AGAP.m               7.150000:  AIR GAP
 VSC .                       0:  VS TO CLOSURE
 MAGU.                 1390910:  MAGUTM CHECKSUM
~Curve Information Block
#MNEM.UNIT                 API CODE     Curve Description
#---------               -----------    ---------------------------
 DEPT.M                 00 000 000 000:  Depth
 ALPELC.                00 000 000 000:  ALD LCRB Pe Factor
 XBCS.uspf              00 000 000 000:  XBAT Comp Slowness
 RSPD.m/hr              00 000 000 000:  Running Speed
 PGRC.api               00 000 000 000:  PCG Gamma Ray BCorr
 XBEDX.in               00 000 000 000:  XCAL Eqv Hole Size Cor
 AFRSAC.ohmm             00 000 000 000:  AFR Shall Resistivity BC
 AFRMAC.ohmm             00 000 000 000:  AFR Medium Resistivity BC
 AFRDAC.ohmm             00 000 000 000:  AFR Deep Resistivity BC
 ALCDLC.g/cc            00 000 000 000:  ALD LCRB Comp Density
 TNPL.pu                00 000 000 000:  CTN Porosity Limestone
 ALDCLC.g/cc            00 000 000 000:  ALD LCRB Den Correction
 R09PC.ohmm             00 000 000 000:  9in Phase Resistivity BC
 R15PC.ohmm             00 000 000 000:  15in Phase Resistivity BC
 R27PC.ohmm             00 000 000 000:  27in Phase Resistivity BC
 R39PC.ohmm             00 000 000 000:  39in Phase Resistivity BC
 R09AC.ohmm             00 000 000 000:  9in Atten Resistivity BC
 R15AC.ohmm             00 000 000 000:  15in Atten Resistivity BC
 R27AC.ohmm             00 000 000 000:  27in Atten Resistivity BC
 R39AC.ohmm             00 000 000 000:  39in Atten Resistivity BC
 TVD .m                 00 000 000 000:  True Vertical Depth
#Other Information
#
#WARRANTY: Halliburton will use its best efforts to furnish customers with 
#accurate information and interpretations that are part of, and incident to, the services 
#provided.  However, Halliburton cannot and does not warrant the accuracy 
#or correctness of such information and interpretations.  Under no circumstances should any 
#such information or interpretation be relied upon as the sole basis for any drilling, 
#completion, production, or financial decision or any procedure involving any risk to the 
#safety of any drilling venture, drilling rig or its crew or any other third party.  The 
#Customer has full responsibility for all drilling, completion and production operation.  
#Halliburton makes no representations or warranties, either expressed or 
#implied, including, but not limited to, the implied warranties of merchantability or fitness 
#for a particular purpose, with respect to the services rendered.  In no event will 
#Halliburton be liable for failure to obtain any particular results or for 
#any damages, including, but not limited to, indirect, special or consequential damages, 
#resulting from the use of any information or interpretation provided by Halliburton.
#
~A   DEPT     ALPELC     XBCS      RSPD      PGRC      XBEDX     AFRSAC     AFRMAC     AFRDAC    ALCDLC     TNPL     ALDCLC     R09PC     R15PC     R27PC     R39PC     R09AC     R15AC     R27AC     R39AC      TVD    
# ...
   3071.0000    3.2162   83.7725   26.8366 -999.2500    8.9003    0.7614    4.1691    4.8171    2.5207   36.0152    0.0187    2.8363    3.6661    4.7520    5.2342    3.2152    5.9460    7.0742    5.7595 3047.1636
   3071.1000    3.7795   81.8597   27.1534 -999.2500    8.9449    0.7760    4.8868    5.0634    2.5269   38.4233   -0.0014    3.3789    3.8449    4.8237    5.2512    3.2809    4.3567    5.8985    5.6308 3047.2512
   3071.2000    4.0937   84.0507   28.2570 -999.2500    8.9449    0.6270    4.9518    4.6495    2.5431   39.3432    0.0116    3.3928    3.8778    4.6286    4.5218    3.4005    4.3712    4.9738    5.2469 3047.3518
   3071.3000    4.4565   88.0300   26.5802 -999.2500    8.9449    0.5268    4.3239    4.7846    2.5744   39.5773    0.0450    2.4895    2.8871    3.3831    3.6052    2.8296    3.5617    3.9434    4.6464 3047.4500
   3071.4000    4.5282   87.2760   22.6602 -999.2500    9.4973    0.5320    4.2501    4.9342    2.6008   38.7755    0.0742    2.1699    2.3923    2.6562    3.1115    2.4844    3.0867    3.3625    4.1362 3047.5371
   3071.5000    3.5924   87.5356   19.7160 -999.2500    9.4973    0.5138    3.8788    4.6021    2.5825   39.6805    0.0690    2.1179    2.1537    2.2493    2.7391    2.1454    2.6276    2.9031    3.7032 3047.6382
   3071.6000    3.4460   95.2009   25.3101 -999.2500    9.4973    0.5125    3.8600    4.9011    2.5426   41.0083    0.0988    1.5870    1.4953    1.4968    2.0222    1.3596    1.5601    2.0599    3.2057 3047.7256
   3071.7000    3.9571   95.0892   27.4713 -999.2500    9.4616    0.5129    3.7895    4.9877    2.4534   44.2307    0.0758    1.2493    1.3959    1.6922    2.0790    1.0080    1.3571    2.3249    3.3765 3047.8218
   3071.8000    3.8378   92.7974   27.9234 -999.2500    9.4616    0.4244    2.8139    4.1038    2.4245   40.9310    0.0720    1.9036    3.3043    5.2882    6.0382    1.0052    3.0027    8.6020    6.8538 3047.9255
   3071.9000    3.4703   90.6047   26.7751 -999.2500    9.4616    0.3935    2.5124    3.8679    2.4256   38.4999    0.0576    2.4163    5.0371    5.5902    9.0116    1.6519  121.6571  123.0386   11.0615 3048.0112
   3072.0000    3.4449   88.8153   27.2348 -999.2500    9.0480    0.4141    3.1349    4.1160    2.4098   42.6384    0.0044    2.7971    6.9483    8.9045   11.9097    2.0714  139.0557  127.8121   10.7880 3048.1089
   3072.1000    3.1009   87.4762   24.9690 -999.2500    9.0480    0.4350    3.5118    4.3556    2.4210   43.8980   -0.0121    3.0488    7.8891   12.1801   12.3937    2.1554   47.6066   30.5813    7.3316 3048.2107
   3072.2000    3.2421   86.8764   11.5980 -999.2500    9.0480    0.4904    4.1515    5.1006    2.4601   42.6703   -0.0172    2.9433    5.6416    6.1101    6.1202    2.3967    7.4398    8.1108    5.5872 3048.2981
   3072.3000    3.3578   84.5521   23.4733 -999.2500    9.2437    0.5395    4.8404    5.8665    2.5284   37.6687    0.0017    2.1901    2.9456    3.1915    3.4889    1.9970    2.7147    4.1968    4.5644 3048.3965
   3072.4000    3.3220   84.0785   28.3623 -999.2500    9.2437    0.5053    4.7445    5.7796    2.5567   36.3486    0.0340    2.4426    2.9218    3.2281    3.9597    1.8705    2.6528    3.7350    4.8172 3048.4861
   3072.5000    3.2421   84.3556   26.8264 -999.2500    9.2437    0.4460    4.4025    5.2269    2.5343   35.9178    0.0536    1.9829    2.8741    2.9617    3.8250    1.6045    3.2239    3.6012    4.8955 3048.5847
   3072.6000    3.3361   84.1825   26.7143 -999.2500    8.8567    0.4352    4.3084    5.0330    2.5065   35.5332    0.0275    1.5655    2.4621    2.8381    3.7832    1.4666    3.0142    3.4803    4.7782 3048.6826
   3072.7000    3.4672   84.0816   25.6432 -999.2500    8.8567    0.4028    3.7296    4.2556    2.4979   38.0071   -0.0181    2.0742    3.0380    3.8001    4.8848    1.5539    3.0134    4.3273    5.5691 3048.7734
   3072.8000    3.5716   82.9858   21.4637 -999.2500    8.8567    0.4270    3.7721    4.2354    2.4949   37.6665   -0.0236    2.8446    4.1274    5.1959    6.5585    1.6798    3.5090    5.9025    7.1061 3048.8672
   3072.9000    3.5546   81.4204   26.6473 -999.2500    9.0269    0.4944    4.2274    4.7026    2.5382   34.3760   -0.0090    2.4010    5.5462    4.5596    6.9401    1.6748   20.4305   10.7641    9.6422 3048.9697
   3073.0000    3.4749   74.5111   20.8048 -999.2500    9.0269    0.5334    4.6380    5.0289    2.5861   33.9717    0.0027    4.1153   11.5711    7.9491   13.1334    2.9247  140.9169   37.1310   12.0463 3049.0554
   3073.1000    3.3765   74.4124   20.7858 -999.2500    9.0269    0.6321    5.6095    5.8547    2.5518   33.2878   -0.0090    4.0995    9.9541    7.6127   10.8694    3.3210  104.5251   29.3595   10.1139 3049.1589
   3073.2000    2.6562   76.6003   26.0271 -999.2500    9.0277    0.9613    7.1496    7.4795    2.5590   31.8297    0.0094    2.5801    4.4455    4.7559    5.1812    2.6463    6.3941    7.5663    7.2101 3049.2451
   3073.3000    3.0024   71.6687   27.2379 -999.2500    9.0277    1.3271    6.8731    7.2633    2.5520   30.4763   -0.0029    3.5574   21.9946   56.5377   11.2568    2.6441   34.0728   35.7127    8.3651 3049.3423
   3073.4000    3.0689   67.2667   28.2843 -999.2500    9.0277    1.4955    5.8771    5.8645    2.5601   30.2442    0.0190   12.9195  107.8333  291.8141   40.5182    6.3721  170.5716  168.7578   13.4477 3049.4451
   3073.5000    3.2343   69.5676   27.0738 -999.2500    9.8674    2.2100    9.5673    9.5224    2.5611   30.2466    0.0391    4.1738   22.2921   56.9563   11.5926    2.9257   34.9547   35.6187    7.9899 3049.5295
   3073.6000    3.6387   70.2150   28.7216 -999.2500    9.8674    2.8928   12.6123   13.5272    2.5311   25.5103    0.0143    2.7633    4.2555    6.2691   13.0183    2.2648    5.0677    6.4458    8.0375 3049.6323
   3073.7000    2.3133   70.8491   27.1914 -999.2500    9.8674    3.1817   14.9558   15.5460    2.5155   21.9211    0.0141    4.8338   10.0328   22.2667   19.6465    2.8399   10.3649   12.2027    9.5949 3049.7195
   3073.8000    3.4235   71.7297   26.5938 -999.2500    9.6229    4.0051   26.0081   27.1877    2.5793   19.1961    0.0541    5.8316   13.4749   30.3660   19.4104    3.1729   13.9772   16.0355   10.0023 3049.8167
   3073.9000    3.7057   73.3289   21.8011 -999.2500    9.6229    4.1370   38.0787   39.8918    2.5801   18.7537    0.0705    3.9690    9.6380   13.8438   12.5234    2.7859   13.5132   13.1684    8.9725 3049.9187
   3074.0000    3.7068   75.5784   20.8303 -999.2500    9.6229    4.6078   52.1134   53.8133    2.5790   18.8777    0.0910    4.6295  112.0705   28.5389   14.5366    3.4427   43.9220   19.4480   10.5009 3050.0042
   3074.1000    3.7494   78.3169   28.0858 -999.2500    9.1408    5.5943   49.1841   51.6764    2.5841   19.7894    0.1081    8.1446 1059.9780  183.2091   38.0485    6.4424  162.2869   38.5090   12.5194 3050.1074
   3074.2000    3.4941   81.7099   27.1832 -999.2500    9.1408    5.4574   27.1474   29.8841    2.5382   24.9782    0.0795    7.1679  565.8383  102.8985   24.8608    6.3991  200.9169   34.2837   11.0690 3050.1938
   3074.3000    2.8863   84.0166   27.2347 -999.2500    9.1408    6.4454   16.6819   17.1629    2.5185   28.8748    0.0442    4.9353   15.9706   11.5873    9.0917    4.9915  124.6519   20.2342    8.9956 3050.2910
   3074.4000    2.9492   81.0725   28.2804 -999.2500    9.1627    6.2643   10.0596    9.6915    2.5093   34.2562    0.0415    3.6925    7.3865    7.3488    6.6453    3.8779   22.0548   10.3573    8.0032 3050.3931
   3074.5000    2.9904   81.1917   27.0527 -999.2500    9.1627    5.3246    7.7720    7.5929    2.4985   35.6152    0.0440    3.0251    4.3440    5.1193    5.6181    3.3497    6.3678    7.9354    7.7194 3050.4788
   3074.6000    3.0629   81.8963   28.0622 -999.2500    9.1627    4.0737    6.6962    6.3970    2.4932   35.0747    0.0461    3.1035    4.6988    5.4957    5.7733    3.9792    7.6644    8.8553    8.0421 3050.5820
   3074.7000    3.3638   82.9352   22.0933 -999.2500   10.0600    2.9642    6.0393    5.7073    2.4985   34.2422    0.0455    2.5672    3.6364    4.7961    5.5500    3.5960    7.1090    8.1078    7.6567 3050.6685
