~Version Information
 VERS.                  2.0:   CWLS log ASCII Standard -VERSION 2.0
 WRAP.                   NO:   One line per depth step
~Well Information Block
#MNEM.UNIT     VALUE/NAME     DESCRIPTION
#---------     -----------    ---------------------------
 STRT.M              2355.0000: START DEPTH
 STOP.M              3523.6000: STOP DEPTH
 STEP.M                 0.1000: STEP DEPTH
 NULL.               -999.2500: NULL VALUE
 XYGR.     Australia/New Zealand Coordinate Systems:  XYGROUP
 LLGR.      Latitude/Longitude:  LLGROUP
 CREF.     Datum Geocentric Datum of Austra:  CART REFERENCE
 GREF.     Ellipsoid World Geodetic System :  GEO REFERENCE
 CGSY.             SS GDA94-50:  CART GRID SYS
 GGSY.                      LL:  GEO GRID SYS
 CCDE.     UTM Zone 50S on Geocentric Datum of Australia 1994, Meters:  CART COORD DESC
 GCDE.     Generic Lat/Long's, Degrees, -180 ==> +180:  GEO COORD DESC
 UWI .                 W006107:  UNIQUE WELL IDENTIFIER
 API .                 W006107:  API NUMBER
 UNIT.                11741669:  LOGGING EQUIPMENT ID
 DCON.        Sperry Drilling :  DIRECTNL CONTR
 RIG .              Ensign 970:  RIG NAME
 MWDS.                Jandakot:  MWD SHOP
 SRVC.     Ensign Energy Services:  CONTRACTOR
 FLD .               Walyering:  FIELD NAME
 CTRY.               Australia:  COUNTRY NAME
 PROV.       Western Australia:  PROVINCE
 STAT.       Western Australia:  STATE NAME
 REGN.            Asia Pacific:  REGION
 BASE.                   Perth:  LOGGING EQUIPMENT BASE LOCATION
 WTYP.                Vertical:  WELL TYPE
 PDAT.          Mean Sea Level:  PERMANENT DATUM
 MDS .              Win MagUTM:  MAG DATA SOURCE
 MMDD.          22 April, 2022:  MAG DATA DATE
 MMDL.            bggm2021.dat:  MAGNETIC MODEL
 SON .        PA-XX-0907756569:  JOB NUMBER
 COMP.     Strike South West Pty Ltd:  COMPANY
 WELL.             Walyering 6:  WELL NAME
 FTOP.          Formation Tops:  FORM TOPS DESC
 ILTD.               Lithology:  INTERP LTH DESC
 SVYD.                  Survey:  SURVEY DESC
 DMOD.             Drill Model:  DRILL MOD DESC
 HPTY.       Minimum Curvature:  HOLE POS TYPE
 NREF.                    Grid:  NORTH REFERENCE
 SPUD.               25-Apr-22:  SPUD DATE
 DATE.      12.00.00 13-May-22:  END TIME
 STIM.      17.00.00 24-Apr-22:  START TIME
 DMF .             Drill Floor:  DRILL MEAS FROM
 DFST.                        :  DIST FSL TEXT
 DFWT.                        :  DIST FWL TEXT
 CNTY.                        :  COUNTY
 LOC .                        :  LOCATION
 LMF .             Drill Floor:  LOG MEASURED FROM
 CMER.deg           117.000000:  CENTRL MERIDIAN
 DEP .m               0.000000:  DEPTH
 AGAP.m               7.160000:  AIR GAP
 MMDE.m             -31.623000:  MAGUTM CALC DEP
 APD .m               7.160000:  DEPTH ABOVE PD
 WDMS.m               0.000000:  WD ELEV
 EGL .m              96.589993:  GROUND ELEVATION
 EPD .m              96.589993:  ELEVATION
 AZTC.deg            -2.153514:  AZM TOTAL CORR
 GRDC.deg             0.779280:  GRID CORRECTION
 MDEC.deg            -1.374234:  MAGNETIC DECL
 MDIP.deg           -64.762985:  MAGNETIC DIP
 MFLD.nT          57671.410156:  MAGNETIC FIELD
 GVFD.g               1.000000:  GRAVITY FIELD
 VSDR.deg             0.000000:  VERT SEC DIRECT
 TDD .m            3551.000070:  TOTAL DEPTH (DRILLER)
 SDEP.m              74.999999:  START DEPTH
 DFSL.m               0.000000:  DISTANCE FSL
 DFWL.m               0.000000:  DISTANCE FWL
 UTMY.m         6601158.480000:  UTM Y
 UTMX.m          353924.590000:  UTM X
 WHEW.m               0.000000:  WELL HEAD E/W
 WHNS.m               0.000000:  WELL HEAD N/S
 LONG.deg           115.474500:  LONGITUDE
 LATI.deg           -30.713472:  LATITUDE
 TVDS.m             103.749993:  TVDSS CORRECTN
 EKB .m             103.750002:  KB ELEVATION
 EDF .m             103.750002:  DF ELEVATION
 TDL .m            1189.000020:  TOTAL DEPTH (LOGGER)
 CSGD.m            2359.000046:  CASING BOTTOM (DRILLER)
 CSGL.m            2359.000046:  CASING BOTTOM (LOGGER)
 CSGS.mm            244.474994:  CASING SIZE
 CSGW.kgpm           69.942862:  CASING WEIGHT
 MAGU.                 1391237:  MAGUTM CHECKSUM
 VSC .                       1:  VS TO CLOSURE
~Parameter Information Block
#MNEM.UNIT       Value        Description
#---------     -----------    ---------------------------
 AV  .mps             2.550000:  Ann Velocity 
 AVMX.mps             2.933333:  Max Ann Veloc 
 AZIF.deg             4.250000:  Azm, Final 
 BHAT.               Mud Motor:  BHA Type 
 BREV.krev         1163.365845:  Rev Bit Total 
 BROT.°/30m           0.050000:  Build Rotating 
 BS  .mm            215.899994:  Bit Size 
 BSZ .mm            215.899994:  Bit Size 
 BTPL.kPag         3033.715332:  Bit Press Loss 
 CABU.                      No:  Customer Abuse 
 CGEO.             Dan Walding:  Customer Geo 
 COMM.                     ì¿q:  Run Comments 1 
 TCS .hr            105.300003:  Time Ciculation Ended 
 CV  .mps             4.283333:  Crit Velocity 
 CVMX.mps             4.600000:  Max Crit Veloc 
 DD1 .     Christian Arrindell:  Direct Drillr 1 
 DD2 .            Ivan Tutynin:  Direct Drillr 2 
 DDSV.               Mud Motor:  DD Service 
 DEFF.%              95.000000:  % Det Eff 
 DLRX.°/30m           1.280000:  Dogleg Rot Max 
 DLSO.°/30m           1.400000:  Dogleg Oriented 
 DLSX.°/30m           2.000000:  Dogleg Str Max 
 DRET.      00.30.00 12-May-22:  Drill End Time 
 DRST.      19.30.00 07-May-22:  Drill Start Tim 
 DTIM.hr             80.400002:  Time Drilling 
 EDEP.m            3551.000000:  End Depth 
 ENG1.            Ade Suhendar:  Engineer 1 
 ENG2.        Yiek Chong Leong:  Engineer 2 
 ENG3.           Sufyan Zainal:  Engineer 3 
 ETIM.      23.45.00 12-May-22:  End Time 
 FLOI.m3pm            2.035733:  Flow In 
 FLON.m3pm            1.324854:  Flow In Min 
 FLOS.mptm            4.000000:  Fluid Loss 
 FLOX.m3pm            2.119767:  Flow In Max 
 DFT .                 Polymer:  Mud Type 
 FTRO.       Formation Presure:  FTWD Run Obj 
 HFLO.                      No:  High Flow 
 HPRE.                      No:  High Pressure 
 HTEM.                      No:  High Temp 
 HYDO.m               2.500000:  Hydro Offset 
 IFIN.deg             1.860000:  Inc, Final 
 IMAX.deg             5.744654:  Inc Max 
 IMIN.deg             0.433048:  Inc Min 
 IMND.m            2565.059814:  Inc Min Depth 
 IMXD.m            2364.389893:  Inc Max Depth 
 JARR.                      No:  Jarring 
 LETM.      00.30.00 12-May-22:  Log End Time 
 LOST.hr                     0:  Lost Rig Time 
 LSTM.      19.30.00 07-May-22:  Log Start Time 
 MDCL.ppm         79803.000000:  Mud Chlorides 
 MDES.             Fresh Water:  Mud Desc 
 DFD .kg/m3        1138.351074:  Mud Density 
 MDMN.kg/m3        1114.385986:  Dens Mud Min 
 MDMX.kg/m3        1150.333862:  Dens Mud Max 
 PH  .pH             10.100000:  Mud pH 
 MOIL.                       0:  Run Mud Oil % 
 MOWR.                   0 100:  Run Mud OWR 
 MSND.                     0.2:  Run Mud Sand % 
 MSOL.                     4.6:  Run Mud Solids% 
 MTV .                GeoForce:  Motor Variant 
 DFV .spl            82.445999:  Mud Viscosity 
 MWOD.mm            171.449997:  MWD Tool OD 
 MWSI.                      No:  Serv Intrp, MWD 
 OTIM.hr            146.500000:  Time Operating 
 PCON.          Wear / Scratch:  Pad Condition 
 PMAX.kPag        35887.472656:  Press Op, Max 
 PV  .mPsec          40.000000:  Mud PV 
 RMS .ohmm            0.606000:  Mud Resistivity 
 RMCS.ohmm            0.076000:  Mud Cake Resistivity 
 MCST.degC           19.830000:  Mud Cake Sample Temperature 
 RMFS.ohmm            0.050000:  Mud Filtrate Resistivity 
 RMFT.degC           21.499998:  Mud Filtrate Sample Temperature 
 RMMT.ohmm            0.266500:  Rm @ Max Temp 
 MST .degC           21.000002:  Mud Sample Temperature 
 RUN .                     300:  Run Number 
 ROPA.m/hr           14.790000:  ROP Avg 
 ROPN.m/hr            1.870000:  ROP Min 
 ROPX.m/hr           32.700001:  ROP Max 
 RPMA.rpm            52.500000:  RPM Surface Avg 
 RPMN.rpm            30.000000:  RPM Surface Min 
 RPMX.rpm            60.000000:  RPM Surface Max 
 RRUN.                       3:  Rig Run Number 
 RTIM.hr              8.510000:  Time Reaming 
 SAZI.deg           199.820007:  Azm, Start 
 SDEP.m            2362.000000:  Start Depth 
 SIDD.                      No:  Serv Intrp, DD 
 SINC.deg             5.740000:  Inc, Start 
 SPPA.kPag        17754.474609:  SPP Avg 
 SPPN.kPag        10893.795898:  SPP Min 
 SPPX.kPag        22063.382813:  SPP Max 
 STIM.      21.15.00 06-May-22:  Start Time 
 SVCS.                 DD, MWD:  Services 
 SVER.                9.200000:  Sperry Version 
 TDAT.m            1189.000000:  Tot Depth Attmp 
 TDDF.                      No:  Trip for DD 
 TDLG.m            1189.000000:  Tot Depth Loggd 
 TFF .                      No:  Trip for Fail 
 TQAA.kN-m            0.013558:  Torque Abs Avg 
 TQAN.kN-m            0.004067:  Torque Abs Min 
 TQAX.kN-m            0.024405:  Torque Abs Max 
 TRRT.°/30m           0.860000:  Turn Rotating 
 MRT .                  EWR-P4:  Maximum Recorded Temperature 
 TTMX.degC           75.199997:  Max Tool Temp 
 VS01.                12278995:  Virtual Str1 SN 
 VS02.                12394165:  Virtual Str2 SN 
 VS03.                13686255:  Virtual Str3 SN 
 VS04.                90681167:  Virtual Str4 SN 
 VS05.                90683981:  Virtual Str5 SN 
 VS06.                90683974:  Virtual Str6 SN 
 VS07.                90683978:  Virtual Str7 SN 
 VS08.                90683983:  Virtual Str8 SN 
 VS09.                13531224:  Virtual Str9 SN 
 WBMN.kdN             2.668932:  WOB Min 
 WITN.          Peter Clarkson:  Customer Rep 2 
 WITN.        Shaughan Corless:  Customer Rep 
 WOBA.kdN             7.045982:  WOB Avg 
 WOBX.kdN            10.675730:  WOB Max 
 YP  .pa             14.364045:  Yield Point 
~Curve Information Block
#MNEM.UNIT                 API CODE     Curve Description
#---------               -----------    ---------------------------
 DEPT.M                 00 000 000 000:  Depth
 AFRSAC.ohmm            00 000 000 000:  AFR Shallow Avg Res BC
 AFRMAC.ohmm            00 000 000 000:  AFR Medium Avg Res BC
 AFRDAC.ohmm            00 000 000 000:  AFR Deep Avg Res BC
#Other Information
#
#WARRANTY: Halliburton will use its best efforts to furnish customers with 
#accurate information and interpretations that are part of, and incident to, the services 
#provided.  However, Halliburton cannot and does not warrant the accuracy 
#or correctness of such information and interpretations.  Under no circumstances should any 
#such information or interpretation be relied upon as the sole basis for any drilling, 
#completion, production, or financial decision or any procedure involving any risk to the 
#safety of any drilling venture, drilling rig or its crew or any other third party.  The 
#Customer has full responsibility for all drilling, completion and production operation.  
#Halliburton makes no representations or warranties, either expressed or 
#implied, including, but not limited to, the implied warranties of merchantability or fitness 
#for a particular purpose, with respect to the services rendered.  In no event will 
#Halliburton be liable for failure to obtain any particular results or for 
#any damages, including, but not limited to, indirect, special or consequential damages, 
#resulting from the use of any information or interpretation provided by Halliburton.
#
~A   DEPT      AFRSAC     AFRMAC     AFRDAC   
# ...
   2424.6000    43.9661    46.1039    50.6607
   2424.7000    42.6302    45.5127    49.5618
   2424.8000    40.6434    44.0231    47.7343
   2424.9000    39.2304    42.5491    46.2579
   2425.0000    38.6786    41.0808    45.2124
   2425.1000    36.6120    37.8590    42.1362
   2425.2000    34.2291    34.9599    39.5492
   2425.3000    32.7494    33.2237    38.7463
   2425.4000    33.8667    34.4030    41.1279
   2425.5000    35.1777    37.0474    43.8941
   2425.6000    35.3030    39.8669    44.9045
   2425.7000    35.2935    41.6681    45.4438
   2425.8000    35.3101    42.1350    45.7494
   2425.9000    34.9933    41.6180    45.2204
   2426.0000    34.0456    39.9602    43.2924
   2426.1000    33.5332    38.5910    41.6316
   2426.2000    33.2672    37.4423    40.3112
   2426.3000    33.7901    37.6885    40.2710
   2426.4000    35.5973    39.4136    42.2097
   2426.5000    38.5040    42.4703    45.9340
   2426.6000    43.5201    47.6575    52.7370
   2426.7000    49.4886    54.0122    61.0523
   2426.8000    55.9479    61.1913    70.2034
   2426.9000    59.4589    64.8099    75.1423
   2427.0000    56.5191    61.3093    71.4604
   2427.1000    55.1475    60.5096    69.9853
   2427.2000    60.6946    68.4681    78.8354
   2427.3000    70.0358    84.8768    95.6429
   2427.4000    82.0014   106.3164   119.1742
   2427.5000    80.5380   108.3804   119.5454
   2427.6000    73.2825   105.6613   114.7246
   2427.7000    54.3468    93.8265   101.4394
   2427.8000    38.6886    75.4448    81.6882
   2427.9000    31.5708    60.0160    65.6357
   2428.0000    28.9125    54.1886    60.4112
   2428.1000    28.7178    55.1375    61.8054
   2428.2000    29.6358    61.3171    68.0281
   2428.3000    28.2292    68.0406    73.6083
   2428.4000    26.4175    78.4854    83.3170
   2428.5000    22.3319    92.1941    98.4175
   2428.6000    18.3109   103.5477   112.2797
   2428.7000    15.3160    97.4239   108.6254
   2428.8000    12.8211    81.1658    90.6787
   2428.9000    11.6510    71.1139    80.9760
   2429.0000    11.3712    66.7781    77.5082
   2429.1000    11.6536    68.5176    81.2688
   2429.2000    12.0301    76.1800    91.8662
   2429.3000    12.0796    89.8618   108.8382
   2429.4000    11.6915   106.1483   128.7971
   2429.5000    10.9116   115.7281   142.3711
   2429.6000    10.0348   116.0615   144.1768
   2429.7000     9.2515   112.6441   140.5980
   2429.8000     8.7452   110.3856   139.4416
   2429.9000     8.6647   110.4742   140.0093
   2430.0000     8.8193   106.6929   133.6255
   2430.1000     9.4293   103.7837   127.9893
   2430.2000    10.2664   100.0744   121.3357
   2430.3000    11.1801    95.0693   112.3949
   2430.4000    12.2939    90.1328   105.4734
   2430.5000    13.6857    85.4355    99.8265
   2430.6000    15.1425    81.4635    95.6391
   2430.7000    16.0201    79.7592    92.5557
   2430.8000    16.1624    80.1866    93.8417
   2430.9000    15.1772    82.6533    97.5219
   2431.0000    13.7597    90.4444   107.5712
   2431.1000    12.5227    98.3454   117.2020
   2431.2000    11.5218   108.9947   131.0358
   2431.3000    10.5975   114.8568   140.3675
   2431.4000     9.8295   114.8153   140.9783
   2431.5000     9.3839   109.9534   133.4446
   2431.6000     9.3172    99.2695   119.3217
   2431.7000     9.5388    87.2855   104.3858
   2431.8000     9.9844    79.7776    94.9016
   2431.9000    10.7129    78.4141    92.7411
   2432.0000    11.9131    80.5960    94.6580
   2432.1000    13.9637    83.8850    97.7836
   2432.2000    16.7760    87.1400   101.3907
   2432.3000    19.4884    87.6145   101.1540
   2432.4000    21.1490    86.3092    98.5264
   2432.5000    20.4871    81.5991    94.6280
   2432.6000    19.0332    80.4554    95.4513
   2432.7000    16.2690    82.0602    98.8045
   2432.8000    13.5660    87.8788   106.0407
   2432.9000    11.6730    93.3128   111.6729
   2433.0000    10.2441    93.4036   111.6276
   2433.1000     9.3787    96.2025   114.7708
   2433.2000     8.9747    97.9188   117.0976
   2433.3000     9.0268   100.1383   120.6422
   2433.4000     9.4424   102.2276   128.4592
   2433.5000     9.6963   106.6452   138.4376
   2433.6000     9.4417   107.0309   140.5265
   2433.7000     9.2188   103.0978   132.6405
   2433.8000     9.1960    96.0764   116.9283
   2433.9000     9.5373    93.3714   108.7927
   2434.0000    10.0029   100.1784   113.9079
   2434.1000    10.7327   113.4187   130.7298
   2434.2000    12.2026   123.0203   147.1914
   2434.3000    14.6985   113.7759   140.8459
   2434.4000    18.4685    95.9777   121.6241
   2434.5000    22.7960    82.2366   104.6067
   2434.6000    27.1580    81.3417   103.4366
   2434.7000    33.2406   100.5104   127.8525
   2434.8000    40.6894   135.2289   169.3778
   2434.9000    47.8911   164.5636   203.5721
   2435.0000    48.8738   152.4649   186.7193
   2435.1000    33.5888    97.0791   120.3577
   2435.2000    20.9965    63.7138    79.5285
   2435.3000    15.5066    55.4678    70.0559
   2435.4000    12.3848    60.5327    76.9762
   2435.5000    10.4632    80.8915   105.0639
   2435.6000     8.9472   108.4603   142.5611
   2435.7000     7.8797   120.8865   158.1474
   2435.8000     7.4749   122.3057   159.1094
   2435.9000     7.4534   113.4046   146.9366
   2436.0000     7.5646    99.0040   130.3363
   2436.1000     7.8727    89.2218   120.1808
   2436.2000     8.2377    85.9798   118.3620
   2436.3000     8.4738    88.1553   121.8615
   2436.4000     8.6028    93.0475   126.5883
   2436.5000     8.5817    91.7671   121.9405
   2436.6000     8.3383    83.9511   108.4273
   2436.7000     7.9364    76.9562    96.7106
   2436.8000     7.5855    74.2264    91.7855
   2436.9000     7.5807    76.1297    93.7619
   2437.0000     7.7934    81.2859   101.6627
   2437.1000     7.8290    86.4686   112.2151
   2437.2000     7.3493    91.2085   122.2538
   2437.3000     6.7007    96.0572   130.8093
   2437.4000     6.1427    98.5932   131.6349
   2437.5000     5.7338    96.1590   124.7373
   2437.6000     5.3869    91.4973   115.6254
   2437.7000     5.0879    88.0020   110.9042
   2437.8000     5.0595    91.0195   115.4942
   2437.9000     5.3425    95.7978   122.4343
   2438.0000     5.8131    99.3112   127.8027
   2438.1000     6.1911   104.0244   131.7218
   2438.2000     6.2394   107.8773   133.0709
   2438.3000     6.2745   107.4378   131.5290
   2438.4000     6.4310    99.2011   120.1306
   2438.5000     6.7251    87.5167   108.7336
   2438.6000     6.6631    80.4497   104.7975
   2438.7000     6.2863    78.6908   110.8438
   2438.8000     6.0310    84.2663   126.0379
   2438.9000     6.0192    94.3731   143.3537
   2439.0000     6.2283   106.7539   155.1371
   2439.1000     6.3539   114.7286   160.3968
   2439.2000     6.3994   117.1033   163.3554
   2439.3000     6.6461   117.4197   164.2998
   2439.4000     7.0813   115.3099   162.9388
   2439.5000     7.5100   112.6577   159.7036
   2439.6000     7.7381   106.1361   148.8524
   2439.7000     7.8018    93.7193   127.3058
   2439.8000     8.1003    80.6307   104.1923
   2439.9000     8.6125    73.3459    91.4937
   2440.0000     9.1392    76.5608    92.7834
   2440.1000     9.5017    85.5036   102.8328
   2440.2000     9.8691    94.3288   114.3290
   2440.3000    10.2980    94.8067   116.1576
   2440.4000    10.6800    92.7915   113.5969
   2440.5000    10.5775    91.6307   105.9712
   2440.6000    10.5059    89.5986   100.9641
   2440.7000    10.3912    85.7988   100.8955
   2440.8000    10.1890    81.9456   108.2643
   2440.9000     9.7072    79.8883   120.4633
   2441.0000     8.8230    81.6184   128.1547
   2441.1000     8.1004    87.1909   133.0978
   2441.2000     7.8821    98.8234   139.0308
   2441.3000     7.8978   107.9000   145.8179
   2441.4000     8.6955   106.8633   147.4593
   2441.5000    10.3022    98.7109   143.8358
   2441.6000    12.3409    93.8950   139.8178
   2441.7000    12.9180    96.4120   137.0548
   2441.8000    11.3593   101.4942   135.6954
   2441.9000     9.2717   103.1744   133.0019
