~Version Information
 VERS.                  2.0:   CWLS log ASCII Standard -VERSION 2.0
 WRAP.                   NO:   One line per depth step
~Well Information Block
#MNEM.UNIT     VALUE/NAME     DESCRIPTION
#---------     -----------    ---------------------------
 STRT.M              2900.0000: START DEPTH
 STOP.M              3434.8000: STOP DEPTH
 STEP.M                 0.1000: STEP DEPTH
 NULL.               -999.2500: NULL VALUE
 UWI .                 W006102:  UNIQUE WELL IDENTIFIER
 API .                 W006102:  API NUMBER
 DFWT.                        :  DIST FWL TEXT
 DFST.                        :  DIST FSL TEXT
 DMF .             Drill Floor:  DRILL MEAS FROM
 STIM.      12.00.00 12-Nov-21:  START TIME
 DATE.      08.19.12 13-Dec-21:  END TIME
 SPUD.               14-Nov-21:  SPUD DATE
 NREF.                    Grid:  NORTH REFERENCE
 HPTY.       Minimum Curvature:  HOLE POS TYPE
 DMOD.             Drill Model:  DRILL MOD DESC
 SVYD.                  Survey:  SURVEY DESC
 ILTD.               Lithology:  INTERP LTH DESC
 FTOP.          Formation Tops:  FORM TOPS DESC
 WELL.             Walyering 5:  WELL NAME
 COMP.     Strike South West Pty Ltd:  COMPANY
 SON .        PA-XX-0907373664:  JOB NUMBER
 GCDE.     Generic Lat/Long's, Degrees, -180 ==> +180:  GEO COORD DESC
 CCDE.     UTM Zone 50S on Geocentric Datum of Australia 1994, Meters:  CART COORD DESC
 GGSY.                      LL:  GEO GRID SYS
 CGSY.             SS GDA94-50:  CART GRID SYS
 GREF.     Ellipsoid World Geodetic System :  GEO REFERENCE
 CREF.     Datum Geocentric Datum of Austra:  CART REFERENCE
 MMDL.            bggm2021.dat:  MAGNETIC MODEL
 MMDD.       10 November, 2021:  MAG DATA DATE
 MDS .              Win MagUTM:  MAG DATA SOURCE
 LLGR.      Latitude/Longitude:  LLGROUP
 XYGR.     Australia/New Zealand Coordinate Systems:  XYGROUP
 WTYP.                Deviated:  WELL TYPE
 PDAT.          Mean Sea Level:  PERMANENT DATUM
 BASE.                   Perth:  LOGGING EQUIPMENT BASE LOCATION
 REGN.            Asia Pacific:  REGION
 CTRY.               Australia:  COUNTRY NAME
 FLD .             Perth Basin:  FIELD NAME
 SRVC.     Ensign Energy Services:  CONTRACTOR
 MWDS.                Jandakot:  MWD SHOP
 RIG .              Ensign 970:  RIG NAME
 DCON.         Sperry Drilling:  DIRECTNL CONTR
 UNIT.                11741669:  LOGGING EQUIPMENT ID
 CNTY.                        :  COUNTY
 PROV.                        :  PROVINCE
 STAT.                        :  STATE
 LOC .                        :  LOCATION
 DEP .m               0.000000:  DEPTH
 TVDS.m             101.180001:  TVDSS CORRECTN
 LATI.deg           -30.730083:  LATITUDE
 LONG.deg           115.478781:  LONGITUDE
 WHNS.m               0.000000:  WELL HEAD N/S
 WHEW.m               0.000000:  WELL HEAD E/W
 UTMX.m          354359.500000:  UTM X
 UTMY.m         6599322.900000:  UTM Y
 DFWL.m               0.000000:  DISTANCE FWL
 DFSL.m               0.000000:  DISTANCE FSL
 SDEP.m              73.999999:  START DEPTH
 TDD .m            3434.999857:  TOTAL DEPTH (DRILLER)
 VSDR.deg           243.910004:  VERT SEC DIRECT
 GVFD.g               1.000000:  GRAVITY FIELD
 MFLD.nT          57661.890625:  MAGNETIC FIELD
 MDIP.deg           -64.786583:  MAGNETIC DIP
 MDEC.deg            -1.367809:  MAGNETIC DECL
 GRDC.deg             0.777471:  GRID CORRECTION
 AZTC.deg            -2.145280:  AZM TOTAL CORR
 EPD .m              94.030000:  ELEVATION
 EGL .m              94.030000:  GROUND ELEVATION
 WDMS.m               0.000000:  WD ELEV
 APD .m               7.150000:  DEPTH ABOVE PD
 MMDE.m             -30.842712:  MAGUTM CALC DEP
 CMER.deg           117.000000:  CENTRL MERIDIAN
 AGAP.m               7.150000:  AIR GAP
 VSC .                       0:  VS TO CLOSURE
 MAGU.                 1390910:  MAGUTM CHECKSUM
~Curve Information Block
#MNEM.UNIT                 API CODE     Curve Description
#---------               -----------    ---------------------------
 DEPT.M                 00 000 000 000:  Depth
 ALPELC.                00 000 000 000:  ALD LCRB Pe Factor
 XBCS.uspf              00 000 000 000:  XBAT Comp Slowness
 RSPD.m/hr              00 000 000 000:  Running Speed
 PGRC.api               00 000 000 000:  PCG Gamma Ray BCorr
 XBEDX.in               00 000 000 000:  XCAL Eqv Hole Size Cor
 AFRSAC.ohmm             00 000 000 000:  AFR Shall Resistivity BC
 AFRMAC.ohmm             00 000 000 000:  AFR Medium Resistivity BC
 AFRDAC.ohmm             00 000 000 000:  AFR Deep Resistivity BC
 ALCDLC.g/cc            00 000 000 000:  ALD LCRB Comp Density
 TNPL.pu                00 000 000 000:  CTN Porosity Limestone
 ALDCLC.g/cc            00 000 000 000:  ALD LCRB Den Correction
 R09PC.ohmm             00 000 000 000:  9in Phase Resistivity BC
 R15PC.ohmm             00 000 000 000:  15in Phase Resistivity BC
 R27PC.ohmm             00 000 000 000:  27in Phase Resistivity BC
 R39PC.ohmm             00 000 000 000:  39in Phase Resistivity BC
 R09AC.ohmm             00 000 000 000:  9in Atten Resistivity BC
 R15AC.ohmm             00 000 000 000:  15in Atten Resistivity BC
 R27AC.ohmm             00 000 000 000:  27in Atten Resistivity BC
 R39AC.ohmm             00 000 000 000:  39in Atten Resistivity BC
 TVD .m                 00 000 000 000:  True Vertical Depth
#Other Information
#
#WARRANTY: Halliburton will use its best efforts to furnish customers with 
#accurate information and interpretations that are part of, and incident to, the services 
#provided.  However, Halliburton cannot and does not warrant the accuracy 
#or correctness of such information and interpretations.  Under no circumstances should any 
#such information or interpretation be relied upon as the sole basis for any drilling, 
#completion, production, or financial decision or any procedure involving any risk to the 
#safety of any drilling venture, drilling rig or its crew or any other third party.  The 
#Customer has full responsibility for all drilling, completion and production operation.  
#Halliburton makes no representations or warranties, either expressed or 
#implied, including, but not limited to, the implied warranties of merchantability or fitness 
#for a particular purpose, with respect to the services rendered.  In no event will 
#Halliburton be liable for failure to obtain any particular results or for 
#any damages, including, but not limited to, indirect, special or consequential damages, 
#resulting from the use of any information or interpretation provided by Halliburton.
#
~A   DEPT     ALPELC     XBCS      RSPD      PGRC      XBEDX     AFRSAC     AFRMAC     AFRDAC    ALCDLC     TNPL     ALDCLC     R09PC     R15PC     R27PC     R39PC     R09AC     R15AC     R27AC     R39AC      TVD    
# ...
   3166.0000    4.5046   83.0464   35.5765 -999.2500    9.3830    0.3873    4.0753    4.7618    2.5479   38.4589    0.0483    2.4122    3.0853    3.1831    4.2354    1.5220    4.1978    5.9090    6.1041 3137.2412
   3166.1000    3.3593   80.7494   29.7824 -999.2500    9.3830    0.3400    3.8543    4.3541    2.5541   38.1205    0.0615    2.1430    2.7813    3.0162    3.8323    1.6027    3.4475    5.0895    5.9156 3137.3406
   3166.2000    3.3087   82.5023   38.1150 -999.2500    9.0778    0.3375    3.6448    4.1460    2.5445   38.6546    0.0524    2.1418    2.6864    2.9910    3.7729    1.7795    3.3387    5.0364    6.0088 3137.4280
   3166.3000    4.4128   82.8179   44.0471 -999.2500    9.0778    0.3758    3.6876    4.2703    2.5577   38.7007    0.0415    1.7885    2.3999    2.5575    3.5092    1.3620    2.7231    4.0552    5.3904 3137.5249
   3166.4000    3.7022   81.7453   44.3229 -999.2500    9.0778    0.3751    3.7398    4.1603    2.5622   40.0122    0.0099    1.8082    2.9524    3.3609    4.3753    1.3304    3.1975    4.9580    6.2215 3137.6245
   3166.5000    3.4809   81.5841   44.3237 -999.2500    9.1623    0.3900    4.0024    4.3980    2.5588   41.6132    0.0203    2.6783    5.3885    4.9898    5.8811    1.8577    5.1525    6.5479    6.7640 3137.7114
   3166.6000    3.2745   82.5854   42.3886 -999.2500    9.1623    0.4757    4.6416    5.3244    2.5236   42.2715    0.0820    2.2610    4.4787    3.5081    3.8590    1.5474    4.0054    4.1875    4.8578 3137.8103
   3166.7000    3.1178   82.1106   36.3918 -999.2500    9.1623    0.6025    5.3661    6.2184    2.5105   38.8751    0.1583    1.0733    1.7816    1.5933    1.9195    0.9009    1.6827    2.3170    3.7144 3137.9097
   3166.8000    3.5124   80.6354   33.7329 -999.2500   10.4081    0.6931    5.1206    5.7934    2.4385   35.2551    0.1360    1.0630    2.1064    6.7950   31.6541    0.7454    2.1250   19.6910    7.1841 3137.9961
   3166.9000    3.6446   76.7894   14.5691 -999.2500   10.4081    0.6885    4.6755    4.8420    2.4002   36.4835    0.0634    2.1659   13.5986   38.9238  197.2489    1.0203    7.8182  130.3576   17.9689 3138.0981
   3167.0000    4.1148   75.5334   27.7464 -999.2500   10.4081    0.7341    5.2388    5.2594    2.4490   38.3595    0.0559    3.3631   53.6636   29.3326   76.8597    1.2455   15.0151  162.9111   14.3866 3138.1953
   3167.1000    4.0668   76.0577   42.2853 -999.2500   10.1423    0.8341    6.1352    6.1840    2.5274   35.0758    0.1012    2.2383   12.9902   10.1749   13.0734    1.3423    6.8961   39.9724    9.2166 3138.2808
   3167.2000    3.7569   78.0738   43.9283 -999.2500   10.1423    0.9291    6.8689    6.7825    2.5399   33.5460    0.1316    1.4749    3.1664    4.5260    6.1188    1.4391    5.2380   34.2008    9.5978 3138.3823
   3167.3000    3.0209   78.6570   39.8834 -999.2500   10.1423    1.1760    6.9639    6.4014    2.5429   33.6526    0.1832    1.7141    4.1099    7.1897    7.9588    1.9020   12.6191  139.5496   13.0797 3138.4751
   3167.4000    3.4818   79.6296   27.9577 -999.2500    9.9815    1.6965    7.4547    7.0949    2.4669   33.9895    0.1212    2.1547    7.8724   18.3947   18.9316    2.0563    9.6332   50.0944   11.2648 3138.5742
   3167.5000    3.3310   82.5604   14.6969 -999.2500    9.9815    1.5077    7.3095    6.9461    2.4115   32.5455    0.0457    2.8633   17.8382   27.2640   27.3233    1.9399   10.4446   18.4375    9.5285 3138.6602
   3167.6000    3.7289   80.5652   31.4757 -999.2500    9.9815    1.6005   11.2258    9.4817    2.4870   31.2127    0.0520    2.2075    8.9324   11.7337   12.5502    1.6807    5.7356    8.8755    7.2213 3138.7522
   3167.7000    3.2854   73.3738   19.7613 -999.2500    9.6972    2.0641   11.6907   11.5699    2.5434   30.6856    0.0534    2.0950    4.9023    6.8949    8.2319    1.6262    3.9438    5.8027    6.7763 3138.8660
   3167.8000    3.5740   78.0213   -2.0343 -999.2500    9.6972    2.0406    9.9453   10.1388    2.5515   31.3647    0.0423    3.2900    6.1815    8.6989   10.2959    2.1666    5.7363    7.8969    6.9302 3138.9561
   3167.9000    3.4299   78.4155   17.7962 -999.2500    9.6972    2.0216    9.4811    9.1895    2.5453   34.5855    0.0723    2.7291    4.2878    5.9186    6.8685    2.1823    5.5333    6.9102    5.9932 3139.0420
   3168.0000    3.4609   80.8218   28.3220 -999.2500   10.5236    1.6243    9.0231    8.8019    2.5590   36.6032    0.1580    1.4600    1.9815    2.5378    2.8073    1.2940    2.9673    3.5671    4.1002 3139.1167
   3168.1000    3.6350   86.1350   33.1890 -999.2500   10.5236    0.9641    7.3377    6.7769    2.5128   34.3760    0.1645    0.9866    1.4704    1.7236    1.9987    0.8894    1.6503    2.2987    3.3920 3139.2405
   3168.2000    3.6231   82.8225   36.0185 -999.2500   10.5236    0.5879    4.9549    4.3170    2.4292   37.5019    0.1191    1.2999    2.0507    2.6586    3.2268    0.6975    1.5161    2.5979    3.9053 3139.3152
   3168.3000    3.4360   83.2660   35.4257 -999.2500    9.9314    0.5516    3.9021    3.5879    2.3994   43.6538    0.0869    1.5413    3.3584    4.1278    5.2238    0.7782    3.5662   12.4474    6.2920 3139.4290
   3168.4000    3.5436   85.6410   29.8645 -999.2500    9.9314    0.5370    3.4796    3.2916    2.3728   43.0057    0.0274    1.8184    6.4207  107.2006  121.1306    0.9165   22.7398   84.8441   23.4960 3139.5239
   3168.5000    3.5199   87.6119    1.0326 -999.2500    9.9314    0.4718    3.6153    3.4407    2.3864   41.8911   -0.0198    3.3116  182.1970  934.9344 1054.6831    1.3665  128.5547  186.1995  127.1320 3139.6074
   3168.6000    3.6401   88.6511   18.0407 -999.2500    9.9132    0.4683    4.3774    4.1028    2.5120   44.0732    0.0089    5.0331  894.6599 1237.9275 1396.8535    2.3568  164.9455  174.7952  164.1954 3139.7078
   3168.7000    3.6959   84.7713   31.7606 -999.2500    9.9132    0.5382    6.2878    5.3296    2.5864   39.8251    0.0385    3.0924  153.1709  172.0126  198.7197    1.9728   33.4731   60.4985   35.9978 3139.7971
   3168.8000    3.8847   83.3868   34.9385 -999.2500    9.9132    0.5655    5.8450    5.5644    2.5362   37.9466    0.0382    2.0974    3.4936    4.3065    7.1187    1.7793    5.6590   16.1144    9.5981 3139.8914
   3168.9000    3.5265   83.0696   31.5404 -999.2500   10.0346    0.5804    4.6927    5.0175    2.5277   35.6630    0.0321    2.2758    2.8546    3.3685    5.1789    2.1094    3.4036    7.1096    7.5991 3140.0037
   3169.0000    3.6341   80.8960   12.5535 -999.2500   10.0346    0.6261    4.1172    4.6806    2.5069   33.9778    0.0152    2.1861    2.8796    3.1090    5.0073    2.2971    3.5071    5.2439    7.0576 3140.0945
   3169.1000    4.2229   81.3615   20.9331 -999.2500   10.0346    0.7029    4.2780    4.6105    2.5490   32.5157   -0.0028    2.6517    4.1624    4.2883    6.4222    2.1919    4.2555    5.4660    6.9865 3140.1797
   3169.2000    5.4870   79.5789   20.6072 -999.2500    9.7725    0.8054    5.1934    5.8382    2.6018   32.6629   -0.0157    4.9882    9.1584    7.9185    9.9505    2.4087    7.1292    7.6951    7.8829 3140.2717
   3169.3000    4.3281   78.2495   21.5895 -999.2500    9.7725    0.9767    6.0875    7.8242    2.6478   32.7224    0.0212    5.4109   10.9932    9.2223    9.9530    3.2530   11.3132    9.2886    8.3632 3140.3613
   3169.4000    3.8244   77.9379   20.7114 -999.2500    9.7725    1.2341    8.0106   10.3909    2.6561   32.0896    0.0463    3.7755    5.8259    6.6739    6.8368    2.5893    6.3456    7.3324    6.8211 3140.4775
   3169.5000    3.8541   77.9450   22.0570 -999.2500    9.0615    1.5567    7.7336    9.3656    2.5902   31.3100    0.0385    3.3152    4.5382    5.2849    5.6904    2.3194    5.2226    6.4077    6.2379 3140.5559
   3169.6000    3.5327   78.0847   32.1131 -999.2500    9.0615    1.6814    6.6279    7.2850    2.5722   31.6981    0.0424    3.2603    4.1470    5.2273    5.3890    2.8404    6.0113    8.1942    6.7746 3140.6370
   3169.7000    3.7385   76.7338   36.4612 -999.2500    9.0615    1.5669    5.7721    6.3676    2.5589   31.4932    0.0624    2.8375    3.9638    4.5540    5.0686    3.5350    7.4647    9.5475    7.1556 3140.7595
