~Version Information
 VERS.                  2.0:   CWLS log ASCII Standard -VERSION 2.0
 WRAP.                   NO:   One line per depth step
~Well Information Block
#MNEM.UNIT     VALUE/NAME     DESCRIPTION
#---------     -----------    ---------------------------
 STRT.M              2355.0000: START DEPTH
 STOP.M              3523.6000: STOP DEPTH
 STEP.M                 0.1000: STEP DEPTH
 NULL.               -999.2500: NULL VALUE
 XYGR.     Australia/New Zealand Coordinate Systems:  XYGROUP
 LLGR.      Latitude/Longitude:  LLGROUP
 CREF.     Datum Geocentric Datum of Austra:  CART REFERENCE
 GREF.     Ellipsoid World Geodetic System :  GEO REFERENCE
 CGSY.             SS GDA94-50:  CART GRID SYS
 GGSY.                      LL:  GEO GRID SYS
 CCDE.     UTM Zone 50S on Geocentric Datum of Australia 1994, Meters:  CART COORD DESC
 GCDE.     Generic Lat/Long's, Degrees, -180 ==> +180:  GEO COORD DESC
 UWI .                 W006107:  UNIQUE WELL IDENTIFIER
 API .                 W006107:  API NUMBER
 UNIT.                11741669:  LOGGING EQUIPMENT ID
 DCON.        Sperry Drilling :  DIRECTNL CONTR
 RIG .              Ensign 970:  RIG NAME
 MWDS.                Jandakot:  MWD SHOP
 SRVC.     Ensign Energy Services:  CONTRACTOR
 FLD .               Walyering:  FIELD NAME
 CTRY.               Australia:  COUNTRY NAME
 PROV.       Western Australia:  PROVINCE
 STAT.       Western Australia:  STATE NAME
 REGN.            Asia Pacific:  REGION
 BASE.                   Perth:  LOGGING EQUIPMENT BASE LOCATION
 WTYP.                Vertical:  WELL TYPE
 PDAT.          Mean Sea Level:  PERMANENT DATUM
 MDS .              Win MagUTM:  MAG DATA SOURCE
 MMDD.          22 April, 2022:  MAG DATA DATE
 MMDL.            bggm2021.dat:  MAGNETIC MODEL
 SON .        PA-XX-0907756569:  JOB NUMBER
 COMP.     Strike South West Pty Ltd:  COMPANY
 WELL.             Walyering 6:  WELL NAME
 FTOP.          Formation Tops:  FORM TOPS DESC
 ILTD.               Lithology:  INTERP LTH DESC
 SVYD.                  Survey:  SURVEY DESC
 DMOD.             Drill Model:  DRILL MOD DESC
 HPTY.       Minimum Curvature:  HOLE POS TYPE
 NREF.                    Grid:  NORTH REFERENCE
 SPUD.               25-Apr-22:  SPUD DATE
 DATE.      12.00.00 13-May-22:  END TIME
 STIM.      17.00.00 24-Apr-22:  START TIME
 DMF .             Drill Floor:  DRILL MEAS FROM
 DFST.                        :  DIST FSL TEXT
 DFWT.                        :  DIST FWL TEXT
 CNTY.                        :  COUNTY
 LOC .                        :  LOCATION
 LMF .             Drill Floor:  LOG MEASURED FROM
 CMER.deg           117.000000:  CENTRL MERIDIAN
 DEP .m               0.000000:  DEPTH
 AGAP.m               7.160000:  AIR GAP
 MMDE.m             -31.623000:  MAGUTM CALC DEP
 APD .m               7.160000:  DEPTH ABOVE PD
 WDMS.m               0.000000:  WD ELEV
 EGL .m              96.589993:  GROUND ELEVATION
 EPD .m              96.589993:  ELEVATION
 AZTC.deg            -2.153514:  AZM TOTAL CORR
 GRDC.deg             0.779280:  GRID CORRECTION
 MDEC.deg            -1.374234:  MAGNETIC DECL
 MDIP.deg           -64.762985:  MAGNETIC DIP
 MFLD.nT          57671.410156:  MAGNETIC FIELD
 GVFD.g               1.000000:  GRAVITY FIELD
 VSDR.deg             0.000000:  VERT SEC DIRECT
 TDD .m            3551.000070:  TOTAL DEPTH (DRILLER)
 SDEP.m              74.999999:  START DEPTH
 DFSL.m               0.000000:  DISTANCE FSL
 DFWL.m               0.000000:  DISTANCE FWL
 UTMY.m         6601158.480000:  UTM Y
 UTMX.m          353924.590000:  UTM X
 WHEW.m               0.000000:  WELL HEAD E/W
 WHNS.m               0.000000:  WELL HEAD N/S
 LONG.deg           115.474500:  LONGITUDE
 LATI.deg           -30.713472:  LATITUDE
 TVDS.m             103.749993:  TVDSS CORRECTN
 EKB .m             103.750002:  KB ELEVATION
 EDF .m             103.750002:  DF ELEVATION
 TDL .m            1189.000020:  TOTAL DEPTH (LOGGER)
 CSGD.m            2359.000046:  CASING BOTTOM (DRILLER)
 CSGL.m            2359.000046:  CASING BOTTOM (LOGGER)
 CSGS.mm            244.474994:  CASING SIZE
 CSGW.kgpm           69.942862:  CASING WEIGHT
 MAGU.                 1391237:  MAGUTM CHECKSUM
 VSC .                       1:  VS TO CLOSURE
~Parameter Information Block
#MNEM.UNIT       Value        Description
#---------     -----------    ---------------------------
 AV  .mps             2.550000:  Ann Velocity 
 AVMX.mps             2.933333:  Max Ann Veloc 
 AZIF.deg             4.250000:  Azm, Final 
 BHAT.               Mud Motor:  BHA Type 
 BREV.krev         1163.365845:  Rev Bit Total 
 BROT.°/30m           0.050000:  Build Rotating 
 BS  .mm            215.899994:  Bit Size 
 BSZ .mm            215.899994:  Bit Size 
 BTPL.kPag         3033.715332:  Bit Press Loss 
 CABU.                      No:  Customer Abuse 
 CGEO.             Dan Walding:  Customer Geo 
 COMM.                     ì¿q:  Run Comments 1 
 TCS .hr            105.300003:  Time Ciculation Ended 
 CV  .mps             4.283333:  Crit Velocity 
 CVMX.mps             4.600000:  Max Crit Veloc 
 DD1 .     Christian Arrindell:  Direct Drillr 1 
 DD2 .            Ivan Tutynin:  Direct Drillr 2 
 DDSV.               Mud Motor:  DD Service 
 DEFF.%              95.000000:  % Det Eff 
 DLRX.°/30m           1.280000:  Dogleg Rot Max 
 DLSO.°/30m           1.400000:  Dogleg Oriented 
 DLSX.°/30m           2.000000:  Dogleg Str Max 
 DRET.      00.30.00 12-May-22:  Drill End Time 
 DRST.      19.30.00 07-May-22:  Drill Start Tim 
 DTIM.hr             80.400002:  Time Drilling 
 EDEP.m            3551.000000:  End Depth 
 ENG1.            Ade Suhendar:  Engineer 1 
 ENG2.        Yiek Chong Leong:  Engineer 2 
 ENG3.           Sufyan Zainal:  Engineer 3 
 ETIM.      23.45.00 12-May-22:  End Time 
 FLOI.m3pm            2.035733:  Flow In 
 FLON.m3pm            1.324854:  Flow In Min 
 FLOS.mptm            4.000000:  Fluid Loss 
 FLOX.m3pm            2.119767:  Flow In Max 
 DFT .                 Polymer:  Mud Type 
 FTRO.       Formation Presure:  FTWD Run Obj 
 HFLO.                      No:  High Flow 
 HPRE.                      No:  High Pressure 
 HTEM.                      No:  High Temp 
 HYDO.m               2.500000:  Hydro Offset 
 IFIN.deg             1.860000:  Inc, Final 
 IMAX.deg             5.744654:  Inc Max 
 IMIN.deg             0.433048:  Inc Min 
 IMND.m            2565.059814:  Inc Min Depth 
 IMXD.m            2364.389893:  Inc Max Depth 
 JARR.                      No:  Jarring 
 LETM.      00.30.00 12-May-22:  Log End Time 
 LOST.hr                     0:  Lost Rig Time 
 LSTM.      19.30.00 07-May-22:  Log Start Time 
 MDCL.ppm         79803.000000:  Mud Chlorides 
 MDES.             Fresh Water:  Mud Desc 
 DFD .kg/m3        1138.351074:  Mud Density 
 MDMN.kg/m3        1114.385986:  Dens Mud Min 
 MDMX.kg/m3        1150.333862:  Dens Mud Max 
 PH  .pH             10.100000:  Mud pH 
 MOIL.                       0:  Run Mud Oil % 
 MOWR.                   0 100:  Run Mud OWR 
 MSND.                     0.2:  Run Mud Sand % 
 MSOL.                     4.6:  Run Mud Solids% 
 MTV .                GeoForce:  Motor Variant 
 DFV .spl            82.445999:  Mud Viscosity 
 MWOD.mm            171.449997:  MWD Tool OD 
 MWSI.                      No:  Serv Intrp, MWD 
 OTIM.hr            146.500000:  Time Operating 
 PCON.          Wear / Scratch:  Pad Condition 
 PMAX.kPag        35887.472656:  Press Op, Max 
 PV  .mPsec          40.000000:  Mud PV 
 RMS .ohmm            0.606000:  Mud Resistivity 
 RMCS.ohmm            0.076000:  Mud Cake Resistivity 
 MCST.degC           19.830000:  Mud Cake Sample Temperature 
 RMFS.ohmm            0.050000:  Mud Filtrate Resistivity 
 RMFT.degC           21.499998:  Mud Filtrate Sample Temperature 
 RMMT.ohmm            0.266500:  Rm @ Max Temp 
 MST .degC           21.000002:  Mud Sample Temperature 
 RUN .                     300:  Run Number 
 ROPA.m/hr           14.790000:  ROP Avg 
 ROPN.m/hr            1.870000:  ROP Min 
 ROPX.m/hr           32.700001:  ROP Max 
 RPMA.rpm            52.500000:  RPM Surface Avg 
 RPMN.rpm            30.000000:  RPM Surface Min 
 RPMX.rpm            60.000000:  RPM Surface Max 
 RRUN.                       3:  Rig Run Number 
 RTIM.hr              8.510000:  Time Reaming 
 SAZI.deg           199.820007:  Azm, Start 
 SDEP.m            2362.000000:  Start Depth 
 SIDD.                      No:  Serv Intrp, DD 
 SINC.deg             5.740000:  Inc, Start 
 SPPA.kPag        17754.474609:  SPP Avg 
 SPPN.kPag        10893.795898:  SPP Min 
 SPPX.kPag        22063.382813:  SPP Max 
 STIM.      21.15.00 06-May-22:  Start Time 
 SVCS.                 DD, MWD:  Services 
 SVER.                9.200000:  Sperry Version 
 TDAT.m            1189.000000:  Tot Depth Attmp 
 TDDF.                      No:  Trip for DD 
 TDLG.m            1189.000000:  Tot Depth Loggd 
 TFF .                      No:  Trip for Fail 
 TQAA.kN-m            0.013558:  Torque Abs Avg 
 TQAN.kN-m            0.004067:  Torque Abs Min 
 TQAX.kN-m            0.024405:  Torque Abs Max 
 TRRT.°/30m           0.860000:  Turn Rotating 
 MRT .                  EWR-P4:  Maximum Recorded Temperature 
 TTMX.degC           75.199997:  Max Tool Temp 
 VS01.                12278995:  Virtual Str1 SN 
 VS02.                12394165:  Virtual Str2 SN 
 VS03.                13686255:  Virtual Str3 SN 
 VS04.                90681167:  Virtual Str4 SN 
 VS05.                90683981:  Virtual Str5 SN 
 VS06.                90683974:  Virtual Str6 SN 
 VS07.                90683978:  Virtual Str7 SN 
 VS08.                90683983:  Virtual Str8 SN 
 VS09.                13531224:  Virtual Str9 SN 
 WBMN.kdN             2.668932:  WOB Min 
 WITN.          Peter Clarkson:  Customer Rep 2 
 WITN.        Shaughan Corless:  Customer Rep 
 WOBA.kdN             7.045982:  WOB Avg 
 WOBX.kdN            10.675730:  WOB Max 
 YP  .pa             14.364045:  Yield Point 
~Curve Information Block
#MNEM.UNIT                 API CODE     Curve Description
#---------               -----------    ---------------------------
 DEPT.M                 00 000 000 000:  Depth
 AFRSAC.ohmm            00 000 000 000:  AFR Shallow Avg Res BC
 AFRMAC.ohmm            00 000 000 000:  AFR Medium Avg Res BC
 AFRDAC.ohmm            00 000 000 000:  AFR Deep Avg Res BC
#Other Information
#
#WARRANTY: Halliburton will use its best efforts to furnish customers with 
#accurate information and interpretations that are part of, and incident to, the services 
#provided.  However, Halliburton cannot and does not warrant the accuracy 
#or correctness of such information and interpretations.  Under no circumstances should any 
#such information or interpretation be relied upon as the sole basis for any drilling, 
#completion, production, or financial decision or any procedure involving any risk to the 
#safety of any drilling venture, drilling rig or its crew or any other third party.  The 
#Customer has full responsibility for all drilling, completion and production operation.  
#Halliburton makes no representations or warranties, either expressed or 
#implied, including, but not limited to, the implied warranties of merchantability or fitness 
#for a particular purpose, with respect to the services rendered.  In no event will 
#Halliburton be liable for failure to obtain any particular results or for 
#any damages, including, but not limited to, indirect, special or consequential damages, 
#resulting from the use of any information or interpretation provided by Halliburton.
#
~A   DEPT      AFRSAC     AFRMAC     AFRDAC   
   2355.0000     0.0056  -999.2500  -999.2500
   2355.1000     0.0057  -999.2500  -999.2500
   2355.2000     0.0057  -999.2500  -999.2500
   2355.3000     0.0057  -999.2500  -999.2500
   2355.4000     0.0057  -999.2500  -999.2500
   2355.5000     0.0059  -999.2500  -999.2500
   2355.6000     0.0060  -999.2500  -999.2500
   2355.7000     0.0060  -999.2500  -999.2500
   2355.8000     0.0059  -999.2500  -999.2500
   2355.9000     0.0058  -999.2500  -999.2500
   2356.0000     0.0057  -999.2500  -999.2500
   2356.1000     0.0057  -999.2500  -999.2500
   2356.2000     0.0057  -999.2500  -999.2500
   2356.3000     0.0057  -999.2500  -999.2500
   2356.4000     0.0061     2.8757  -999.2500
   2356.5000     0.0073     1.4605  -999.2500
   2356.6000     0.0090     2.3129  -999.2500
   2356.7000     0.0102     3.4815  -999.2500
   2356.8000     0.0108    66.9641  -999.2500
   2356.9000     0.0130   130.4467  -999.2500
   2357.0000     0.0214   193.9293  -999.2500
   2357.1000     0.0464   257.4119  -999.2500
   2357.2000     0.0980   320.8944  -999.2500
   2357.3000     0.1498   384.3770  -999.2500
   2357.4000     0.2444   263.5325  -999.2500
   2357.5000     0.5608    61.6100  -999.2500
   2357.6000     1.2011    21.0573  -999.2500
   2357.7000     1.5565    28.1433  -999.2500
   2357.8000     1.6453    41.4074  1203.5564
   2357.9000     1.6714    43.6578   312.0977
   2358.0000     1.6759    41.2252   151.4991
   2358.1000     1.6871    40.0048   133.4158
   2358.2000     1.6755    40.7385   124.1641
   2358.3000     1.6669    42.6696   115.0422
   2358.4000     1.6255    44.2989    98.4268
   2358.5000     1.5819    44.9018    83.3145
   2358.6000     1.5301    44.3597    73.2902
   2358.7000     1.4636    42.9838    67.4701
   2358.8000     1.3725    40.4126    62.2324
   2358.9000     1.3290    37.7710    57.2109
   2359.0000     1.3165    35.1920    52.6926
   2359.1000     1.3513    34.4926    52.1619
   2359.2000     1.3719    35.6261    55.3011
   2359.3000     1.3614    36.4555    59.5136
   2359.4000     1.3405    36.0170    62.0259
   2359.5000     1.3215    34.3172    62.0801
   2359.6000     1.2876    33.2886    62.3066
   2359.7000     1.2632    34.0452    66.0591
   2359.8000     1.2315    35.7507    71.6712
   2359.9000     1.2072    37.6796    75.9344
   2360.0000     1.2046    38.1257    75.3476
   2360.1000     1.2146    36.6286    70.0181
   2360.2000     1.2341    34.1904    63.5871
   2360.3000     1.2468    32.2815    59.1237
   2360.4000     1.2570    31.3982    57.0815
   2360.5000     1.2789    31.2927    56.7994
   2360.6000     1.3086    31.7442    57.9152
   2360.7000     1.3655    33.2036    60.4317
   2360.8000     1.4283    34.1617    61.6047
   2360.9000     1.4729    34.9437    63.2568
   2361.0000     1.4832    36.9021    67.4408
   2361.1000     1.4772    41.0272    77.3202
   2361.2000     1.4804    46.3055    89.4007
   2361.3000     1.4694    46.3629    88.9711
   2361.4000     1.4345    41.8661    79.2684
   2361.5000     1.3805    37.8328    71.0270
   2361.6000     1.3463    37.8044    69.6362
   2361.7000     1.3556    40.8661    73.6400
   2361.8000     1.3951    44.9031    77.8118
   2361.9000     1.4411    47.0168    77.9171
   2362.0000     1.4680    44.9710    72.0418
   2362.1000     1.4887    41.6224    65.2701
   2362.2000     1.5182    39.0035    62.3919
   2362.3000     1.5640    39.9097    67.0058
   2362.4000     1.6123    43.7895    76.2434
   2362.5000     1.6366    48.0922    81.7724
   2362.6000     1.6327    49.2617    79.2317
   2362.7000     1.6180    46.5243    73.6757
   2362.8000     1.5976    43.6537    71.1347
   2362.9000     1.5653    42.6474    72.6244
   2363.0000     1.5392    43.1996    75.4055
   2363.1000     1.5036    43.9702    77.3913
   2363.2000     1.5137    44.5460    79.0991
   2363.3000     1.5426    43.5766    77.0784
   2363.4000     1.4351    38.9446    68.1027
   2363.5000     1.5236    37.5399    67.0703
   2363.6000     1.8231    39.9706    75.2025
   2363.7000     2.2925    44.4877    90.9175
   2363.8000     2.8489    51.2908   110.3297
   2363.9000     3.1565    55.9338   122.7122
   2364.0000     3.6236    60.5708   137.4338
   2364.1000     4.4086    65.1120   148.5868
   2364.2000     5.2515    66.7814   145.0304
   2364.3000     5.9708    66.0944   129.3708
   2364.4000     6.6917    65.4750   113.1704
   2364.5000     7.1409    65.2624   102.3021
   2364.6000     7.3847    66.6629    96.8106
   2364.7000     7.5916    68.2502    92.9860
   2364.8000     7.9335    68.7605    88.1818
   2364.9000     8.4790    69.2807    83.8757
   2365.0000     9.3799    69.5306    82.6533
   2365.1000    10.5316    73.3165    87.9304
   2365.2000    11.7525    82.3586    99.7075
   2365.3000    12.9477    96.1881   117.6192
   2365.4000    13.6919   111.2291   136.9547
   2365.5000    13.9025   124.7668   155.3505
   2365.6000    14.0217   132.1892   166.3388
   2365.7000    14.0319   131.6266   165.5762
   2365.8000    14.1569   127.7480   160.7616
   2365.9000    14.1350   122.9228   155.3823
   2366.0000    13.5540   117.8105   149.7579
   2366.1000    12.6469   109.8307   139.7814
   2366.2000    11.6466   102.1324   127.6352
   2366.3000    10.8875   101.0734   123.1733
   2366.4000    10.5293   107.4401   128.6849
   2366.5000    10.2655   117.1425   139.4398
   2366.6000    10.2043   121.5445   144.1361
   2366.7000    10.4425   121.6194   143.8695
   2366.8000    10.8882   123.7055   146.6563
   2366.9000    11.1980   128.5595   152.3142
   2367.0000    11.4406   134.2843   161.4972
   2367.1000    11.7254   137.1065   167.5430
   2367.2000    12.3621   137.7717   169.1821
   2367.3000    13.1375   137.1545   167.0972
   2367.4000    13.9112   138.4526   168.3165
   2367.5000    14.2115   137.0930   165.1550
   2367.6000    14.0355   133.1418   160.6589
   2367.7000    13.9368   131.0060   158.1094
   2367.8000    13.6156   127.9065   154.7403
   2367.9000    12.8774   128.3694   155.7100
   2368.0000    11.8898   129.2380   155.7668
   2368.1000    11.4113   131.1458   158.8898
   2368.2000    11.4051   133.9595   161.9097
   2368.3000    11.7819   138.0204   166.5190
   2368.4000    11.8844   143.4416   172.5940
   2368.5000    11.7341   146.0757   178.5301
   2368.6000    11.6931   142.6120   178.5639
   2368.7000    11.5612   136.3366   173.7696
   2368.8000    11.2268   132.1121   170.0952
   2368.9000    10.7947   133.8898   174.3431
   2369.0000    10.2518   137.1617   179.2267
   2369.1000     9.9819   138.2652   180.5602
   2369.2000     9.9393   137.7929   179.0287
   2369.3000     9.8446   137.8250   178.8615
   2369.4000     9.5542   136.3085   177.9069
   2369.5000     9.1525   133.8604   175.9230
   2369.6000     8.8541   129.9071   172.3707
   2369.7000     8.6923   125.7192   167.5760
   2369.8000     8.6010   123.8296   164.2743
   2369.9000     8.5158   123.1364   161.9873
   2370.0000     8.6160   124.5174   162.5731
   2370.1000     9.0783   129.8494   169.3680
   2370.2000     9.6708   135.8378   177.4620
   2370.3000    10.5652   143.6459   188.8887
   2370.4000    11.5970   151.1809   200.0533
   2370.5000    12.7520   157.6345   208.3374
   2370.6000    13.8599   156.9517   204.3543
   2370.7000    14.7525   149.0789   188.7673
   2370.8000    16.0146   145.0526   178.5718
   2370.9000    18.0076   150.3468   182.9940
   2371.0000    21.0852   167.4661   205.1701
   2371.1000    25.4941   194.5064   240.1098
   2371.2000    32.4843   237.1010   291.1271
   2371.3000    44.0606   278.7459   343.1088
   2371.4000    59.2929   313.2350   388.0450
   2371.5000    70.3101   320.3715   403.5655
   2371.6000    65.1451   310.6097   395.8622
   2371.7000    55.5824   307.8416   394.0182
   2371.8000    45.3886   287.4230   361.6832
   2371.9000    38.0204   251.7119   314.0344
   2372.0000    33.6707   228.4374   278.8936
   2372.1000    30.0702   198.9727   242.0936
   2372.2000    28.4055   189.1439   233.9610
   2372.3000    27.3223   192.2221   241.8574
