~Version Information
 VERS.                  2.0:   CWLS log ASCII Standard -VERSION 2.0
 WRAP.                   NO:   One line per depth step
~Well Information Block
#MNEM.UNIT     VALUE/NAME     DESCRIPTION
#---------     -----------    ---------------------------
 STRT.M              2900.0000: START DEPTH
 STOP.M              3434.8000: STOP DEPTH
 STEP.M                 0.1000: STEP DEPTH
 NULL.               -999.2500: NULL VALUE
 UWI .                 W006102:  UNIQUE WELL IDENTIFIER
 API .                 W006102:  API NUMBER
 DFWT.                        :  DIST FWL TEXT
 DFST.                        :  DIST FSL TEXT
 DMF .             Drill Floor:  DRILL MEAS FROM
 STIM.      12.00.00 12-Nov-21:  START TIME
 DATE.      08.19.12 13-Dec-21:  END TIME
 SPUD.               14-Nov-21:  SPUD DATE
 NREF.                    Grid:  NORTH REFERENCE
 HPTY.       Minimum Curvature:  HOLE POS TYPE
 DMOD.             Drill Model:  DRILL MOD DESC
 SVYD.                  Survey:  SURVEY DESC
 ILTD.               Lithology:  INTERP LTH DESC
 FTOP.          Formation Tops:  FORM TOPS DESC
 WELL.             Walyering 5:  WELL NAME
 COMP.     Strike South West Pty Ltd:  COMPANY
 SON .        PA-XX-0907373664:  JOB NUMBER
 GCDE.     Generic Lat/Long's, Degrees, -180 ==> +180:  GEO COORD DESC
 CCDE.     UTM Zone 50S on Geocentric Datum of Australia 1994, Meters:  CART COORD DESC
 GGSY.                      LL:  GEO GRID SYS
 CGSY.             SS GDA94-50:  CART GRID SYS
 GREF.     Ellipsoid World Geodetic System :  GEO REFERENCE
 CREF.     Datum Geocentric Datum of Austra:  CART REFERENCE
 MMDL.            bggm2021.dat:  MAGNETIC MODEL
 MMDD.       10 November, 2021:  MAG DATA DATE
 MDS .              Win MagUTM:  MAG DATA SOURCE
 LLGR.      Latitude/Longitude:  LLGROUP
 XYGR.     Australia/New Zealand Coordinate Systems:  XYGROUP
 WTYP.                Deviated:  WELL TYPE
 PDAT.          Mean Sea Level:  PERMANENT DATUM
 BASE.                   Perth:  LOGGING EQUIPMENT BASE LOCATION
 REGN.            Asia Pacific:  REGION
 CTRY.               Australia:  COUNTRY NAME
 FLD .             Perth Basin:  FIELD NAME
 SRVC.     Ensign Energy Services:  CONTRACTOR
 MWDS.                Jandakot:  MWD SHOP
 RIG .              Ensign 970:  RIG NAME
 DCON.         Sperry Drilling:  DIRECTNL CONTR
 UNIT.                11741669:  LOGGING EQUIPMENT ID
 CNTY.                        :  COUNTY
 PROV.                        :  PROVINCE
 STAT.                        :  STATE
 LOC .                        :  LOCATION
 DEP .m               0.000000:  DEPTH
 TVDS.m             101.180001:  TVDSS CORRECTN
 LATI.deg           -30.730083:  LATITUDE
 LONG.deg           115.478781:  LONGITUDE
 WHNS.m               0.000000:  WELL HEAD N/S
 WHEW.m               0.000000:  WELL HEAD E/W
 UTMX.m          354359.500000:  UTM X
 UTMY.m         6599322.900000:  UTM Y
 DFWL.m               0.000000:  DISTANCE FWL
 DFSL.m               0.000000:  DISTANCE FSL
 SDEP.m              73.999999:  START DEPTH
 TDD .m            3434.999857:  TOTAL DEPTH (DRILLER)
 VSDR.deg           243.910004:  VERT SEC DIRECT
 GVFD.g               1.000000:  GRAVITY FIELD
 MFLD.nT          57661.890625:  MAGNETIC FIELD
 MDIP.deg           -64.786583:  MAGNETIC DIP
 MDEC.deg            -1.367809:  MAGNETIC DECL
 GRDC.deg             0.777471:  GRID CORRECTION
 AZTC.deg            -2.145280:  AZM TOTAL CORR
 EPD .m              94.030000:  ELEVATION
 EGL .m              94.030000:  GROUND ELEVATION
 WDMS.m               0.000000:  WD ELEV
 APD .m               7.150000:  DEPTH ABOVE PD
 MMDE.m             -30.842712:  MAGUTM CALC DEP
 CMER.deg           117.000000:  CENTRL MERIDIAN
 AGAP.m               7.150000:  AIR GAP
 VSC .                       0:  VS TO CLOSURE
 MAGU.                 1390910:  MAGUTM CHECKSUM
~Curve Information Block
#MNEM.UNIT                 API CODE     Curve Description
#---------               -----------    ---------------------------
 DEPT.M                 00 000 000 000:  Depth
 ALPELC.                00 000 000 000:  ALD LCRB Pe Factor
 XBCS.uspf              00 000 000 000:  XBAT Comp Slowness
 RSPD.m/hr              00 000 000 000:  Running Speed
 PGRC.api               00 000 000 000:  PCG Gamma Ray BCorr
 XBEDX.in               00 000 000 000:  XCAL Eqv Hole Size Cor
 AFRSAC.ohmm             00 000 000 000:  AFR Shall Resistivity BC
 AFRMAC.ohmm             00 000 000 000:  AFR Medium Resistivity BC
 AFRDAC.ohmm             00 000 000 000:  AFR Deep Resistivity BC
 ALCDLC.g/cc            00 000 000 000:  ALD LCRB Comp Density
 TNPL.pu                00 000 000 000:  CTN Porosity Limestone
 ALDCLC.g/cc            00 000 000 000:  ALD LCRB Den Correction
 R09PC.ohmm             00 000 000 000:  9in Phase Resistivity BC
 R15PC.ohmm             00 000 000 000:  15in Phase Resistivity BC
 R27PC.ohmm             00 000 000 000:  27in Phase Resistivity BC
 R39PC.ohmm             00 000 000 000:  39in Phase Resistivity BC
 R09AC.ohmm             00 000 000 000:  9in Atten Resistivity BC
 R15AC.ohmm             00 000 000 000:  15in Atten Resistivity BC
 R27AC.ohmm             00 000 000 000:  27in Atten Resistivity BC
 R39AC.ohmm             00 000 000 000:  39in Atten Resistivity BC
 TVD .m                 00 000 000 000:  True Vertical Depth
#Other Information
#
#WARRANTY: Halliburton will use its best efforts to furnish customers with 
#accurate information and interpretations that are part of, and incident to, the services 
#provided.  However, Halliburton cannot and does not warrant the accuracy 
#or correctness of such information and interpretations.  Under no circumstances should any 
#such information or interpretation be relied upon as the sole basis for any drilling, 
#completion, production, or financial decision or any procedure involving any risk to the 
#safety of any drilling venture, drilling rig or its crew or any other third party.  The 
#Customer has full responsibility for all drilling, completion and production operation.  
#Halliburton makes no representations or warranties, either expressed or 
#implied, including, but not limited to, the implied warranties of merchantability or fitness 
#for a particular purpose, with respect to the services rendered.  In no event will 
#Halliburton be liable for failure to obtain any particular results or for 
#any damages, including, but not limited to, indirect, special or consequential damages, 
#resulting from the use of any information or interpretation provided by Halliburton.
#
~A   DEPT     ALPELC     XBCS      RSPD      PGRC      XBEDX     AFRSAC     AFRMAC     AFRDAC    ALCDLC     TNPL     ALDCLC     R09PC     R15PC     R27PC     R39PC     R09AC     R15AC     R27AC     R39AC      TVD    
# ...
   3356.0000    2.1999   74.6728   28.2838 -999.2500    8.3954    4.7397   13.5204   29.4912    2.4185   10.3251    0.0184    5.0276    6.6495   13.6245   35.6070   11.8634   22.9351  125.8851  154.5350 3317.3530
   3356.1000    1.9817   75.0045   26.8063 -999.2500    8.4053    4.5086   12.8855   28.5496    2.4056   10.0665    0.0118    5.0115    6.5687   11.9001   30.5010   11.7129   22.0183  103.3405  194.6866 3317.4397
   3356.2000    2.0970   75.1791   27.1884 -999.2500    8.4053    4.1985   12.2550   27.0914    2.3927   10.1528    0.0085    4.9374    6.7826   12.0033   30.4968   12.1466   23.8088   90.8957  199.5482 3317.5383
   3356.3000    1.7693   73.3739   28.6257 -999.2500    8.4053    4.2733   12.9774   27.9752    2.3997   10.1353    0.0102    4.8728    6.7560   11.9011   29.9747   11.9615   24.8821   98.0020  199.5482 3317.6289
   3356.4000    1.7280   73.3739   27.7270 -999.2500    8.3964    4.7772   14.4013   32.1047    2.4178   10.0188    0.0154    4.8018    6.8207   11.9581   29.5889   11.7184   25.0933  122.1831  199.5482 3317.7268
   3356.5000    1.8869   74.2641   33.4160 -999.2500    8.3964    4.5899   13.9589   31.9851    2.4146   10.0723    0.0148    4.7837    6.9131   12.4937   30.4746   11.7741   25.2412  133.4415  199.5482 3317.8242
   3356.6000    2.1325   74.1966   22.4180 -999.2500    8.3964    4.3724   13.1957   31.8264    2.4049   10.0189    0.0149    4.9041    6.7937   13.6258   33.5042   12.1690   26.3337  100.2509  199.5482 3317.9150
   3356.7000    2.3405   73.1495   24.2457 -999.2500    8.4029    4.3897   13.5175   33.1758    2.4132    9.8153    0.0226    5.0365    6.8959   13.7489   34.8734   11.8049   26.6871  112.1300  199.5482 3318.0139
   3356.8000    2.4635   73.3460   26.7511 -999.2500    8.4029    4.6146   14.2253   35.7404    2.4129    9.9879    0.0204    5.0049    6.8157   13.5634   32.7325   12.5075   25.5711  104.0465  199.5482 3318.1003
   3356.9000    2.1829   73.8949   29.1894 -999.2500    8.4029    4.4968   13.6235   35.0663    2.4039   10.0379    0.0126    5.0182    6.7684   13.3320   31.6449   12.2177   24.0901   92.3662  199.5482 3318.2026
   3357.0000    2.3092   73.9381   26.9974 -999.2500    8.4112    3.9256   11.7785   30.0743    2.4073   10.0362    0.0135    5.0816    6.9408   13.1390   31.4178   11.7856   22.5893   82.3890  199.5482 3318.3005
   3357.1000    2.2320   73.6588   28.1916 -999.2500    8.4112    3.6821   11.4292   27.0732    2.4110   10.0483    0.0100    5.0822    7.0914   12.7340   29.9145   12.0205   21.7389   72.8397  182.3504 3318.3855
   3357.2000    1.8684   75.8055   41.0637 -999.2500    8.4112    3.7480   11.8433   26.4566    2.4129   10.0568    0.0045    4.8400    6.3892   11.2035   24.6430   11.4993   22.2260   58.6121  116.6516 3318.4844
   3357.3000    2.2538   75.7491   46.6488 -999.2500    8.3795    3.9908   12.8403   27.7636    2.4286   10.0593    0.0307    4.3520    5.5227    9.3830   20.4016    9.8932   19.9238   56.9935  185.6104 3318.5862
   3357.4000    2.0132   76.5178   39.8960 -999.2500    8.3795    4.2049   13.9289   28.0212    2.3844    9.9855    0.0090    4.0372    5.2578    8.9147   19.7953    8.8766   18.6663   57.7469  199.5482 3318.6726
   3357.5000    2.1523   76.9828   25.1000 -999.2500    8.3795    4.3663   13.8293   27.9038    2.3708    9.8634    0.0082    3.9406    5.2782    9.2247   21.2447    8.4705   18.0562   64.3535  199.5482 3318.7712
   3357.6000    2.3399   76.9917   27.8510 -999.2500    8.3888    4.2976   13.6285   25.4790    2.3719    9.8420    0.0085    3.9723    5.3869    9.7803   23.5700    8.6828   18.0821   71.3292  199.5482 3318.8621
   3357.7000    2.2612   76.2879   27.0104 -999.2500    8.3888    4.4812   14.0209   25.2474    2.3694   10.3795   -0.0017    4.0765    5.5024   10.3443   26.2160    9.3321   18.5489   76.9705  199.5482 3318.9590
   3357.8000    1.7271   74.7268   31.5999 -999.2500    8.3888    4.4333   13.3684   25.9016    2.3522   10.4983   -0.0216    4.1167    5.4226   10.3310   26.9806    9.0077   17.7973   86.2001  199.5482 3319.0596
   3357.9000    2.1593   74.5421   43.1445 -999.2500    8.3905    4.5838   13.4145   27.5176    2.3853   10.5551    0.0000    4.1505    5.3774   10.2439   27.9142    8.7629   17.5461   99.0887  199.5482 3319.1475
   3358.0000    1.9492   74.1322   44.7175 -999.2500    8.3905    4.3218   15.3203   26.7517    2.3824   10.1204    0.0038    4.2121    5.4811   10.5271   30.5867    9.5466   18.9298  112.2830  199.5482 3319.2461
   3358.1000    1.9242   73.1997   46.1940 -999.2500    8.3905    4.3180   15.1540   26.5550    2.3847   10.2177    0.0052    4.5508    6.2035   12.3970   40.3251   10.0763   20.2923  125.5304  199.5482 3319.3340
   3358.2000    2.1301   72.1779   45.4015 -999.2500    8.4166    3.8274   13.6850   29.5491    2.3958   10.3098    0.0071    5.1007    7.2131   14.6171   49.8186   10.3106   21.7893  134.4928  199.5482 3319.4346
   3358.3000    2.2475   70.5164   28.9201 -999.2500    8.4166    3.5442   13.0933   33.1348    2.4085   10.2615    0.0082    5.6609    7.9752   15.5748   49.9035   10.9144   23.9297  130.8584  199.5482 3319.5320
   3358.4000    2.3320   70.4535   23.6031 -999.2500    8.4166    3.9317   13.6804   34.9594    2.4474   10.3036    0.0147    5.8071    8.0364   15.1486   41.4597   12.1146   24.2110  100.0760  199.5482 3319.6184
   3358.5000    2.3670   71.2474   30.7408 -999.2500    8.4042    4.9993   14.9077   39.0936    2.4255   10.1378    0.0137    6.2574    8.6060   15.8273   42.9340   13.8020   26.5676  101.0525  199.5482 3319.7217
   3358.6000    2.0074   72.4272   41.8874 -999.2500    8.4042    4.2768   14.0531   35.1371    2.4294    9.9477    0.0118    6.5931    9.3549   16.3052   39.5604   14.3963   26.7363   79.5381  199.5482 3319.8086
   3358.7000    1.7740   75.0441   45.3706 -999.2500    8.4042    4.4684   16.2324   36.6849    2.4403   10.1637    0.0149    6.4893    8.9097   14.5724   30.6835   13.9352   24.7891   57.3533  199.5482 3319.9043
   3358.8000    1.8788   74.9395   46.9777 -999.2500    8.3853    4.6201   17.7816   38.6827    2.4360   10.1213    0.0193    5.9134    7.5573   11.6116   22.0837   12.5377   22.0261   47.1392  180.8209 3320.0078
   3358.9000    2.1188   75.1600   44.9043 -999.2500    8.3853    4.9236   16.5349   42.0529    2.4022    9.9222    0.0044    5.0572    6.3691    9.3032   17.4164   10.5793   19.4764   41.9704  132.9358 3320.0935
   3359.0000    2.4544   78.2842   44.4785 -999.2500    8.3853    4.2699   13.2294   37.7409    2.3723   10.0835   -0.0031    4.2855    5.7097    8.5858   16.1058    9.7846   17.5341   43.9868  144.0096 3320.1919
   3359.1000    2.5885   78.7351   38.1717 -999.2500    8.3704    3.7901   12.2937   33.2016    2.3702    9.9716    0.0096    3.9434    5.3100    8.3927   16.6047    9.5581   16.6062   48.0271  183.0549 3320.2939
   3359.2000    2.4131   78.2851   25.0329 -999.2500    8.3704    3.8612   13.1622   32.0138    2.3676    9.9842    0.0104    3.6886    4.9410    8.2918   17.6403    8.5441   16.3622   58.2706  192.7089 3320.3787
   3359.3000    2.1557   77.8302   25.8977 -999.2500    8.3704    3.9442   14.1324   31.2986    2.3642    9.6272    0.0035    3.5324    4.7007    8.5179   20.1586    7.8371   16.5782   73.1307  191.2928 3320.4783
   3359.4000    2.2733   77.2765   41.0205 -999.2500    8.4121    3.7715   14.7887   29.1363    2.3770    9.7497    0.0166    3.5470    4.6913    9.3055   24.8863    8.0689   17.2184   96.7740  198.6535 3320.5737
   3359.5000    2.1533   76.9614   42.6076 -999.2500    8.4121    3.6049   16.0021   27.5543    2.3642    9.8894    0.0094    3.8346    5.0389   11.0930   33.9863    8.3263   18.8610  153.9821  199.5482 3320.6667
   3359.6000    2.2323   76.7509   39.7791 -999.2500    8.4121    3.7592   17.7127   28.7669    2.3702   10.0078    0.0098    4.2263    5.7564   12.7795   45.3264    8.9389   19.4357  193.0818  199.5482 3320.7654
   3359.7000    2.3379   73.0520   44.6107 -999.2500    8.3760    3.9490   18.1278   31.9065    2.3880   10.0656    0.0141    4.7955    6.3877   13.7652   51.8414   10.1337   21.7628  198.4285  199.5482 3320.8528
