~Version Information
 VERS.                  2.0:   CWLS log ASCII Standard -VERSION 2.0
 WRAP.                   NO:   One line per depth step
~Well Information Block
#MNEM.UNIT     VALUE/NAME     DESCRIPTION
#---------     -----------    ---------------------------
 STRT.M              2900.0000: START DEPTH
 STOP.M              3434.8000: STOP DEPTH
 STEP.M                 0.1000: STEP DEPTH
 NULL.               -999.2500: NULL VALUE
 UWI .                 W006102:  UNIQUE WELL IDENTIFIER
 API .                 W006102:  API NUMBER
 DFWT.                        :  DIST FWL TEXT
 DFST.                        :  DIST FSL TEXT
 DMF .             Drill Floor:  DRILL MEAS FROM
 STIM.      12.00.00 12-Nov-21:  START TIME
 DATE.      08.19.12 13-Dec-21:  END TIME
 SPUD.               14-Nov-21:  SPUD DATE
 NREF.                    Grid:  NORTH REFERENCE
 HPTY.       Minimum Curvature:  HOLE POS TYPE
 DMOD.             Drill Model:  DRILL MOD DESC
 SVYD.                  Survey:  SURVEY DESC
 ILTD.               Lithology:  INTERP LTH DESC
 FTOP.          Formation Tops:  FORM TOPS DESC
 WELL.             Walyering 5:  WELL NAME
 COMP.     Strike South West Pty Ltd:  COMPANY
 SON .        PA-XX-0907373664:  JOB NUMBER
 GCDE.     Generic Lat/Long's, Degrees, -180 ==> +180:  GEO COORD DESC
 CCDE.     UTM Zone 50S on Geocentric Datum of Australia 1994, Meters:  CART COORD DESC
 GGSY.                      LL:  GEO GRID SYS
 CGSY.             SS GDA94-50:  CART GRID SYS
 GREF.     Ellipsoid World Geodetic System :  GEO REFERENCE
 CREF.     Datum Geocentric Datum of Austra:  CART REFERENCE
 MMDL.            bggm2021.dat:  MAGNETIC MODEL
 MMDD.       10 November, 2021:  MAG DATA DATE
 MDS .              Win MagUTM:  MAG DATA SOURCE
 LLGR.      Latitude/Longitude:  LLGROUP
 XYGR.     Australia/New Zealand Coordinate Systems:  XYGROUP
 WTYP.                Deviated:  WELL TYPE
 PDAT.          Mean Sea Level:  PERMANENT DATUM
 BASE.                   Perth:  LOGGING EQUIPMENT BASE LOCATION
 REGN.            Asia Pacific:  REGION
 CTRY.               Australia:  COUNTRY NAME
 FLD .             Perth Basin:  FIELD NAME
 SRVC.     Ensign Energy Services:  CONTRACTOR
 MWDS.                Jandakot:  MWD SHOP
 RIG .              Ensign 970:  RIG NAME
 DCON.         Sperry Drilling:  DIRECTNL CONTR
 UNIT.                11741669:  LOGGING EQUIPMENT ID
 CNTY.                        :  COUNTY
 PROV.                        :  PROVINCE
 STAT.                        :  STATE
 LOC .                        :  LOCATION
 DEP .m               0.000000:  DEPTH
 TVDS.m             101.180001:  TVDSS CORRECTN
 LATI.deg           -30.730083:  LATITUDE
 LONG.deg           115.478781:  LONGITUDE
 WHNS.m               0.000000:  WELL HEAD N/S
 WHEW.m               0.000000:  WELL HEAD E/W
 UTMX.m          354359.500000:  UTM X
 UTMY.m         6599322.900000:  UTM Y
 DFWL.m               0.000000:  DISTANCE FWL
 DFSL.m               0.000000:  DISTANCE FSL
 SDEP.m              73.999999:  START DEPTH
 TDD .m            3434.999857:  TOTAL DEPTH (DRILLER)
 VSDR.deg           243.910004:  VERT SEC DIRECT
 GVFD.g               1.000000:  GRAVITY FIELD
 MFLD.nT          57661.890625:  MAGNETIC FIELD
 MDIP.deg           -64.786583:  MAGNETIC DIP
 MDEC.deg            -1.367809:  MAGNETIC DECL
 GRDC.deg             0.777471:  GRID CORRECTION
 AZTC.deg            -2.145280:  AZM TOTAL CORR
 EPD .m              94.030000:  ELEVATION
 EGL .m              94.030000:  GROUND ELEVATION
 WDMS.m               0.000000:  WD ELEV
 APD .m               7.150000:  DEPTH ABOVE PD
 MMDE.m             -30.842712:  MAGUTM CALC DEP
 CMER.deg           117.000000:  CENTRL MERIDIAN
 AGAP.m               7.150000:  AIR GAP
 VSC .                       0:  VS TO CLOSURE
 MAGU.                 1390910:  MAGUTM CHECKSUM
~Curve Information Block
#MNEM.UNIT                 API CODE     Curve Description
#---------               -----------    ---------------------------
 DEPT.M                 00 000 000 000:  Depth
 ALPELC.                00 000 000 000:  ALD LCRB Pe Factor
 XBCS.uspf              00 000 000 000:  XBAT Comp Slowness
 RSPD.m/hr              00 000 000 000:  Running Speed
 PGRC.api               00 000 000 000:  PCG Gamma Ray BCorr
 XBEDX.in               00 000 000 000:  XCAL Eqv Hole Size Cor
 AFRSAC.ohmm             00 000 000 000:  AFR Shall Resistivity BC
 AFRMAC.ohmm             00 000 000 000:  AFR Medium Resistivity BC
 AFRDAC.ohmm             00 000 000 000:  AFR Deep Resistivity BC
 ALCDLC.g/cc            00 000 000 000:  ALD LCRB Comp Density
 TNPL.pu                00 000 000 000:  CTN Porosity Limestone
 ALDCLC.g/cc            00 000 000 000:  ALD LCRB Den Correction
 R09PC.ohmm             00 000 000 000:  9in Phase Resistivity BC
 R15PC.ohmm             00 000 000 000:  15in Phase Resistivity BC
 R27PC.ohmm             00 000 000 000:  27in Phase Resistivity BC
 R39PC.ohmm             00 000 000 000:  39in Phase Resistivity BC
 R09AC.ohmm             00 000 000 000:  9in Atten Resistivity BC
 R15AC.ohmm             00 000 000 000:  15in Atten Resistivity BC
 R27AC.ohmm             00 000 000 000:  27in Atten Resistivity BC
 R39AC.ohmm             00 000 000 000:  39in Atten Resistivity BC
 TVD .m                 00 000 000 000:  True Vertical Depth
#Other Information
#
#WARRANTY: Halliburton will use its best efforts to furnish customers with 
#accurate information and interpretations that are part of, and incident to, the services 
#provided.  However, Halliburton cannot and does not warrant the accuracy 
#or correctness of such information and interpretations.  Under no circumstances should any 
#such information or interpretation be relied upon as the sole basis for any drilling, 
#completion, production, or financial decision or any procedure involving any risk to the 
#safety of any drilling venture, drilling rig or its crew or any other third party.  The 
#Customer has full responsibility for all drilling, completion and production operation.  
#Halliburton makes no representations or warranties, either expressed or 
#implied, including, but not limited to, the implied warranties of merchantability or fitness 
#for a particular purpose, with respect to the services rendered.  In no event will 
#Halliburton be liable for failure to obtain any particular results or for 
#any damages, including, but not limited to, indirect, special or consequential damages, 
#resulting from the use of any information or interpretation provided by Halliburton.
#
~A   DEPT     ALPELC     XBCS      RSPD      PGRC      XBEDX     AFRSAC     AFRMAC     AFRDAC    ALCDLC     TNPL     ALDCLC     R09PC     R15PC     R27PC     R39PC     R09AC     R15AC     R27AC     R39AC      TVD    
# ...
   3325.6000    3.2034   96.3894   18.4736 -999.2500   11.7618    0.4415    2.7916    3.0920    2.3478   49.9100    0.1696    0.5429    1.7569    2.6780    3.3074    0.4524    1.5180    4.1336    4.6496 3288.4697
   3325.7000    2.8516   95.2622   27.7746 -999.2500   11.7618    0.4486    2.7176    2.8195    2.2704   52.8505    0.1976    0.5188    2.1261    3.2610   13.8235    0.4447    1.5174    5.6100    5.0108 3288.5732
   3325.8000    3.2975   87.5744   27.2934 -999.2500   11.7618    0.5145    3.0176    3.2744    2.1735   45.1299    0.1403    0.5441   10.6085   15.5037   98.0806    0.4612    1.5616   15.7661    5.8281 3288.6653
   3325.9000    3.7229   86.5809   27.5016 -999.2500    8.9433    0.6029    3.4084    3.7999    2.0600   44.4784    0.0529    0.8112  110.4038  145.7064  626.9260    0.5617    1.6793   82.0829   12.3422 3288.7639
   3326.0000    4.6020   87.4145   37.3662 -999.2500    8.9433    0.8461    5.1585    5.6650    2.1990   44.2729    0.0003    1.0489  259.8365  320.1795  964.0746    0.5907   14.3896   98.1593   27.1657 3288.8616
   3326.1000    5.0356   82.7169   41.3678 -999.2500    8.9433    1.3412    7.4345    8.5571    2.4829   38.0839   -0.0191    1.8780 1124.2853 1261.6794 1603.7345    0.9361  186.1394  184.4929  164.8502 3288.9524
   3326.2000    4.2476   72.2963   25.7356 -999.2500    9.9573    2.3839    8.7371   10.7498    2.6275   35.8215    0.0053    3.4450  165.2563  235.8266 1605.0603    1.6976  200.9169  198.4285   34.3404 3289.0508
   3326.3000    3.5608   75.2636   27.3549 -999.2500    9.9573    5.2955   14.9495   19.1049    2.6410   33.5319    0.0446    3.4621   25.7978   34.0901  418.6170    2.3375  200.9169  198.4285   10.1789 3289.1387
   3326.4000    4.2371   78.8762   27.3566 -999.2500    9.9573    7.5822   16.1204   20.8412    2.5957   30.2954    0.0594    3.7825   16.4545   15.2462   15.4867    3.6009   93.5056   94.7604    7.4091 3289.2395
   3326.5000    4.2905   76.7256   26.7475 -999.2500    9.9163    6.6942   12.3447   15.1281    2.5867   28.7272    0.0591    4.1116    5.4660    9.2874    8.2355    4.3072    5.3695    8.4419    5.7713 3289.3384
   3326.6000    3.5323   76.7717   29.3801 -999.2500    9.9163    3.9714    7.6852    8.5876    2.6141   27.8393    0.0960    3.9492    4.6182    5.6479    5.3405    3.8658    5.0072    5.5923    4.9512 3289.4233
   3326.7000    3.6527   83.2448   41.7808 -999.2500    9.9163    2.8064    5.3843    5.8535    2.5872   27.3799    0.0927    3.0373    3.2270    3.8624    3.9858    3.4076    4.0828    4.4126    4.5177 3289.5276
   3326.8000    3.9030   85.2350   44.2175 -999.2500    8.9594    2.5186    5.2364    5.4837    2.5225   30.3417    0.0778    2.9612    3.5676    4.3157    4.1384    3.1656    4.4183    4.2404    4.3523 3289.6135
   3326.9000    3.6401   86.7140   40.3133 -999.2500    8.9594    2.1955    5.0682    5.3821    2.4771   33.0992    0.0754    2.6284    3.4192    3.8237    3.9441    2.9520    4.2998    4.1910    4.2675 3289.7117
   3327.0000    2.9104   88.6588   25.9538 -999.2500    8.9594    1.8857    4.4271    4.3678    2.5032   36.0853    0.0776    1.7167    2.5065    2.8348    3.3167    2.2754    3.5413    3.8887    4.1592 3289.8127
   3327.1000    4.4494   89.9583   25.7765 -999.2500    8.5598    1.9500    4.7087    4.5328    2.4561   37.1212    0.0563    1.3074    2.5529    3.3321    4.4307    1.8070    3.1985    4.1977    4.3588 3289.8994
   3327.2000    4.4525   87.1762   27.2437 -999.2500    8.5598    1.9241    4.4397    4.3080    2.4954   36.8654    0.0461    1.9003    3.5314    4.4652    5.1703    2.4576    5.1903    5.6710    4.8519 3289.9978
   3327.3000    3.5149   86.1560   30.9270 -999.2500    8.5598    2.0151    4.6612    4.3560    2.5275   35.5007    0.0457    2.6314    4.1828    4.8917    5.0274    2.9072    7.1470    6.6353    5.2767 3290.0999
   3327.4000    2.6970   87.2390   41.0218 -999.2500    9.8662    2.2425    5.3767    4.9754    2.5200   33.7877    0.0465    2.8378    4.3440    5.3691    5.9162    2.6543    6.6161    6.6115    5.4443 3290.1870
   3327.5000    3.2570   86.7925   45.0079 -999.2500    9.8662    2.6597    6.2190    6.0275    2.4774   33.4296    0.0359    2.6121    4.0405    5.3749    6.2115    2.4798    5.9510    6.9853    5.6630 3290.2856
   3327.6000    3.5146   85.4024   47.2491 -999.2500    9.8662    3.3292    6.6864    6.7994    2.4583   34.8762    0.0259    3.6221    5.1373    7.1876    9.1432    4.1246   10.6739    8.8904    6.4360 3290.3752
   3327.7000    3.9091   86.3305   44.3123 -999.2500    9.4258    4.2922    7.1185    7.6634    2.4778   33.4973    0.0333    4.3619    5.5407    7.1428    8.6702    5.1202   10.8130    8.2001    6.1650 3290.4739
   3327.8000    3.7930   86.5330   35.2847 -999.2500    9.4258    4.7537    6.9257    7.6458    2.5061   31.3385    0.0381    3.8359    4.5898    5.2074    5.8114    4.5952    6.5810    6.1909    5.4817 3290.5720
   3327.9000    3.3601   84.6671   28.9252 -999.2500    9.4258    5.8535    8.6016    9.5892    2.5203   29.7239    0.0317    2.7589    3.7572    4.2470    4.9104    3.3985    4.9080    5.2564    5.2065 3290.6636
   3328.0000    3.0870   84.5785   30.2838 -999.2500    9.1078    4.5162    6.4617    7.2335    2.5022   33.6145    0.0193    3.6454    4.4483    4.2296    4.4182    4.0226    4.9291    4.8858    4.7378 3290.7605
   3328.1000    3.1049   86.5602   42.1045 -999.2500    9.1078    3.7154    5.1416    6.0512    2.4723   34.4992    0.0458    2.2981    2.7993    2.6781    2.9708    2.7202    3.5998    3.7152    4.2693 3290.8474
   3328.2000    3.0186   86.6172   47.4293 -999.2500    9.1078    2.8852    4.6569    5.1056    2.5040   34.5019    0.0879    1.5437    1.9998    2.0911    2.4981    2.0563    3.0936    3.5276    4.2528 3290.9500
   3328.3000    2.7932   86.7752   45.6038 -999.2500    9.8943    2.7231    6.0271    5.9812    2.4743   32.7981    0.0758    2.0728    4.3391    4.9471    4.5452    2.3379    4.3447    4.4961    4.7060 3291.0479
   3328.4000    2.9860   86.5178   44.7842 -999.2500    9.8943    2.3686    6.2374    5.7053    2.4553   33.0021    0.0633    2.8721    6.6224    7.6281    6.4769    2.8055    5.6320    5.3636    5.1483 3291.1338
   3328.5000    3.5905   86.0562   45.8960 -999.2500    9.8943    1.9347    5.0394    4.8561    2.4764   34.4397    0.0688    2.4478    3.6189    4.1647    4.1862    2.5609    4.4696    4.7352    5.0919 3291.2375
   3328.6000    3.6386   84.5553   32.6273 -999.2500    9.2833    2.1044    4.9251    5.0835    2.4738   33.6369    0.0346    1.7351    2.9643    3.5414    4.0967    2.1905    4.9369    5.3303    5.5722 3291.3335
   3328.7000    3.4352   84.0998   23.5180 -999.2500    9.2833    2.9499    5.7349    6.8840    2.4921   33.6786    0.0142    3.1970    5.4803    6.8745    6.4267    3.4511    9.8895    8.5011    6.4022 3291.4202
   3328.8000    3.8511   82.8658   40.2275 -999.2500    9.2833    2.7325    5.5111    6.2642    2.5350   34.0557    0.0175    2.5058    3.8977    4.9786    4.8689    2.7141    6.9385    6.6154    5.8210 3291.5237
   3328.9000    3.7058   81.7071   45.6355 -999.2500    9.0632    2.0930    6.0513    5.7176    2.5822   34.3930    0.0317    1.8299    2.5781    3.5012    4.5186    1.9039    3.9813    5.2496    5.8578 3291.6104
   3329.0000    3.0035   79.9842   44.6577 -999.2500    9.0632    1.9979    6.0703    5.6668    2.6097   33.4536    0.0390    3.2982    5.2758    7.1256    8.4082    3.9995   12.3384    8.9675    7.5877 3291.7080
   3329.1000    2.6804   79.6211   46.4997 -999.2500    9.0632    2.4351    7.0429    6.2337    2.5793   32.1295    0.0185    7.0557   11.3762   14.4198   11.9314   12.1153   42.6596   16.5698    8.9995 3291.8088
   3329.2000    3.1008   79.3247   46.5241 -999.2500    8.9382    3.7782    9.3723    7.5707    2.5271   32.5189    0.0391    3.9454    6.5431    7.1761    6.9591    6.2502   16.3405    9.9714    7.8294 3291.8967
   3329.3000    3.2354   81.2979   44.7059 -999.2500    8.9382    4.7547    9.4669    8.7983    2.5224   31.5342    0.0393    3.3738    4.6764    5.1282    5.8338    4.4030    8.2015    7.8989    7.5873 3291.9956
