~Version Information
 VERS.                  2.0:   CWLS log ASCII Standard -VERSION 2.0
 WRAP.                   NO:   One line per depth step
~Well Information Block
#MNEM.UNIT     VALUE/NAME     DESCRIPTION
#---------     -----------    ---------------------------
 STRT.M              2900.0000: START DEPTH
 STOP.M              3434.8000: STOP DEPTH
 STEP.M                 0.1000: STEP DEPTH
 NULL.               -999.2500: NULL VALUE
 UWI .                 W006102:  UNIQUE WELL IDENTIFIER
 API .                 W006102:  API NUMBER
 DFWT.                        :  DIST FWL TEXT
 DFST.                        :  DIST FSL TEXT
 DMF .             Drill Floor:  DRILL MEAS FROM
 STIM.      12.00.00 12-Nov-21:  START TIME
 DATE.      08.19.12 13-Dec-21:  END TIME
 SPUD.               14-Nov-21:  SPUD DATE
 NREF.                    Grid:  NORTH REFERENCE
 HPTY.       Minimum Curvature:  HOLE POS TYPE
 DMOD.             Drill Model:  DRILL MOD DESC
 SVYD.                  Survey:  SURVEY DESC
 ILTD.               Lithology:  INTERP LTH DESC
 FTOP.          Formation Tops:  FORM TOPS DESC
 WELL.             Walyering 5:  WELL NAME
 COMP.     Strike South West Pty Ltd:  COMPANY
 SON .        PA-XX-0907373664:  JOB NUMBER
 GCDE.     Generic Lat/Long's, Degrees, -180 ==> +180:  GEO COORD DESC
 CCDE.     UTM Zone 50S on Geocentric Datum of Australia 1994, Meters:  CART COORD DESC
 GGSY.                      LL:  GEO GRID SYS
 CGSY.             SS GDA94-50:  CART GRID SYS
 GREF.     Ellipsoid World Geodetic System :  GEO REFERENCE
 CREF.     Datum Geocentric Datum of Austra:  CART REFERENCE
 MMDL.            bggm2021.dat:  MAGNETIC MODEL
 MMDD.       10 November, 2021:  MAG DATA DATE
 MDS .              Win MagUTM:  MAG DATA SOURCE
 LLGR.      Latitude/Longitude:  LLGROUP
 XYGR.     Australia/New Zealand Coordinate Systems:  XYGROUP
 WTYP.                Deviated:  WELL TYPE
 PDAT.          Mean Sea Level:  PERMANENT DATUM
 BASE.                   Perth:  LOGGING EQUIPMENT BASE LOCATION
 REGN.            Asia Pacific:  REGION
 CTRY.               Australia:  COUNTRY NAME
 FLD .             Perth Basin:  FIELD NAME
 SRVC.     Ensign Energy Services:  CONTRACTOR
 MWDS.                Jandakot:  MWD SHOP
 RIG .              Ensign 970:  RIG NAME
 DCON.         Sperry Drilling:  DIRECTNL CONTR
 UNIT.                11741669:  LOGGING EQUIPMENT ID
 CNTY.                        :  COUNTY
 PROV.                        :  PROVINCE
 STAT.                        :  STATE
 LOC .                        :  LOCATION
 DEP .m               0.000000:  DEPTH
 TVDS.m             101.180001:  TVDSS CORRECTN
 LATI.deg           -30.730083:  LATITUDE
 LONG.deg           115.478781:  LONGITUDE
 WHNS.m               0.000000:  WELL HEAD N/S
 WHEW.m               0.000000:  WELL HEAD E/W
 UTMX.m          354359.500000:  UTM X
 UTMY.m         6599322.900000:  UTM Y
 DFWL.m               0.000000:  DISTANCE FWL
 DFSL.m               0.000000:  DISTANCE FSL
 SDEP.m              73.999999:  START DEPTH
 TDD .m            3434.999857:  TOTAL DEPTH (DRILLER)
 VSDR.deg           243.910004:  VERT SEC DIRECT
 GVFD.g               1.000000:  GRAVITY FIELD
 MFLD.nT          57661.890625:  MAGNETIC FIELD
 MDIP.deg           -64.786583:  MAGNETIC DIP
 MDEC.deg            -1.367809:  MAGNETIC DECL
 GRDC.deg             0.777471:  GRID CORRECTION
 AZTC.deg            -2.145280:  AZM TOTAL CORR
 EPD .m              94.030000:  ELEVATION
 EGL .m              94.030000:  GROUND ELEVATION
 WDMS.m               0.000000:  WD ELEV
 APD .m               7.150000:  DEPTH ABOVE PD
 MMDE.m             -30.842712:  MAGUTM CALC DEP
 CMER.deg           117.000000:  CENTRL MERIDIAN
 AGAP.m               7.150000:  AIR GAP
 VSC .                       0:  VS TO CLOSURE
 MAGU.                 1390910:  MAGUTM CHECKSUM
~Curve Information Block
#MNEM.UNIT                 API CODE     Curve Description
#---------               -----------    ---------------------------
 DEPT.M                 00 000 000 000:  Depth
 ALPELC.                00 000 000 000:  ALD LCRB Pe Factor
 XBCS.uspf              00 000 000 000:  XBAT Comp Slowness
 RSPD.m/hr              00 000 000 000:  Running Speed
 PGRC.api               00 000 000 000:  PCG Gamma Ray BCorr
 XBEDX.in               00 000 000 000:  XCAL Eqv Hole Size Cor
 AFRSAC.ohmm             00 000 000 000:  AFR Shall Resistivity BC
 AFRMAC.ohmm             00 000 000 000:  AFR Medium Resistivity BC
 AFRDAC.ohmm             00 000 000 000:  AFR Deep Resistivity BC
 ALCDLC.g/cc            00 000 000 000:  ALD LCRB Comp Density
 TNPL.pu                00 000 000 000:  CTN Porosity Limestone
 ALDCLC.g/cc            00 000 000 000:  ALD LCRB Den Correction
 R09PC.ohmm             00 000 000 000:  9in Phase Resistivity BC
 R15PC.ohmm             00 000 000 000:  15in Phase Resistivity BC
 R27PC.ohmm             00 000 000 000:  27in Phase Resistivity BC
 R39PC.ohmm             00 000 000 000:  39in Phase Resistivity BC
 R09AC.ohmm             00 000 000 000:  9in Atten Resistivity BC
 R15AC.ohmm             00 000 000 000:  15in Atten Resistivity BC
 R27AC.ohmm             00 000 000 000:  27in Atten Resistivity BC
 R39AC.ohmm             00 000 000 000:  39in Atten Resistivity BC
 TVD .m                 00 000 000 000:  True Vertical Depth
#Other Information
#
#WARRANTY: Halliburton will use its best efforts to furnish customers with 
#accurate information and interpretations that are part of, and incident to, the services 
#provided.  However, Halliburton cannot and does not warrant the accuracy 
#or correctness of such information and interpretations.  Under no circumstances should any 
#such information or interpretation be relied upon as the sole basis for any drilling, 
#completion, production, or financial decision or any procedure involving any risk to the 
#safety of any drilling venture, drilling rig or its crew or any other third party.  The 
#Customer has full responsibility for all drilling, completion and production operation.  
#Halliburton makes no representations or warranties, either expressed or 
#implied, including, but not limited to, the implied warranties of merchantability or fitness 
#for a particular purpose, with respect to the services rendered.  In no event will 
#Halliburton be liable for failure to obtain any particular results or for 
#any damages, including, but not limited to, indirect, special or consequential damages, 
#resulting from the use of any information or interpretation provided by Halliburton.
#
~A   DEPT     ALPELC     XBCS      RSPD      PGRC      XBEDX     AFRSAC     AFRMAC     AFRDAC    ALCDLC     TNPL     ALDCLC     R09PC     R15PC     R27PC     R39PC     R09AC     R15AC     R27AC     R39AC      TVD    
# ...
   3196.4000    3.7726   69.9634   17.9646 -999.2500    8.7627    4.1019    9.2175   11.0189    2.5923   22.7717    0.0277    6.5339    9.6232   12.0879   10.3380    6.1896   10.6480    9.7565    7.1837 3166.0107
   3196.5000    3.7054   65.3879   12.9483 -999.2500    8.7627    4.9115   10.6221   12.6587    2.6350   22.6977    0.0267    6.2351    8.7370    9.9143    8.7478    6.1701   11.4678    9.1954    7.0181 3166.1055
   3196.6000    3.7923   67.4062   18.2473 -999.2500    9.3219    5.7168   12.5536   14.7870    2.6577   22.9651    0.0536    5.2020    7.3574    7.9642    7.1751    5.0464    8.3183    7.8760    6.7301 3166.1985
   3196.7000    4.0980   68.8332   18.2385 -999.2500    9.3219    6.1229   12.6937   14.6234    2.6450   22.5491    0.0606    4.5164    5.9917    6.8262    6.5444    3.9732    6.5137    6.9048    6.7085 3166.2935
   3196.8000    3.6210   69.8074   18.4497 -999.2500    9.3219    6.5214   13.0819   14.3273    2.6215   23.5403    0.0299    4.0722    6.1009    6.6730    6.4364    3.8179    6.8119    7.7393    7.1846 3166.3889
   3196.9000    3.3821   71.5975   18.3268 -999.2500    9.3253    6.5874   14.4853   14.6581    2.6180   24.9763    0.0294    4.3856    7.0553    7.3877    7.0386    4.7437    9.7707    9.2780    7.8850 3166.4822
   3197.0000    3.7067   75.3570   18.2967 -999.2500    9.3253    5.6261   12.6893   12.3910    2.6168   27.1503    0.0581    4.3002    7.5499    7.5686    7.2891    4.9402   12.7830    9.5762    7.8242 3166.5769
   3197.1000    3.5963   79.5424   18.1342 -999.2500    9.3253    4.3009    8.4962    8.3379    2.6015   30.9703    0.0884    3.4345    5.7988    4.9421    5.6275    4.2992    9.1859    8.1931    7.7897 3166.6726
   3197.2000    3.6296   84.2201   16.3219 -999.2500    9.1064    3.3885    6.5459    6.2262    2.5665   33.1413    0.1121    2.4990    3.6166    3.7679    4.4576    3.3799    6.2697    6.8513    7.4936 3166.7795
   3197.3000    3.3186   85.1349   13.1837 -999.2500    8.8874    3.0734    6.0497    5.8165    2.5096   31.8813    0.0774    2.0655    3.3530    4.2131    5.1371    2.4528    5.5306    7.0898    8.0372 3166.8564
   3197.4000    3.6632   85.2790   17.0200 -999.2500    8.8874    2.6564    5.8123    5.0889    2.4598   32.2198    0.0626    2.9222    5.5202    7.0158    9.3816    2.9394   10.2600   11.8022   10.3478 3166.9490
   3197.5000    3.4474   85.5644   16.8629 -999.2500    8.8874    2.6811    6.7944    5.8792    2.4671   33.4113    0.0496    3.6422    6.8845   11.1046   12.6482    3.5909   18.3021   17.8836   12.0695 3167.0483
   3197.6000    2.8056   84.7069   17.4419 -999.2500    9.0520    2.9857    7.6860    6.6502    2.4101   34.7424    0.0252    4.2973    6.7569   10.9629   12.2195    3.9324   17.1729   17.3450   12.5165 3167.1443
   3197.7000    3.1448   83.4403   18.6457 -999.2500    9.0520    3.2695    8.2486    7.1516    2.4403   34.9330    0.0051    5.0296    7.1190   10.7769   13.6777    5.1314   16.9819   20.6485   12.5354 3167.2395
   3197.8000    3.6578   80.3919   17.7997 -999.2500    9.0520    3.9121    9.5644    8.3487    2.4741   33.0552    0.0344    4.7196    6.5153    8.3093    9.4453    6.2149   22.5624   16.0627   12.0998 3167.3311
   3197.9000    3.4392   79.9652   17.5751 -999.2500    8.8507    4.6376   11.1322   10.0350    2.4886   31.9793    0.0260    3.3974    4.6512    5.8992    7.2710    4.1141    9.5337   11.0977   10.8405 3167.4268
   3198.0000    3.2520   79.5300   16.9522 -999.2500    8.8507    4.2279    9.8311    8.8101    2.5034   31.6963    0.0199    3.8427    5.2169    6.9960    8.8358    4.8453    9.9090   13.3319   11.8299 3167.5227
   3198.1000    3.2114   78.0996   18.0194 -999.2500    8.8507    3.8759    8.2029    7.2562    2.5425   28.8014    0.0226    4.4316    5.1426    7.1545    9.2985    6.2358   11.4261   13.8059   12.6137 3167.6177
   3198.2000    3.0428   75.4531   17.8189 -999.2500    8.6859    4.4518    8.1536    7.5569    2.5332   26.5188    0.0211    3.1135    8.4317   10.5596   11.3121    4.6148   14.0512   11.6221   11.9367 3167.7112
   3198.3000    3.3481   71.8732   18.5533 -999.2500    8.6859    4.6236    8.1221    7.8537    2.5358   24.7770    0.0132  280.3953   51.5271  252.3259   59.1772    9.5202   62.1619   23.2775   13.8826 3167.8069
   3198.4000    3.8401   68.2081   17.6342 -999.2500    8.6859    5.9019   10.9607   10.9450    2.5658   22.3400    0.0236 1247.9019  105.0961  974.7948  139.4749   24.4347  140.6101   40.7518   14.8631 3167.9014
   3198.5000    3.9326   64.2368   16.7545 -999.2500    9.2497   12.0324   23.7359   26.3382    2.5799   19.0288    0.0471  209.0503   37.2967  181.5440   39.3557   10.9296   45.2592   22.1510   12.9579 3167.9917
   3198.6000    3.8233   63.4269   17.0222 -999.2500    9.2497   17.5780   52.1749   56.7973    2.5814   15.7806    0.0570    7.5711   15.0698   16.6410   14.8514    6.0079   17.5886   14.8645   11.6176 3168.0903
   3198.7000    3.6181   64.7241   17.2278 -999.2500    9.2497   19.4868   68.0042   76.4439    2.5761   14.8076    0.0481    8.6248   13.2234   13.3626   13.5692    6.4050   13.2718   13.3803   10.9460 3168.1853
   3198.8000    3.3718   63.5134   18.6026 -999.2500    9.1287   19.5259   69.8932   79.1581    2.5809   14.7734    0.0262   12.7889   22.5526   15.5731   16.2294    8.4511   18.4054   13.6532   11.0222 3168.2756
   3198.9000    3.3933   66.0343   20.6631 -999.2500    9.1287   17.8447   67.0730   74.4052    2.5879   16.5074    0.0415   10.9921   31.2822   19.1892   17.2559    6.3184   15.8757   13.2147   10.4183 3168.3740
   3199.0000    3.9947   70.4028   18.3414 -999.2500    9.1287   17.6236   71.7971   75.4994    2.6048   22.9639    0.0867   11.1938   17.9007   14.0889   12.0207    6.7572   14.6231   11.6351    9.5810 3168.4685
   3199.1000    2.9318   68.4323   17.8206 -999.2500    9.6872   16.6246   61.1144   73.0711    2.6177   31.2934    0.1219    4.4582    6.0991    5.5407    5.5800    4.2263    7.0660    6.7624    7.6428 3168.5620
   3199.2000    2.3754   70.2719   18.9974 -999.2500    9.6872   10.2659   36.0449   43.6413    2.5529   31.8771    0.0725    2.7059    3.4719    4.2878    4.3939    2.3506    3.7073    4.7798    6.7401 3168.6570
   3199.3000    3.1229   72.9322   20.2911 -999.2500    9.6872    3.9513   12.9436   13.9852    2.5081   28.5051    0.0712    3.4771    5.5228    6.5445    6.7104    2.0283    5.3900    6.5142    8.0028 3168.7524
   3199.4000    3.0540   77.2081   13.0664 -999.2500    9.3476    2.5133    7.7677    7.6786    2.5018   28.3697    0.0875    3.1130    5.8884    6.2399    7.3285    2.4307    9.1711    8.8682    8.9356 3168.8457
   3199.5000    3.3339   78.4734   15.7475 -999.2500    9.3476    2.0994    6.4178    6.5287    2.4916   33.1424    0.0648    2.1431    5.2528    5.2317    5.7820    2.0653    7.7420    8.2717    8.1000 3168.9424
   3199.6000    4.5347   79.1723   17.6772 -999.2500    9.3476    1.5357    5.4990    5.5247    2.4756   33.6209    0.0149    2.5228    7.1587    9.5640   10.0032    1.8705    7.2970   10.0797    8.9057 3169.0364
   3199.7000    4.7813   79.2629   22.7535 -999.2500   10.4275    1.1750    5.4729    5.1072    2.5505   33.8497    0.0370    4.2046   11.0101   13.0413   13.4733    2.1930   12.3006   12.9502    9.4762 3169.1262
   3199.8000    3.6181   78.8336   20.1983 -999.2500   10.4275    1.0192    6.6176    6.1183    2.6199   35.4374    0.0823    3.1215    6.3742    8.0062    7.2562    1.9848    6.9724    8.4100    7.3705 3169.2241
   3199.9000    3.1744   79.6842   16.5565 -999.2500   10.4275    1.0502    6.5209    6.2573    2.5985   36.3553    0.1139    1.8789    2.8214    3.5892    3.8700    1.4606    3.4069    5.3356    5.9732 3169.3174
   3200.0000    3.0879   83.8335   16.3521 -999.2500    9.0998    0.9038    5.6246    5.4669    2.5339   37.6060    0.1011    1.3370    1.7241    2.2873    2.8666    1.3080    2.3085    4.0773    5.3759 3169.4138
   3200.1000    3.1627   82.8570   21.5856 -999.2500    9.0998    0.7940    4.7467    4.5873    2.4681   37.8384    0.0491    1.4225    1.9152    2.4561    3.4670    1.0470    2.3866    4.4000    6.2815 3169.5056
