~Version Information
 VERS.                  2.0:   CWLS log ASCII Standard -VERSION 2.0
 WRAP.                   NO:   One line per depth step
~Well Information Block
#MNEM.UNIT     VALUE/NAME     DESCRIPTION
#---------     -----------    ---------------------------
 STRT.M              2900.0000: START DEPTH
 STOP.M              3434.8000: STOP DEPTH
 STEP.M                 0.1000: STEP DEPTH
 NULL.               -999.2500: NULL VALUE
 UWI .                 W006102:  UNIQUE WELL IDENTIFIER
 API .                 W006102:  API NUMBER
 DFWT.                        :  DIST FWL TEXT
 DFST.                        :  DIST FSL TEXT
 DMF .             Drill Floor:  DRILL MEAS FROM
 STIM.      12.00.00 12-Nov-21:  START TIME
 DATE.      08.19.12 13-Dec-21:  END TIME
 SPUD.               14-Nov-21:  SPUD DATE
 NREF.                    Grid:  NORTH REFERENCE
 HPTY.       Minimum Curvature:  HOLE POS TYPE
 DMOD.             Drill Model:  DRILL MOD DESC
 SVYD.                  Survey:  SURVEY DESC
 ILTD.               Lithology:  INTERP LTH DESC
 FTOP.          Formation Tops:  FORM TOPS DESC
 WELL.             Walyering 5:  WELL NAME
 COMP.     Strike South West Pty Ltd:  COMPANY
 SON .        PA-XX-0907373664:  JOB NUMBER
 GCDE.     Generic Lat/Long's, Degrees, -180 ==> +180:  GEO COORD DESC
 CCDE.     UTM Zone 50S on Geocentric Datum of Australia 1994, Meters:  CART COORD DESC
 GGSY.                      LL:  GEO GRID SYS
 CGSY.             SS GDA94-50:  CART GRID SYS
 GREF.     Ellipsoid World Geodetic System :  GEO REFERENCE
 CREF.     Datum Geocentric Datum of Austra:  CART REFERENCE
 MMDL.            bggm2021.dat:  MAGNETIC MODEL
 MMDD.       10 November, 2021:  MAG DATA DATE
 MDS .              Win MagUTM:  MAG DATA SOURCE
 LLGR.      Latitude/Longitude:  LLGROUP
 XYGR.     Australia/New Zealand Coordinate Systems:  XYGROUP
 WTYP.                Deviated:  WELL TYPE
 PDAT.          Mean Sea Level:  PERMANENT DATUM
 BASE.                   Perth:  LOGGING EQUIPMENT BASE LOCATION
 REGN.            Asia Pacific:  REGION
 CTRY.               Australia:  COUNTRY NAME
 FLD .             Perth Basin:  FIELD NAME
 SRVC.     Ensign Energy Services:  CONTRACTOR
 MWDS.                Jandakot:  MWD SHOP
 RIG .              Ensign 970:  RIG NAME
 DCON.         Sperry Drilling:  DIRECTNL CONTR
 UNIT.                11741669:  LOGGING EQUIPMENT ID
 CNTY.                        :  COUNTY
 PROV.                        :  PROVINCE
 STAT.                        :  STATE
 LOC .                        :  LOCATION
 DEP .m               0.000000:  DEPTH
 TVDS.m             101.180001:  TVDSS CORRECTN
 LATI.deg           -30.730083:  LATITUDE
 LONG.deg           115.478781:  LONGITUDE
 WHNS.m               0.000000:  WELL HEAD N/S
 WHEW.m               0.000000:  WELL HEAD E/W
 UTMX.m          354359.500000:  UTM X
 UTMY.m         6599322.900000:  UTM Y
 DFWL.m               0.000000:  DISTANCE FWL
 DFSL.m               0.000000:  DISTANCE FSL
 SDEP.m              73.999999:  START DEPTH
 TDD .m            3434.999857:  TOTAL DEPTH (DRILLER)
 VSDR.deg           243.910004:  VERT SEC DIRECT
 GVFD.g               1.000000:  GRAVITY FIELD
 MFLD.nT          57661.890625:  MAGNETIC FIELD
 MDIP.deg           -64.786583:  MAGNETIC DIP
 MDEC.deg            -1.367809:  MAGNETIC DECL
 GRDC.deg             0.777471:  GRID CORRECTION
 AZTC.deg            -2.145280:  AZM TOTAL CORR
 EPD .m              94.030000:  ELEVATION
 EGL .m              94.030000:  GROUND ELEVATION
 WDMS.m               0.000000:  WD ELEV
 APD .m               7.150000:  DEPTH ABOVE PD
 MMDE.m             -30.842712:  MAGUTM CALC DEP
 CMER.deg           117.000000:  CENTRL MERIDIAN
 AGAP.m               7.150000:  AIR GAP
 VSC .                       0:  VS TO CLOSURE
 MAGU.                 1390910:  MAGUTM CHECKSUM
~Curve Information Block
#MNEM.UNIT                 API CODE     Curve Description
#---------               -----------    ---------------------------
 DEPT.M                 00 000 000 000:  Depth
 ALPELC.                00 000 000 000:  ALD LCRB Pe Factor
 XBCS.uspf              00 000 000 000:  XBAT Comp Slowness
 RSPD.m/hr              00 000 000 000:  Running Speed
 PGRC.api               00 000 000 000:  PCG Gamma Ray BCorr
 XBEDX.in               00 000 000 000:  XCAL Eqv Hole Size Cor
 AFRSAC.ohmm             00 000 000 000:  AFR Shall Resistivity BC
 AFRMAC.ohmm             00 000 000 000:  AFR Medium Resistivity BC
 AFRDAC.ohmm             00 000 000 000:  AFR Deep Resistivity BC
 ALCDLC.g/cc            00 000 000 000:  ALD LCRB Comp Density
 TNPL.pu                00 000 000 000:  CTN Porosity Limestone
 ALDCLC.g/cc            00 000 000 000:  ALD LCRB Den Correction
 R09PC.ohmm             00 000 000 000:  9in Phase Resistivity BC
 R15PC.ohmm             00 000 000 000:  15in Phase Resistivity BC
 R27PC.ohmm             00 000 000 000:  27in Phase Resistivity BC
 R39PC.ohmm             00 000 000 000:  39in Phase Resistivity BC
 R09AC.ohmm             00 000 000 000:  9in Atten Resistivity BC
 R15AC.ohmm             00 000 000 000:  15in Atten Resistivity BC
 R27AC.ohmm             00 000 000 000:  27in Atten Resistivity BC
 R39AC.ohmm             00 000 000 000:  39in Atten Resistivity BC
 TVD .m                 00 000 000 000:  True Vertical Depth
#Other Information
#
#WARRANTY: Halliburton will use its best efforts to furnish customers with 
#accurate information and interpretations that are part of, and incident to, the services 
#provided.  However, Halliburton cannot and does not warrant the accuracy 
#or correctness of such information and interpretations.  Under no circumstances should any 
#such information or interpretation be relied upon as the sole basis for any drilling, 
#completion, production, or financial decision or any procedure involving any risk to the 
#safety of any drilling venture, drilling rig or its crew or any other third party.  The 
#Customer has full responsibility for all drilling, completion and production operation.  
#Halliburton makes no representations or warranties, either expressed or 
#implied, including, but not limited to, the implied warranties of merchantability or fitness 
#for a particular purpose, with respect to the services rendered.  In no event will 
#Halliburton be liable for failure to obtain any particular results or for 
#any damages, including, but not limited to, indirect, special or consequential damages, 
#resulting from the use of any information or interpretation provided by Halliburton.
#
~A   DEPT     ALPELC     XBCS      RSPD      PGRC      XBEDX     AFRSAC     AFRMAC     AFRDAC    ALCDLC     TNPL     ALDCLC     R09PC     R15PC     R27PC     R39PC     R09AC     R15AC     R27AC     R39AC      TVD    
# ...
   2972.2000    2.1532   75.6593   46.4808 -999.2500    8.4476    0.9614    1.7910    2.6811    2.3242   15.7070    0.0032    0.8858    1.0314    1.6333    3.2781    1.5157    2.3613    4.4680    6.9266 2953.6121
   2972.3000    1.8987   75.0788   42.8033 -999.2500    8.4174    0.9990    1.8837    2.8016    2.3068   15.1803   -0.0078    0.9340    1.0812    1.8519    3.6200    1.5322    2.4046    4.6449    6.8445 2953.6982
   2972.4000    1.9711   74.7430   36.2197 -999.2500    8.4174    1.0215    1.9757    2.8605    2.3442   15.6201    0.0104    0.9992    1.1404    2.0056    3.7873    1.5407    2.3540    4.6542    6.7841 2953.7966
   2972.5000    1.8927   74.8822   34.8092 -999.2500    8.4174    1.0801    2.0896    2.9818    2.3362   15.8319    0.0079    1.0685    1.1881    1.9585    3.8238    1.5725    2.2816    4.6347    6.9437 2953.8948
   2972.6000    1.8018   76.1355   30.8831 -999.2500    8.4191    1.1385    2.2000    3.0602    2.3273   15.8053    0.0031    1.1341    1.2151    1.8747    3.8043    1.6358    2.2518    4.6381    7.2111 2953.9810
   2972.7000    1.7305   75.8366   44.0499 -999.2500    8.4191    1.2248    2.3608    3.2245    2.3185   15.4742   -0.0017    1.1779    1.2400    1.7658    3.7406    1.6758    2.2558    4.5873    7.7340 2954.0842
   2972.8000    1.7120   75.1736   44.5943 -999.2500    8.4191    1.2702    2.3730    3.2951    2.3024   15.4613   -0.0081    1.2107    1.2577    1.7097    3.6734    1.6999    2.2650    4.5588    7.9581 2954.1755
   2972.9000    1.9416   75.6977   43.8964 -999.2500    8.4211    1.2708    2.2996    3.2381    2.3042   15.4816   -0.0120    1.2495    1.2792    1.7135    3.6521    1.7112    2.2799    4.6007    8.0653 2954.2668
   2973.0000    2.1521   76.3357   39.7940 -999.2500    8.4211    1.3065    2.3285    3.3041    2.3115   14.8233   -0.0119    1.3167    1.3274    1.7575    3.7408    1.7147    2.3192    4.7692    8.5977 2954.3701
   2973.1000    2.1050   76.2247   37.6975 -999.2500    8.4211    1.3479    2.4054    3.4341    2.3262   14.9901   -0.0092    1.3867    1.3826    1.8122    3.8438    1.7795    2.3983    5.0662    9.0696 2954.4563
   2973.2000    1.9945   76.1276   35.6925 -999.2500    8.4464    1.4439    2.5635    3.7322    2.3427   15.1779   -0.0029    1.4125    1.4083    1.8064    3.8471    1.8303    2.4589    5.2878    9.4316 2954.5547
   2973.3000    2.0856   76.0059   35.6549 -999.2500    8.4464    1.5537    2.6649    4.0003    2.3512   14.7959    0.0070    1.4410    1.4246    1.8262    3.9529    1.9343    2.5516    5.6276    9.9510 2954.6528
   2973.4000    2.2250   75.5330   36.1128 -999.2500    8.4464    1.4949    2.5466    3.7501    2.3381   14.8999    0.0045    1.4769    1.4627    1.8952    4.1982    2.0590    2.6974    6.0532   10.4942 2954.7393
   2973.5000    1.9238   75.0782   41.9779 -999.2500    8.4096    1.4939    2.5313    3.6828    2.3310   15.2886    0.0008    1.5153    1.5603    2.0300    4.5703    2.1438    2.9194    6.4660   10.8012 2954.8423
   2973.6000    1.8415   75.3728   44.3785 -999.2500    8.4096    1.5083    2.5818    3.7247    2.3277   15.7092   -0.0044    1.5721    1.6564    2.2472    4.9628    2.2900    3.2047    6.9187   11.0572 2954.9346
   2973.7000    2.0345   75.5047   41.7240 -999.2500    8.4096    1.5320    2.7209    3.8966    2.3386   16.1866   -0.0034    1.6415    1.7510    2.4253    5.2371    2.4567    3.4427    7.2072   10.8360 2955.0256
   2973.8000    2.3270   75.5269   36.4549 -999.2500    8.4394    1.5456    2.8179    4.0645    2.3698   16.2068    0.0100    1.6745    1.8137    2.5228    5.2616    2.5964    3.6281    7.2531   10.7325 2955.1240
   2973.9000    1.9932   75.7380   37.4788 -999.2500    8.4394    1.5893    2.9644    4.2996    2.3584   15.7835    0.0066    1.6711    1.8416    2.5864    5.1737    2.7062    3.7624    7.1581   10.4644 2955.2153
   2974.0000    2.1366   77.0481   35.8234 -999.2500    8.4394    1.5994    3.0504    4.3938    2.3615   15.4385    0.0143    1.6391    1.8361    2.6530    5.1095    2.7720    3.8456    7.0333    9.7759 2955.3127
   2974.1000    2.3746   77.4986   26.5541 -999.2500    8.4143    1.5554    2.9866    4.3043    2.3537   15.5914    0.0188    1.6096    1.8185    2.6610    5.0281    2.7139    3.9069    6.9720    9.5583 2955.4109
   2974.2000    2.3881   78.4689   16.6008 -999.2500    8.4143    1.5252    2.9453    4.2303    2.3409   16.3012    0.0178    1.5841    1.7953    2.6474    4.9763    2.6550    3.9147    6.8773    9.3502 2955.4973
   2974.3000    1.8532   78.3187   39.4046 -999.2500    8.4143    1.4979    2.9292    4.1680    2.3336   16.0432    0.0106    1.5391    1.7626    2.6586    4.8343    2.5506    3.8458    6.7778    8.9913 2955.6006
   2974.4000    1.6477   78.2469   39.7421 -999.2500    8.3965    1.4572    2.8586    4.0809    2.3260   15.8677    0.0075    1.4869    1.6948    2.6075    4.6251    2.4265    3.6878    6.5625    8.5814 2955.6919
   2974.5000    1.8969   78.5163   35.9694 -999.2500    8.3965    1.4669    2.7666    4.1306    2.3266   15.7833    0.0133    1.4397    1.5935    2.4530    4.4322    2.3211    3.4754    6.2260    8.3224 2955.7832
   2974.6000    2.2212   78.3753   36.8037 -999.2500    8.3965    1.4126    2.7056    3.9852    2.3383   16.4230    0.0200    1.3431    1.4958    2.3157    4.2393    2.1546    3.2359    5.9616    8.2361 2955.8865
   2974.7000    2.1561   77.9089   37.7137 -999.2500    8.4052    1.3407    2.5157    3.7715    2.3376   16.5252    0.0181    1.3103    1.4743    2.1989    4.0404    2.0912    3.0864    5.7232    8.1106 2955.9727
   2974.8000    1.8063   77.8701   35.7022 -999.2500    8.4052    1.2774    2.3916    3.6237    2.3246   16.4473    0.0085    1.2701    1.4177    2.1304    4.0041    2.0072    2.9017    5.4482    7.8411 2956.0710
   2974.9000    2.1400   77.8125   35.4637 -999.2500    8.4052    1.2624    2.3881    3.6744    2.3405   16.1126    0.0213    1.2362    1.3622    2.0543    3.9201    1.8972    2.7293    5.2408    7.7354 2956.1682
   2975.0000    2.3097   77.2874   33.5964 -999.2500    8.4223    1.2649    2.4398    3.7894    2.3494   15.7816    0.0198    1.2161    1.3205    1.9270    3.6843    1.7798    2.5912    5.1256    7.8757 2956.2588
   2975.1000    2.1314   76.8245   28.1689 -999.2500    8.4393    1.2673    2.5220    3.8814    2.3692   15.8513    0.0260    1.1776    1.2264    1.7598    3.5060    1.7112    2.4382    4.9567    7.7823 2956.3582
   2975.2000    2.2034   76.6057   34.6237 -999.2500    8.4393    1.2504    2.5434    3.8721    2.3724   16.4825    0.0305    1.0938    1.1442    1.6706    3.2866    1.6291    2.3486    5.0137    7.8595 2956.4507
   2975.3000    2.0134   77.1025   35.5563 -999.2500    8.4393    1.1742    2.4826    3.7075    2.3558   16.7777    0.0230    1.0576    1.1218    1.6329    3.4089    1.6427    2.3775    5.0689    7.7907 2956.5400
   2975.4000    1.9254   77.7488   36.8037 -999.2500    8.4134    1.1100    2.4169    3.5621    2.3493   16.9333    0.0189    1.0317    1.1306    1.6882    3.5119    1.6441    2.3919    4.9253    7.4026 2956.6443
   2975.5000    2.0647   77.2666   37.7129 -999.2500    8.4134    1.1318    2.4888    3.7188    2.3529   16.8402    0.0211    1.0004    1.1354    1.7670    3.4384    1.6033    2.3316    4.5328    6.7728 2956.7305
   2975.6000    2.2554   76.9444   35.6934 -999.2500    8.4134    1.1033    2.5150    3.7028    2.3560   16.5618    0.0245    0.9700    1.0698    1.6186    3.1747    1.5675    2.1760    3.9133    6.2533 2956.8289
   2975.7000    2.0576   75.1863   34.7218 -999.2500    8.4154    1.0292    2.3366    3.4226    2.3584   15.6253    0.0191    0.9144    1.0190    1.5954    2.8242    1.4808    2.0543    3.4988    5.8583 2956.9263
   2975.8000    2.1718   74.3910   31.3846 -999.2500    8.4154    1.0073    2.2076    3.2249    2.3830   14.6580    0.0140    0.8813    1.0139    1.4312    2.6491    1.4246    1.9590    3.2941    6.0474 2957.0168
   2975.9000    2.1265   73.0387   26.9978 -999.2500    8.4154    0.9495    2.0179    2.7905    2.3921   15.0462    0.0089    0.8532    0.9737    1.3667    2.6363    1.3806    1.9310    3.4722    6.7497 2957.1157
