~Version Information
 VERS.                  2.0:   CWLS log ASCII Standard -VERSION 2.0
 WRAP.                   NO:   One line per depth step
~Well Information Block
#MNEM.UNIT     VALUE/NAME     DESCRIPTION
#---------     -----------    ---------------------------
 STRT.M              2355.0000: START DEPTH
 STOP.M              3523.6000: STOP DEPTH
 STEP.M                 0.1000: STEP DEPTH
 NULL.               -999.2500: NULL VALUE
 XYGR.     Australia/New Zealand Coordinate Systems:  XYGROUP
 LLGR.      Latitude/Longitude:  LLGROUP
 CREF.     Datum Geocentric Datum of Austra:  CART REFERENCE
 GREF.     Ellipsoid World Geodetic System :  GEO REFERENCE
 CGSY.             SS GDA94-50:  CART GRID SYS
 GGSY.                      LL:  GEO GRID SYS
 CCDE.     UTM Zone 50S on Geocentric Datum of Australia 1994, Meters:  CART COORD DESC
 GCDE.     Generic Lat/Long's, Degrees, -180 ==> +180:  GEO COORD DESC
 UWI .                 W006107:  UNIQUE WELL IDENTIFIER
 API .                 W006107:  API NUMBER
 UNIT.                11741669:  LOGGING EQUIPMENT ID
 DCON.        Sperry Drilling :  DIRECTNL CONTR
 RIG .              Ensign 970:  RIG NAME
 MWDS.                Jandakot:  MWD SHOP
 SRVC.     Ensign Energy Services:  CONTRACTOR
 FLD .               Walyering:  FIELD NAME
 CTRY.               Australia:  COUNTRY NAME
 PROV.       Western Australia:  PROVINCE
 STAT.       Western Australia:  STATE NAME
 REGN.            Asia Pacific:  REGION
 BASE.                   Perth:  LOGGING EQUIPMENT BASE LOCATION
 WTYP.                Vertical:  WELL TYPE
 PDAT.          Mean Sea Level:  PERMANENT DATUM
 MDS .              Win MagUTM:  MAG DATA SOURCE
 MMDD.          22 April, 2022:  MAG DATA DATE
 MMDL.            bggm2021.dat:  MAGNETIC MODEL
 SON .        PA-XX-0907756569:  JOB NUMBER
 COMP.     Strike South West Pty Ltd:  COMPANY
 WELL.             Walyering 6:  WELL NAME
 FTOP.          Formation Tops:  FORM TOPS DESC
 ILTD.               Lithology:  INTERP LTH DESC
 SVYD.                  Survey:  SURVEY DESC
 DMOD.             Drill Model:  DRILL MOD DESC
 HPTY.       Minimum Curvature:  HOLE POS TYPE
 NREF.                    Grid:  NORTH REFERENCE
 SPUD.               25-Apr-22:  SPUD DATE
 DATE.      12.00.00 13-May-22:  END TIME
 STIM.      17.00.00 24-Apr-22:  START TIME
 DMF .             Drill Floor:  DRILL MEAS FROM
 DFST.                        :  DIST FSL TEXT
 DFWT.                        :  DIST FWL TEXT
 CNTY.                        :  COUNTY
 LOC .                        :  LOCATION
 LMF .             Drill Floor:  LOG MEASURED FROM
 CMER.deg           117.000000:  CENTRL MERIDIAN
 DEP .m               0.000000:  DEPTH
 AGAP.m               7.160000:  AIR GAP
 MMDE.m             -31.623000:  MAGUTM CALC DEP
 APD .m               7.160000:  DEPTH ABOVE PD
 WDMS.m               0.000000:  WD ELEV
 EGL .m              96.589993:  GROUND ELEVATION
 EPD .m              96.589993:  ELEVATION
 AZTC.deg            -2.153514:  AZM TOTAL CORR
 GRDC.deg             0.779280:  GRID CORRECTION
 MDEC.deg            -1.374234:  MAGNETIC DECL
 MDIP.deg           -64.762985:  MAGNETIC DIP
 MFLD.nT          57671.410156:  MAGNETIC FIELD
 GVFD.g               1.000000:  GRAVITY FIELD
 VSDR.deg             0.000000:  VERT SEC DIRECT
 TDD .m            3551.000070:  TOTAL DEPTH (DRILLER)
 SDEP.m              74.999999:  START DEPTH
 DFSL.m               0.000000:  DISTANCE FSL
 DFWL.m               0.000000:  DISTANCE FWL
 UTMY.m         6601158.480000:  UTM Y
 UTMX.m          353924.590000:  UTM X
 WHEW.m               0.000000:  WELL HEAD E/W
 WHNS.m               0.000000:  WELL HEAD N/S
 LONG.deg           115.474500:  LONGITUDE
 LATI.deg           -30.713472:  LATITUDE
 TVDS.m             103.749993:  TVDSS CORRECTN
 EKB .m             103.750002:  KB ELEVATION
 EDF .m             103.750002:  DF ELEVATION
 TDL .m            1189.000020:  TOTAL DEPTH (LOGGER)
 CSGD.m            2359.000046:  CASING BOTTOM (DRILLER)
 CSGL.m            2359.000046:  CASING BOTTOM (LOGGER)
 CSGS.mm            244.474994:  CASING SIZE
 CSGW.kgpm           69.942862:  CASING WEIGHT
 MAGU.                 1391237:  MAGUTM CHECKSUM
 VSC .                       1:  VS TO CLOSURE
~Parameter Information Block
#MNEM.UNIT       Value        Description
#---------     -----------    ---------------------------
 AV  .mps             2.550000:  Ann Velocity 
 AVMX.mps             2.933333:  Max Ann Veloc 
 AZIF.deg             4.250000:  Azm, Final 
 BHAT.               Mud Motor:  BHA Type 
 BREV.krev         1163.365845:  Rev Bit Total 
 BROT.°/30m           0.050000:  Build Rotating 
 BS  .mm            215.899994:  Bit Size 
 BSZ .mm            215.899994:  Bit Size 
 BTPL.kPag         3033.715332:  Bit Press Loss 
 CABU.                      No:  Customer Abuse 
 CGEO.             Dan Walding:  Customer Geo 
 COMM.                     ì¿q:  Run Comments 1 
 TCS .hr            105.300003:  Time Ciculation Ended 
 CV  .mps             4.283333:  Crit Velocity 
 CVMX.mps             4.600000:  Max Crit Veloc 
 DD1 .     Christian Arrindell:  Direct Drillr 1 
 DD2 .            Ivan Tutynin:  Direct Drillr 2 
 DDSV.               Mud Motor:  DD Service 
 DEFF.%              95.000000:  % Det Eff 
 DLRX.°/30m           1.280000:  Dogleg Rot Max 
 DLSO.°/30m           1.400000:  Dogleg Oriented 
 DLSX.°/30m           2.000000:  Dogleg Str Max 
 DRET.      00.30.00 12-May-22:  Drill End Time 
 DRST.      19.30.00 07-May-22:  Drill Start Tim 
 DTIM.hr             80.400002:  Time Drilling 
 EDEP.m            3551.000000:  End Depth 
 ENG1.            Ade Suhendar:  Engineer 1 
 ENG2.        Yiek Chong Leong:  Engineer 2 
 ENG3.           Sufyan Zainal:  Engineer 3 
 ETIM.      23.45.00 12-May-22:  End Time 
 FLOI.m3pm            2.035733:  Flow In 
 FLON.m3pm            1.324854:  Flow In Min 
 FLOS.mptm            4.000000:  Fluid Loss 
 FLOX.m3pm            2.119767:  Flow In Max 
 DFT .                 Polymer:  Mud Type 
 FTRO.       Formation Presure:  FTWD Run Obj 
 HFLO.                      No:  High Flow 
 HPRE.                      No:  High Pressure 
 HTEM.                      No:  High Temp 
 HYDO.m               2.500000:  Hydro Offset 
 IFIN.deg             1.860000:  Inc, Final 
 IMAX.deg             5.744654:  Inc Max 
 IMIN.deg             0.433048:  Inc Min 
 IMND.m            2565.059814:  Inc Min Depth 
 IMXD.m            2364.389893:  Inc Max Depth 
 JARR.                      No:  Jarring 
 LETM.      00.30.00 12-May-22:  Log End Time 
 LOST.hr                     0:  Lost Rig Time 
 LSTM.      19.30.00 07-May-22:  Log Start Time 
 MDCL.ppm         79803.000000:  Mud Chlorides 
 MDES.             Fresh Water:  Mud Desc 
 DFD .kg/m3        1138.351074:  Mud Density 
 MDMN.kg/m3        1114.385986:  Dens Mud Min 
 MDMX.kg/m3        1150.333862:  Dens Mud Max 
 PH  .pH             10.100000:  Mud pH 
 MOIL.                       0:  Run Mud Oil % 
 MOWR.                   0 100:  Run Mud OWR 
 MSND.                     0.2:  Run Mud Sand % 
 MSOL.                     4.6:  Run Mud Solids% 
 MTV .                GeoForce:  Motor Variant 
 DFV .spl            82.445999:  Mud Viscosity 
 MWOD.mm            171.449997:  MWD Tool OD 
 MWSI.                      No:  Serv Intrp, MWD 
 OTIM.hr            146.500000:  Time Operating 
 PCON.          Wear / Scratch:  Pad Condition 
 PMAX.kPag        35887.472656:  Press Op, Max 
 PV  .mPsec          40.000000:  Mud PV 
 RMS .ohmm            0.606000:  Mud Resistivity 
 RMCS.ohmm            0.076000:  Mud Cake Resistivity 
 MCST.degC           19.830000:  Mud Cake Sample Temperature 
 RMFS.ohmm            0.050000:  Mud Filtrate Resistivity 
 RMFT.degC           21.499998:  Mud Filtrate Sample Temperature 
 RMMT.ohmm            0.266500:  Rm @ Max Temp 
 MST .degC           21.000002:  Mud Sample Temperature 
 RUN .                     300:  Run Number 
 ROPA.m/hr           14.790000:  ROP Avg 
 ROPN.m/hr            1.870000:  ROP Min 
 ROPX.m/hr           32.700001:  ROP Max 
 RPMA.rpm            52.500000:  RPM Surface Avg 
 RPMN.rpm            30.000000:  RPM Surface Min 
 RPMX.rpm            60.000000:  RPM Surface Max 
 RRUN.                       3:  Rig Run Number 
 RTIM.hr              8.510000:  Time Reaming 
 SAZI.deg           199.820007:  Azm, Start 
 SDEP.m            2362.000000:  Start Depth 
 SIDD.                      No:  Serv Intrp, DD 
 SINC.deg             5.740000:  Inc, Start 
 SPPA.kPag        17754.474609:  SPP Avg 
 SPPN.kPag        10893.795898:  SPP Min 
 SPPX.kPag        22063.382813:  SPP Max 
 STIM.      21.15.00 06-May-22:  Start Time 
 SVCS.                 DD, MWD:  Services 
 SVER.                9.200000:  Sperry Version 
 TDAT.m            1189.000000:  Tot Depth Attmp 
 TDDF.                      No:  Trip for DD 
 TDLG.m            1189.000000:  Tot Depth Loggd 
 TFF .                      No:  Trip for Fail 
 TQAA.kN-m            0.013558:  Torque Abs Avg 
 TQAN.kN-m            0.004067:  Torque Abs Min 
 TQAX.kN-m            0.024405:  Torque Abs Max 
 TRRT.°/30m           0.860000:  Turn Rotating 
 MRT .                  EWR-P4:  Maximum Recorded Temperature 
 TTMX.degC           75.199997:  Max Tool Temp 
 VS01.                12278995:  Virtual Str1 SN 
 VS02.                12394165:  Virtual Str2 SN 
 VS03.                13686255:  Virtual Str3 SN 
 VS04.                90681167:  Virtual Str4 SN 
 VS05.                90683981:  Virtual Str5 SN 
 VS06.                90683974:  Virtual Str6 SN 
 VS07.                90683978:  Virtual Str7 SN 
 VS08.                90683983:  Virtual Str8 SN 
 VS09.                13531224:  Virtual Str9 SN 
 WBMN.kdN             2.668932:  WOB Min 
 WITN.          Peter Clarkson:  Customer Rep 2 
 WITN.        Shaughan Corless:  Customer Rep 
 WOBA.kdN             7.045982:  WOB Avg 
 WOBX.kdN            10.675730:  WOB Max 
 YP  .pa             14.364045:  Yield Point 
~Curve Information Block
#MNEM.UNIT                 API CODE     Curve Description
#---------               -----------    ---------------------------
 DEPT.M                 00 000 000 000:  Depth
 AFRSAC.ohmm            00 000 000 000:  AFR Shallow Avg Res BC
 AFRMAC.ohmm            00 000 000 000:  AFR Medium Avg Res BC
 AFRDAC.ohmm            00 000 000 000:  AFR Deep Avg Res BC
#Other Information
#
#WARRANTY: Halliburton will use its best efforts to furnish customers with 
#accurate information and interpretations that are part of, and incident to, the services 
#provided.  However, Halliburton cannot and does not warrant the accuracy 
#or correctness of such information and interpretations.  Under no circumstances should any 
#such information or interpretation be relied upon as the sole basis for any drilling, 
#completion, production, or financial decision or any procedure involving any risk to the 
#safety of any drilling venture, drilling rig or its crew or any other third party.  The 
#Customer has full responsibility for all drilling, completion and production operation.  
#Halliburton makes no representations or warranties, either expressed or 
#implied, including, but not limited to, the implied warranties of merchantability or fitness 
#for a particular purpose, with respect to the services rendered.  In no event will 
#Halliburton be liable for failure to obtain any particular results or for 
#any damages, including, but not limited to, indirect, special or consequential damages, 
#resulting from the use of any information or interpretation provided by Halliburton.
#
~A   DEPT      AFRSAC     AFRMAC     AFRDAC   
# ...
   2807.4000    11.2576    12.1724    12.4913
   2807.5000    11.5228    11.7863    12.8678
   2807.6000    11.9758    11.6110    13.5614
   2807.7000    12.6106    11.9222    14.5705
   2807.8000    13.1023    12.8417    15.5346
   2807.9000    13.6456    14.0596    16.6874
   2808.0000    14.5100    16.1100    18.5750
   2808.1000    16.3498    18.9485    22.5390
   2808.2000    16.2526    17.2546    25.9029
   2808.3000    12.3528    11.9975    23.4292
   2808.4000     8.4240     8.3181    15.8841
   2808.5000     6.1615     6.5538    10.6536
   2808.6000     5.1873     5.9836     8.2008
   2808.7000     4.7542     5.8317     7.2017
   2808.8000     4.4635     5.7514     6.9238
   2808.9000     4.2267     5.8284     6.8485
   2809.0000     4.0708     6.0231     7.0366
   2809.1000     4.0249     6.2678     7.4416
   2809.2000     4.0332     6.7073     7.8961
   2809.3000     4.0500     6.9744     8.2301
   2809.4000     4.0701     7.1514     8.4393
   2809.5000     4.0510     7.0053     8.4358
   2809.6000     4.0229     6.7082     8.1488
   2809.7000     3.9811     6.3127     7.5504
   2809.8000     3.8757     5.8512     6.8467
   2809.9000     3.9935     5.8315     6.7914
   2810.0000     4.5343     6.4448     7.5174
   2810.1000     5.3044     7.2490     8.2537
   2810.2000     6.2834     7.6899     8.5192
   2810.3000     6.5856     7.4634     7.9660
   2810.4000     6.9457     7.4242     7.7623
   2810.5000     7.8278     8.0299     8.2615
   2810.6000     9.2599     9.0838     9.2300
   2810.7000    10.9753    10.2291    10.6525
   2810.8000    12.2644    11.6821    12.3310
   2810.9000    13.8552    14.3717    14.7735
   2811.0000    16.3364    18.6290    18.6872
   2811.1000    17.6615    20.9272    21.1429
   2811.2000    17.2944    19.1829    21.1011
   2811.3000    15.2917    15.9117    18.1734
   2811.4000    12.8773    13.9997    14.7392
   2811.5000    11.8440    12.3225    13.1345
   2811.6000    12.6314    12.5583    14.0665
   2811.7000    14.6286    13.5634    16.8594
   2811.8000    17.8484    16.1975    21.5102
   2811.9000    18.8841    17.5705    23.1980
   2812.0000    15.9301    14.2119    19.1667
   2812.1000    12.6273    12.7697    14.3327
   2812.2000    11.3534    11.6907    12.3822
   2812.3000    10.5333    11.3962    11.0376
   2812.4000    10.6987    10.8512    11.3106
   2812.5000    10.5772    10.8353    11.2562
   2812.6000    11.2378    12.3065    12.1774
   2812.7000    12.2819    13.8964    12.6841
   2812.8000    11.4961    12.3485    11.5843
   2812.9000    11.2641    11.8857    11.1590
   2813.0000    11.1592    11.3376    10.6589
   2813.1000    11.4926    11.6002    11.1844
   2813.2000    13.0961    13.0509    12.8112
   2813.3000    15.4113    15.5154    16.4518
   2813.4000    19.8270    22.0286    23.8169
   2813.5000    20.0172    22.9491    23.2083
   2813.6000    17.0428    19.3104    19.0978
   2813.7000    14.6695    15.7339    15.5496
   2813.8000    14.3297    14.6745    14.7480
   2813.9000    14.4572    15.0222    15.0645
   2814.0000    14.5885    15.6482    15.6107
   2814.1000    14.4665    15.9073    15.8120
   2814.2000    14.4223    16.1115    15.9354
   2814.3000    14.7974    16.6139    16.5151
   2814.4000    15.8369    17.7966    18.0269
   2814.5000    17.7331    19.4613    20.7528
   2814.6000    19.6938    21.0069    23.5358
   2814.7000    21.4000    22.1394    25.7768
   2814.8000    23.0995    23.6616    27.8779
   2814.9000    25.6151    26.3979    31.0242
   2815.0000    28.1439    29.7460    34.2442
   2815.1000    29.2564    31.8369    35.5661
   2815.2000    28.2249    30.9424    33.6872
   2815.3000    25.6556    28.0635    29.6882
   2815.4000    23.8649    24.7177    26.2830
   2815.5000    21.2642    20.0547    22.8552
   2815.6000    17.8461    16.7796    18.8106
   2815.7000    16.6116    15.1769    17.0331
   2815.8000    15.7758    14.9217    15.7409
   2815.9000    16.9275    16.4811    16.5059
   2816.0000    17.8251    18.0042    18.1229
   2816.1000    19.2729    21.7777    21.0612
   2816.2000    21.0909    26.1747    24.4493
   2816.3000    22.9525    29.7097    27.8533
   2816.4000    23.9424    30.5393    28.8277
   2816.5000    24.2643    28.5493    29.4243
   2816.6000    25.3249    29.0503    30.9804
   2816.7000    25.5369    29.0003    30.9187
   2816.8000    25.6598    28.4267    30.4867
   2816.9000    25.4503    27.3452    28.8621
   2817.0000    23.8131    24.0440    25.2018
   2817.1000    23.1483    21.4526    22.5346
   2817.2000    23.8473    20.6587    21.8593
   2817.3000    29.7127    25.6492    26.7485
   2817.4000    52.1603    43.1253    47.0154
   2817.5000    81.6668    60.9701    74.2508
   2817.6000    45.1177    38.4094    43.9299
   2817.7000    21.2744    20.7340    20.9785
   2817.8000    14.6151    14.9125    14.0884
   2817.9000    12.9389    14.2957    12.5937
   2818.0000    13.1437    15.3755    13.2619
   2818.1000    13.0399    15.4354    13.7690
   2818.2000    13.2130    15.3625    14.3207
   2818.3000    13.9981    16.1901    15.6455
   2818.4000    16.4071    20.9374    19.2390
   2818.5000    21.8907    30.9058    26.8439
   2818.6000    31.6997    44.5942    39.9825
   2818.7000    42.3314    48.0568    52.8796
   2818.8000    41.1558    40.0421    51.7422
   2818.9000    32.1382    33.8164    40.8347
   2819.0000    27.1591    31.0064    34.6019
   2819.1000    25.0879    28.6346    30.7868
   2819.2000    22.3438    22.3960    26.0792
   2819.3000    17.1896    14.6174    18.6814
   2819.4000    12.8300    10.9388    12.5109
   2819.5000    10.7586     9.6535     9.8532
   2819.6000    10.1635     9.7263     8.7627
   2819.7000    10.1455    10.1391     8.6603
   2819.8000    10.2585     9.5827     9.0594
   2819.9000    10.8503     9.9609    10.1991
   2820.0000    12.2827    11.0448    12.5350
   2820.1000    15.0742    13.6763    16.8531
   2820.2000    18.1890    17.6879    22.3631
   2820.3000    20.7397    21.3155    27.3619
   2820.4000    22.5302    23.6775    31.0653
   2820.5000    22.9408    25.4965    32.6764
   2820.6000    23.4326    27.3189    34.1479
   2820.7000    24.6068    27.6335    36.5152
   2820.8000    25.5327    27.5224    38.2616
   2820.9000    25.3437    26.2675    37.8612
   2821.0000    24.2049    25.5165    35.3661
   2821.1000    22.7467    25.5094    31.6379
   2821.2000    20.8338    24.7367    26.5908
   2821.3000    17.8286    21.8877    21.2073
   2821.4000    14.7670    18.3661    16.6239
   2821.5000    12.4614    15.2268    13.5052
   2821.6000    11.0274    13.0380    11.5790
   2821.7000    10.5934    12.2465    10.8157
   2821.8000    10.2709    11.5540    10.1998
   2821.9000     9.9187    10.7039     9.4045
   2822.0000     9.2551     9.4936     8.3096
   2822.1000     8.8615     8.3904     7.4609
   2822.2000    10.1336     8.4608     7.7718
   2822.3000    17.2783    11.5080    11.1266
   2822.4000    94.6355    39.8792    39.1378
   2822.5000   704.3979  2921.3589   179.8085
   2822.6000  2183.3752 15546.5811   432.0533
   2822.7000  2452.5603 12107.5811   530.9538
   2822.8000  1082.2203  1373.6554   362.1457
   2822.9000   147.6298    38.7727    84.8782
   2823.0000    31.7421    23.1744    30.0427
   2823.1000    22.6442    19.7421    21.3965
   2823.2000    20.9377    20.1503    20.1957
   2823.3000    21.0665    20.4843    20.6375
   2823.4000    20.6202    21.0916    20.6295
   2823.5000    21.6652    23.7299    21.8004
   2823.6000    25.2836    29.4749    26.5310
   2823.7000    29.1343    34.0507    32.7635
   2823.8000    29.6204    33.9365    36.3757
   2823.9000    26.4974    29.8671    33.1368
   2824.0000    20.7319    24.2858    24.7717
   2824.1000    17.4378    19.5947    19.4977
   2824.2000    15.9069    16.9806    17.2034
   2824.3000    15.4954    15.8537    16.3780
   2824.4000    15.3493    15.6814    16.2973
   2824.5000    14.5165    15.3269    15.8021
   2824.6000    14.1404    15.5232    15.3037
   2824.7000    14.2824    15.2835    15.4131
