~Version Information
 VERS.                  2.0:   CWLS log ASCII Standard -VERSION 2.0
 WRAP.                   NO:   One line per depth step
~Well Information Block
#MNEM.UNIT     VALUE/NAME     DESCRIPTION
#---------     -----------    ---------------------------
 STRT.M              2900.0000: START DEPTH
 STOP.M              3434.8000: STOP DEPTH
 STEP.M                 0.1000: STEP DEPTH
 NULL.               -999.2500: NULL VALUE
 UWI .                 W006102:  UNIQUE WELL IDENTIFIER
 API .                 W006102:  API NUMBER
 DFWT.                        :  DIST FWL TEXT
 DFST.                        :  DIST FSL TEXT
 DMF .             Drill Floor:  DRILL MEAS FROM
 STIM.      12.00.00 12-Nov-21:  START TIME
 DATE.      08.19.12 13-Dec-21:  END TIME
 SPUD.               14-Nov-21:  SPUD DATE
 NREF.                    Grid:  NORTH REFERENCE
 HPTY.       Minimum Curvature:  HOLE POS TYPE
 DMOD.             Drill Model:  DRILL MOD DESC
 SVYD.                  Survey:  SURVEY DESC
 ILTD.               Lithology:  INTERP LTH DESC
 FTOP.          Formation Tops:  FORM TOPS DESC
 WELL.             Walyering 5:  WELL NAME
 COMP.     Strike South West Pty Ltd:  COMPANY
 SON .        PA-XX-0907373664:  JOB NUMBER
 GCDE.     Generic Lat/Long's, Degrees, -180 ==> +180:  GEO COORD DESC
 CCDE.     UTM Zone 50S on Geocentric Datum of Australia 1994, Meters:  CART COORD DESC
 GGSY.                      LL:  GEO GRID SYS
 CGSY.             SS GDA94-50:  CART GRID SYS
 GREF.     Ellipsoid World Geodetic System :  GEO REFERENCE
 CREF.     Datum Geocentric Datum of Austra:  CART REFERENCE
 MMDL.            bggm2021.dat:  MAGNETIC MODEL
 MMDD.       10 November, 2021:  MAG DATA DATE
 MDS .              Win MagUTM:  MAG DATA SOURCE
 LLGR.      Latitude/Longitude:  LLGROUP
 XYGR.     Australia/New Zealand Coordinate Systems:  XYGROUP
 WTYP.                Deviated:  WELL TYPE
 PDAT.          Mean Sea Level:  PERMANENT DATUM
 BASE.                   Perth:  LOGGING EQUIPMENT BASE LOCATION
 REGN.            Asia Pacific:  REGION
 CTRY.               Australia:  COUNTRY NAME
 FLD .             Perth Basin:  FIELD NAME
 SRVC.     Ensign Energy Services:  CONTRACTOR
 MWDS.                Jandakot:  MWD SHOP
 RIG .              Ensign 970:  RIG NAME
 DCON.         Sperry Drilling:  DIRECTNL CONTR
 UNIT.                11741669:  LOGGING EQUIPMENT ID
 CNTY.                        :  COUNTY
 PROV.                        :  PROVINCE
 STAT.                        :  STATE
 LOC .                        :  LOCATION
 DEP .m               0.000000:  DEPTH
 TVDS.m             101.180001:  TVDSS CORRECTN
 LATI.deg           -30.730083:  LATITUDE
 LONG.deg           115.478781:  LONGITUDE
 WHNS.m               0.000000:  WELL HEAD N/S
 WHEW.m               0.000000:  WELL HEAD E/W
 UTMX.m          354359.500000:  UTM X
 UTMY.m         6599322.900000:  UTM Y
 DFWL.m               0.000000:  DISTANCE FWL
 DFSL.m               0.000000:  DISTANCE FSL
 SDEP.m              73.999999:  START DEPTH
 TDD .m            3434.999857:  TOTAL DEPTH (DRILLER)
 VSDR.deg           243.910004:  VERT SEC DIRECT
 GVFD.g               1.000000:  GRAVITY FIELD
 MFLD.nT          57661.890625:  MAGNETIC FIELD
 MDIP.deg           -64.786583:  MAGNETIC DIP
 MDEC.deg            -1.367809:  MAGNETIC DECL
 GRDC.deg             0.777471:  GRID CORRECTION
 AZTC.deg            -2.145280:  AZM TOTAL CORR
 EPD .m              94.030000:  ELEVATION
 EGL .m              94.030000:  GROUND ELEVATION
 WDMS.m               0.000000:  WD ELEV
 APD .m               7.150000:  DEPTH ABOVE PD
 MMDE.m             -30.842712:  MAGUTM CALC DEP
 CMER.deg           117.000000:  CENTRL MERIDIAN
 AGAP.m               7.150000:  AIR GAP
 VSC .                       0:  VS TO CLOSURE
 MAGU.                 1390910:  MAGUTM CHECKSUM
~Curve Information Block
#MNEM.UNIT                 API CODE     Curve Description
#---------               -----------    ---------------------------
 DEPT.M                 00 000 000 000:  Depth
 ALPELC.                00 000 000 000:  ALD LCRB Pe Factor
 XBCS.uspf              00 000 000 000:  XBAT Comp Slowness
 RSPD.m/hr              00 000 000 000:  Running Speed
 PGRC.api               00 000 000 000:  PCG Gamma Ray BCorr
 XBEDX.in               00 000 000 000:  XCAL Eqv Hole Size Cor
 AFRSAC.ohmm             00 000 000 000:  AFR Shall Resistivity BC
 AFRMAC.ohmm             00 000 000 000:  AFR Medium Resistivity BC
 AFRDAC.ohmm             00 000 000 000:  AFR Deep Resistivity BC
 ALCDLC.g/cc            00 000 000 000:  ALD LCRB Comp Density
 TNPL.pu                00 000 000 000:  CTN Porosity Limestone
 ALDCLC.g/cc            00 000 000 000:  ALD LCRB Den Correction
 R09PC.ohmm             00 000 000 000:  9in Phase Resistivity BC
 R15PC.ohmm             00 000 000 000:  15in Phase Resistivity BC
 R27PC.ohmm             00 000 000 000:  27in Phase Resistivity BC
 R39PC.ohmm             00 000 000 000:  39in Phase Resistivity BC
 R09AC.ohmm             00 000 000 000:  9in Atten Resistivity BC
 R15AC.ohmm             00 000 000 000:  15in Atten Resistivity BC
 R27AC.ohmm             00 000 000 000:  27in Atten Resistivity BC
 R39AC.ohmm             00 000 000 000:  39in Atten Resistivity BC
 TVD .m                 00 000 000 000:  True Vertical Depth
#Other Information
#
#WARRANTY: Halliburton will use its best efforts to furnish customers with 
#accurate information and interpretations that are part of, and incident to, the services 
#provided.  However, Halliburton cannot and does not warrant the accuracy 
#or correctness of such information and interpretations.  Under no circumstances should any 
#such information or interpretation be relied upon as the sole basis for any drilling, 
#completion, production, or financial decision or any procedure involving any risk to the 
#safety of any drilling venture, drilling rig or its crew or any other third party.  The 
#Customer has full responsibility for all drilling, completion and production operation.  
#Halliburton makes no representations or warranties, either expressed or 
#implied, including, but not limited to, the implied warranties of merchantability or fitness 
#for a particular purpose, with respect to the services rendered.  In no event will 
#Halliburton be liable for failure to obtain any particular results or for 
#any damages, including, but not limited to, indirect, special or consequential damages, 
#resulting from the use of any information or interpretation provided by Halliburton.
#
~A   DEPT     ALPELC     XBCS      RSPD      PGRC      XBEDX     AFRSAC     AFRMAC     AFRDAC    ALCDLC     TNPL     ALDCLC     R09PC     R15PC     R27PC     R39PC     R09AC     R15AC     R27AC     R39AC      TVD    
# ...
   3230.6000    3.3685   67.7943   17.9462 -999.2500    9.1473   31.4033   58.0277   56.7701    2.5419   19.8731    0.0430   12.4869   20.0726   23.4611   27.9458   13.7876  145.4461   71.8004   50.7226 3198.3472
   3230.7000    3.4705   68.2471   16.5641 -999.2500    9.1473   31.1538   60.4482   58.1613    2.5385   19.7153    0.0435    9.8012   15.2383   16.0880   19.9876   11.5111  103.1052   51.4895   45.0352 3198.4434
   3230.8000    3.3014   71.5295   18.6386 -999.2500    8.8750   30.8994   56.2716   53.2961    2.5610   18.1200    0.0415    6.1773    9.7575   12.3501   15.9779    8.2121   25.2458   47.0896   47.5022 3198.5376
   3230.9000    3.5386   72.6614   23.0275 -999.2500    8.8750   20.8349   30.4396   26.6522    2.5442   17.4418    0.0490   11.0862  159.7156   25.0584   34.0763  130.1510   92.7591  116.0859  108.2487 3198.6326
   3231.0000    3.9991   74.7706   24.2622 -999.2500    8.8750   16.7751   17.1869   15.7240    2.5414   17.8824    0.0487   18.6430  258.5959   50.5548   51.6716  247.9011  187.0232  188.1643  152.5256 3198.7280
   3231.1000    3.8007   73.0194   21.4724 -999.2500    8.5578   16.5377   14.9845   14.2391    2.5382   19.2300    0.0322   49.7628  404.5307   92.0945  466.5924  210.6777  200.9169  198.4285  126.0727 3198.8206
   3231.2000    3.6568   70.4153   17.7515 -999.2500    8.5578   20.5200   17.1634   19.1617    2.5474   22.5056    0.0350  114.3979  990.0010  130.4712 1241.3496  318.6010  200.9169  196.9248  163.3135 3198.9187
   3231.3000    3.4861   67.5738   17.0051 -999.2500    8.5578   60.8988   56.7329   69.8503    2.5594   22.5657    0.0360   64.4975  176.0542   65.4788  210.8356  275.6745  170.7710  165.7783   78.0469 3199.0107
   3231.4000    3.6419   65.2548   16.5434 -999.2500    8.5032  124.4818  170.9683  188.4528    2.5899   21.6466    0.0476   15.0751   17.2977   20.2460   22.4281   39.6814   44.1355   54.2777   46.8521 3199.1096
   3231.5000    3.6815   62.2432   16.6223 -999.2500    8.5032  116.5334  244.0465  254.7562    2.6016   19.2273    0.0492    6.7943    8.6937   11.6927   14.3143    8.1956   15.5905   27.1755   38.7204 3199.1990
   3231.6000    3.0984   61.3554   13.8643 -999.2500    8.5032   46.2854  117.7233  116.4814    2.5919   16.1757    0.0513    7.4034   12.7044   14.7910   21.4504    8.2304   19.4952   31.7041   47.2644 3199.2937
   3231.7000    2.6648   63.0584   18.1751 -999.2500    9.2468   20.7137   49.3136   50.5550    2.5863   12.9122    0.0555   11.7136   26.1826   25.5190   34.4071   11.8169   39.7835   50.0568   67.5860 3199.3872
   3231.8000    2.7464   65.2455   16.8257 -999.2500    9.2468   17.6139   40.0107   44.1682    2.5470   11.1281    0.0388   10.9710   22.2160   22.0043   27.8149    9.3151   29.8281   44.0811   44.2703 3199.4839
   3231.9000    2.8289   66.5996   17.2718 -999.2500    9.2468   15.3716   38.0311   42.6603    2.5312   12.1973    0.0245    9.1132   20.4916   29.8454   31.8569    8.1173   25.6777   47.0324   46.3638 3199.5781
   3232.0000    2.9761   66.5597   16.5437 -999.2500    9.4231   12.4910   34.9402   38.6709    2.5230   13.4121    0.0216   11.1372   40.2308   44.2011   45.4829   10.7148   58.2310   82.4630   66.0692 3199.6714
   3232.1000    3.2503   66.7988   17.3759 -999.2500    9.4231   13.2090   38.6928   42.2214    2.5090   15.2971    0.0187   11.4966   36.4174   48.5175   42.8006    9.9379   70.1035  116.3490   70.4902 3199.7678
   3232.2000    3.4863   69.0770   17.3205 -999.2500    9.4231   15.1961   52.6930   53.5363    2.5134   16.7656   -0.0002   15.6422   32.6647   61.2183   56.9852   10.4894  144.9091  151.6721   87.0565 3199.8606
   3232.3000    3.4094   69.7614   22.3020 -999.2500    8.8312   16.8341   52.3527   49.9020    2.5046   17.6276   -0.0155   17.5117   32.2617   81.3016   65.2504   13.7520  200.9169  181.6372  143.4078 3199.9587
   3232.4000    3.5319   70.6245   18.3343 -999.2500    8.8312   20.0265   46.8634   44.9711    2.4928   18.3185   -0.0249   14.7946   23.7588   64.3739   51.6926   19.8830  200.9169  196.1028  177.2648 3200.0515
   3232.5000    3.4587   73.1102   17.4638 -999.2500    8.8312   27.2311   53.6301   49.8903    2.5057   19.5218   -0.0070   12.9479   19.4840   34.8468   42.2939   21.2989  200.9169  198.4285  155.5427 3200.1484
   3232.6000    3.6313   75.3489   16.4217 -999.2500    8.8414   27.1778   42.5730   37.9360    2.5300   20.3668    0.0353   16.8478   35.3836   37.0583   50.7507   94.1775  200.9169  198.4285  149.6178 3200.2388
   3232.7000    3.4685   76.6880   17.5087 -999.2500    8.8414   20.8635   24.4710   23.2669    2.5175   20.6606    0.0280   25.7546   62.2373   34.0951   67.6230  307.7534  200.9169  198.4285  187.6968 3200.3335
   3232.8000    3.3196   76.6238   16.5549 -999.2500    8.8414   19.5700   19.8742   19.5240    2.5073   20.9101    0.0205   14.5904   29.8864   27.4606   46.3760  277.1906  200.9169  198.4285  177.9472 3200.4280
   3232.9000    3.6267   75.5194   14.7646 -999.2500    8.8418   21.0609   21.0420   21.3683    2.5283   23.2096    0.0353   13.5160   33.2266   42.8508   53.2202   57.2422  200.9169  187.5867  182.0872 3200.5222
   3233.0000    4.1143   73.8828   11.4459 -999.2500    8.8418   28.3596   31.0761   31.8532    2.5460   26.4185    0.0559   19.6646   24.9631   45.4387   53.6914   69.7507  187.7139  129.1020  107.5980 3200.6169
   3233.1000    3.6008   70.2520   16.2710 -999.2500    8.8418   48.9101   58.7466   63.5733    2.5373   27.3447    0.0463   14.0807   26.1275   32.7873   43.9040   19.9662  115.7881   94.9287   70.8263 3200.7122
   3233.2000    3.6356   67.3305   16.7319 -999.2500    8.5492   54.4391   75.7228   83.4757    2.5404   26.0309    0.0302   20.5186   44.2562   47.5266   59.5788   16.4582  187.4289  183.0452   95.9152 3200.8079
   3233.3000    3.6910   63.7735   16.1816 -999.2500    8.5492   68.1519  114.5428  135.1221    2.5492   22.4921    0.0340   32.9611   46.4268   51.2745   60.1870   23.3178  200.9169  187.9026  117.3327 3200.9004
   3233.4000    3.1666   61.4014   17.5355 -999.2500    8.5492   76.7876  164.8564  203.0375    2.5708   18.4952    0.0422   21.9343   33.0440   31.5718   38.4047   22.5398  187.5665  110.9165   90.1258 3200.9983
   3233.5000    3.3285   60.8267   16.4577 -999.2500    8.9386   48.1353  130.0015  169.6859    2.5892   16.0588    0.0421   11.2725   17.4488   17.5327   23.0104   15.4822   72.5913   62.0318   67.8420 3201.0906
   3233.6000    2.9441   62.7390   17.7452 -999.2500    8.9386   19.8187   60.1115   76.3896    2.5738   14.7022    0.0267    7.7177   11.3711   13.8989   19.1842   11.7855   26.9316   50.4044   63.9349 3201.1892
   3233.7000    3.0734   65.2369   17.1665 -999.2500    8.9386   10.0661   30.2009   36.9383    2.5689   13.1964    0.0364    6.9690   11.1868   14.6315   20.6644   11.4939   30.7798   61.4108   70.9028 3201.2788
   3233.8000    2.8650   67.1414   17.6151 -999.2500    9.0012    8.1685   22.9639   27.8418    2.5608   11.5144    0.0542    6.9813   13.1979   19.1403   26.5626   14.3726   45.5054  122.9219   91.5398 3201.3735
   3233.9000    2.9297   69.9110   16.3930 -999.2500    9.0012    7.6696   21.6040   26.4895    2.5399   11.1012    0.0558    6.9037   15.3620   24.2836   33.8026   18.7234  119.9052  179.9648  146.9337 3201.4675
   3234.0000    2.8368   71.1516   16.3108 -999.2500    9.0012    6.9864   21.0667   25.1110    2.5115   11.8962    0.0444    6.5902   15.4198   27.4531   38.7987   20.2731  191.7519  196.3397  161.8607 3201.5603
   3234.1000    2.7863   72.4137   17.2906 -999.2500    9.2579    6.7997   20.8738   24.2896    2.4806   12.7720    0.0355    5.9552   13.0796   27.2931   38.5069   17.0693  148.5652  163.1534  118.8278 3201.6582
   3234.2000    2.3729   72.6243   16.4914 -999.2500    9.2579    7.1583   22.1491   25.3266    2.4431   13.8942    0.0201    5.3448   11.3101   25.5127   38.9423   12.5262   51.1553   92.8026  108.6901 3201.7502
   3234.3000    2.5947   71.9897   17.4781 -999.2500    9.2579    7.6461   25.0935   28.8345    2.4277   15.2761    0.0122    7.0480   14.4799   44.4836   69.1693   15.3810   57.6982   97.7751  132.3873 3201.8481
