~Version Information
 VERS.                  2.0:   CWLS log ASCII Standard -VERSION 2.0
 WRAP.                   NO:   One line per depth step
~Well Information Block
#MNEM.UNIT     VALUE/NAME     DESCRIPTION
#---------     -----------    ---------------------------
 STRT.M              2355.0000: START DEPTH
 STOP.M              3523.6000: STOP DEPTH
 STEP.M                 0.1000: STEP DEPTH
 NULL.               -999.2500: NULL VALUE
 XYGR.     Australia/New Zealand Coordinate Systems:  XYGROUP
 LLGR.      Latitude/Longitude:  LLGROUP
 CREF.     Datum Geocentric Datum of Austra:  CART REFERENCE
 GREF.     Ellipsoid World Geodetic System :  GEO REFERENCE
 CGSY.             SS GDA94-50:  CART GRID SYS
 GGSY.                      LL:  GEO GRID SYS
 CCDE.     UTM Zone 50S on Geocentric Datum of Australia 1994, Meters:  CART COORD DESC
 GCDE.     Generic Lat/Long's, Degrees, -180 ==> +180:  GEO COORD DESC
 UWI .                 W006107:  UNIQUE WELL IDENTIFIER
 API .                 W006107:  API NUMBER
 UNIT.                11741669:  LOGGING EQUIPMENT ID
 DCON.        Sperry Drilling :  DIRECTNL CONTR
 RIG .              Ensign 970:  RIG NAME
 MWDS.                Jandakot:  MWD SHOP
 SRVC.     Ensign Energy Services:  CONTRACTOR
 FLD .               Walyering:  FIELD NAME
 CTRY.               Australia:  COUNTRY NAME
 PROV.       Western Australia:  PROVINCE
 STAT.       Western Australia:  STATE NAME
 REGN.            Asia Pacific:  REGION
 BASE.                   Perth:  LOGGING EQUIPMENT BASE LOCATION
 WTYP.                Vertical:  WELL TYPE
 PDAT.          Mean Sea Level:  PERMANENT DATUM
 MDS .              Win MagUTM:  MAG DATA SOURCE
 MMDD.          22 April, 2022:  MAG DATA DATE
 MMDL.            bggm2021.dat:  MAGNETIC MODEL
 SON .        PA-XX-0907756569:  JOB NUMBER
 COMP.     Strike South West Pty Ltd:  COMPANY
 WELL.             Walyering 6:  WELL NAME
 FTOP.          Formation Tops:  FORM TOPS DESC
 ILTD.               Lithology:  INTERP LTH DESC
 SVYD.                  Survey:  SURVEY DESC
 DMOD.             Drill Model:  DRILL MOD DESC
 HPTY.       Minimum Curvature:  HOLE POS TYPE
 NREF.                    Grid:  NORTH REFERENCE
 SPUD.               25-Apr-22:  SPUD DATE
 DATE.      12.00.00 13-May-22:  END TIME
 STIM.      17.00.00 24-Apr-22:  START TIME
 DMF .             Drill Floor:  DRILL MEAS FROM
 DFST.                        :  DIST FSL TEXT
 DFWT.                        :  DIST FWL TEXT
 CNTY.                        :  COUNTY
 LOC .                        :  LOCATION
 LMF .             Drill Floor:  LOG MEASURED FROM
 CMER.deg           117.000000:  CENTRL MERIDIAN
 DEP .m               0.000000:  DEPTH
 AGAP.m               7.160000:  AIR GAP
 MMDE.m             -31.623000:  MAGUTM CALC DEP
 APD .m               7.160000:  DEPTH ABOVE PD
 WDMS.m               0.000000:  WD ELEV
 EGL .m              96.589993:  GROUND ELEVATION
 EPD .m              96.589993:  ELEVATION
 AZTC.deg            -2.153514:  AZM TOTAL CORR
 GRDC.deg             0.779280:  GRID CORRECTION
 MDEC.deg            -1.374234:  MAGNETIC DECL
 MDIP.deg           -64.762985:  MAGNETIC DIP
 MFLD.nT          57671.410156:  MAGNETIC FIELD
 GVFD.g               1.000000:  GRAVITY FIELD
 VSDR.deg             0.000000:  VERT SEC DIRECT
 TDD .m            3551.000070:  TOTAL DEPTH (DRILLER)
 SDEP.m              74.999999:  START DEPTH
 DFSL.m               0.000000:  DISTANCE FSL
 DFWL.m               0.000000:  DISTANCE FWL
 UTMY.m         6601158.480000:  UTM Y
 UTMX.m          353924.590000:  UTM X
 WHEW.m               0.000000:  WELL HEAD E/W
 WHNS.m               0.000000:  WELL HEAD N/S
 LONG.deg           115.474500:  LONGITUDE
 LATI.deg           -30.713472:  LATITUDE
 TVDS.m             103.749993:  TVDSS CORRECTN
 EKB .m             103.750002:  KB ELEVATION
 EDF .m             103.750002:  DF ELEVATION
 TDL .m            1189.000020:  TOTAL DEPTH (LOGGER)
 CSGD.m            2359.000046:  CASING BOTTOM (DRILLER)
 CSGL.m            2359.000046:  CASING BOTTOM (LOGGER)
 CSGS.mm            244.474994:  CASING SIZE
 CSGW.kgpm           69.942862:  CASING WEIGHT
 MAGU.                 1391237:  MAGUTM CHECKSUM
 VSC .                       1:  VS TO CLOSURE
~Parameter Information Block
#MNEM.UNIT       Value        Description
#---------     -----------    ---------------------------
 AV  .mps             2.550000:  Ann Velocity 
 AVMX.mps             2.933333:  Max Ann Veloc 
 AZIF.deg             4.250000:  Azm, Final 
 BHAT.               Mud Motor:  BHA Type 
 BREV.krev         1163.365845:  Rev Bit Total 
 BROT.°/30m           0.050000:  Build Rotating 
 BS  .mm            215.899994:  Bit Size 
 BSZ .mm            215.899994:  Bit Size 
 BTPL.kPag         3033.715332:  Bit Press Loss 
 CABU.                      No:  Customer Abuse 
 CGEO.             Dan Walding:  Customer Geo 
 COMM.                     ì¿q:  Run Comments 1 
 TCS .hr            105.300003:  Time Ciculation Ended 
 CV  .mps             4.283333:  Crit Velocity 
 CVMX.mps             4.600000:  Max Crit Veloc 
 DD1 .     Christian Arrindell:  Direct Drillr 1 
 DD2 .            Ivan Tutynin:  Direct Drillr 2 
 DDSV.               Mud Motor:  DD Service 
 DEFF.%              95.000000:  % Det Eff 
 DLRX.°/30m           1.280000:  Dogleg Rot Max 
 DLSO.°/30m           1.400000:  Dogleg Oriented 
 DLSX.°/30m           2.000000:  Dogleg Str Max 
 DRET.      00.30.00 12-May-22:  Drill End Time 
 DRST.      19.30.00 07-May-22:  Drill Start Tim 
 DTIM.hr             80.400002:  Time Drilling 
 EDEP.m            3551.000000:  End Depth 
 ENG1.            Ade Suhendar:  Engineer 1 
 ENG2.        Yiek Chong Leong:  Engineer 2 
 ENG3.           Sufyan Zainal:  Engineer 3 
 ETIM.      23.45.00 12-May-22:  End Time 
 FLOI.m3pm            2.035733:  Flow In 
 FLON.m3pm            1.324854:  Flow In Min 
 FLOS.mptm            4.000000:  Fluid Loss 
 FLOX.m3pm            2.119767:  Flow In Max 
 DFT .                 Polymer:  Mud Type 
 FTRO.       Formation Presure:  FTWD Run Obj 
 HFLO.                      No:  High Flow 
 HPRE.                      No:  High Pressure 
 HTEM.                      No:  High Temp 
 HYDO.m               2.500000:  Hydro Offset 
 IFIN.deg             1.860000:  Inc, Final 
 IMAX.deg             5.744654:  Inc Max 
 IMIN.deg             0.433048:  Inc Min 
 IMND.m            2565.059814:  Inc Min Depth 
 IMXD.m            2364.389893:  Inc Max Depth 
 JARR.                      No:  Jarring 
 LETM.      00.30.00 12-May-22:  Log End Time 
 LOST.hr                     0:  Lost Rig Time 
 LSTM.      19.30.00 07-May-22:  Log Start Time 
 MDCL.ppm         79803.000000:  Mud Chlorides 
 MDES.             Fresh Water:  Mud Desc 
 DFD .kg/m3        1138.351074:  Mud Density 
 MDMN.kg/m3        1114.385986:  Dens Mud Min 
 MDMX.kg/m3        1150.333862:  Dens Mud Max 
 PH  .pH             10.100000:  Mud pH 
 MOIL.                       0:  Run Mud Oil % 
 MOWR.                   0 100:  Run Mud OWR 
 MSND.                     0.2:  Run Mud Sand % 
 MSOL.                     4.6:  Run Mud Solids% 
 MTV .                GeoForce:  Motor Variant 
 DFV .spl            82.445999:  Mud Viscosity 
 MWOD.mm            171.449997:  MWD Tool OD 
 MWSI.                      No:  Serv Intrp, MWD 
 OTIM.hr            146.500000:  Time Operating 
 PCON.          Wear / Scratch:  Pad Condition 
 PMAX.kPag        35887.472656:  Press Op, Max 
 PV  .mPsec          40.000000:  Mud PV 
 RMS .ohmm            0.606000:  Mud Resistivity 
 RMCS.ohmm            0.076000:  Mud Cake Resistivity 
 MCST.degC           19.830000:  Mud Cake Sample Temperature 
 RMFS.ohmm            0.050000:  Mud Filtrate Resistivity 
 RMFT.degC           21.499998:  Mud Filtrate Sample Temperature 
 RMMT.ohmm            0.266500:  Rm @ Max Temp 
 MST .degC           21.000002:  Mud Sample Temperature 
 RUN .                     300:  Run Number 
 ROPA.m/hr           14.790000:  ROP Avg 
 ROPN.m/hr            1.870000:  ROP Min 
 ROPX.m/hr           32.700001:  ROP Max 
 RPMA.rpm            52.500000:  RPM Surface Avg 
 RPMN.rpm            30.000000:  RPM Surface Min 
 RPMX.rpm            60.000000:  RPM Surface Max 
 RRUN.                       3:  Rig Run Number 
 RTIM.hr              8.510000:  Time Reaming 
 SAZI.deg           199.820007:  Azm, Start 
 SDEP.m            2362.000000:  Start Depth 
 SIDD.                      No:  Serv Intrp, DD 
 SINC.deg             5.740000:  Inc, Start 
 SPPA.kPag        17754.474609:  SPP Avg 
 SPPN.kPag        10893.795898:  SPP Min 
 SPPX.kPag        22063.382813:  SPP Max 
 STIM.      21.15.00 06-May-22:  Start Time 
 SVCS.                 DD, MWD:  Services 
 SVER.                9.200000:  Sperry Version 
 TDAT.m            1189.000000:  Tot Depth Attmp 
 TDDF.                      No:  Trip for DD 
 TDLG.m            1189.000000:  Tot Depth Loggd 
 TFF .                      No:  Trip for Fail 
 TQAA.kN-m            0.013558:  Torque Abs Avg 
 TQAN.kN-m            0.004067:  Torque Abs Min 
 TQAX.kN-m            0.024405:  Torque Abs Max 
 TRRT.°/30m           0.860000:  Turn Rotating 
 MRT .                  EWR-P4:  Maximum Recorded Temperature 
 TTMX.degC           75.199997:  Max Tool Temp 
 VS01.                12278995:  Virtual Str1 SN 
 VS02.                12394165:  Virtual Str2 SN 
 VS03.                13686255:  Virtual Str3 SN 
 VS04.                90681167:  Virtual Str4 SN 
 VS05.                90683981:  Virtual Str5 SN 
 VS06.                90683974:  Virtual Str6 SN 
 VS07.                90683978:  Virtual Str7 SN 
 VS08.                90683983:  Virtual Str8 SN 
 VS09.                13531224:  Virtual Str9 SN 
 WBMN.kdN             2.668932:  WOB Min 
 WITN.          Peter Clarkson:  Customer Rep 2 
 WITN.        Shaughan Corless:  Customer Rep 
 WOBA.kdN             7.045982:  WOB Avg 
 WOBX.kdN            10.675730:  WOB Max 
 YP  .pa             14.364045:  Yield Point 
~Curve Information Block
#MNEM.UNIT                 API CODE     Curve Description
#---------               -----------    ---------------------------
 DEPT.M                 00 000 000 000:  Depth
 AFRSAC.ohmm            00 000 000 000:  AFR Shallow Avg Res BC
 AFRMAC.ohmm            00 000 000 000:  AFR Medium Avg Res BC
 AFRDAC.ohmm            00 000 000 000:  AFR Deep Avg Res BC
#Other Information
#
#WARRANTY: Halliburton will use its best efforts to furnish customers with 
#accurate information and interpretations that are part of, and incident to, the services 
#provided.  However, Halliburton cannot and does not warrant the accuracy 
#or correctness of such information and interpretations.  Under no circumstances should any 
#such information or interpretation be relied upon as the sole basis for any drilling, 
#completion, production, or financial decision or any procedure involving any risk to the 
#safety of any drilling venture, drilling rig or its crew or any other third party.  The 
#Customer has full responsibility for all drilling, completion and production operation.  
#Halliburton makes no representations or warranties, either expressed or 
#implied, including, but not limited to, the implied warranties of merchantability or fitness 
#for a particular purpose, with respect to the services rendered.  In no event will 
#Halliburton be liable for failure to obtain any particular results or for 
#any damages, including, but not limited to, indirect, special or consequential damages, 
#resulting from the use of any information or interpretation provided by Halliburton.
#
~A   DEPT      AFRSAC     AFRMAC     AFRDAC   
# ...
   3120.6000    77.7176    68.7068    86.1227
   3120.7000    61.2518    58.8638    74.9253
   3120.8000    47.0441    50.2843    57.9525
   3120.9000    29.5712    34.8304    37.6116
   3121.0000    16.1742    21.0506    23.1656
   3121.1000     9.9466    14.3991    15.6306
   3121.2000     7.4506    11.8039    12.7806
   3121.3000     6.5638    11.5551    12.2970
   3121.4000     6.2143    12.4400    13.0453
   3121.5000     6.1908    13.6966    14.5506
   3121.6000     6.1313    14.5159    15.4020
   3121.7000     5.6951    13.4292    14.0641
   3121.8000     5.1204    11.2026    12.0128
   3121.9000     4.5406     9.1074    10.3748
   3122.0000     4.2054     8.0593     9.8725
   3122.1000     4.1618     8.1759    10.5655
   3122.2000     4.2944     9.3132    11.9687
   3122.3000     4.4653    10.6333    13.2163
   3122.4000     4.4438    11.2407    12.9791
   3122.5000     4.2885    10.5846    11.8117
   3122.6000     4.1303     9.7487    10.6651
   3122.7000     4.1241     9.1499    10.1367
   3122.8000     4.1612     8.9556     9.9438
   3122.9000     4.2161     9.0619     9.9345
   3123.0000     4.4207     9.2273    10.1827
   3123.1000     4.7596     9.3212    10.3430
   3123.2000     5.1840     9.7207    10.6080
   3123.3000     5.5469     9.9590    11.0231
   3123.4000     5.7848    11.8886    12.9554
   3123.5000     6.6798    16.3703    16.9177
   3123.6000     7.7608    18.9734    19.4280
   3123.7000     8.9511    15.1933    15.8238
   3123.8000     9.3831    10.8801    11.3322
   3123.9000     8.9991     8.3280     8.9068
   3124.0000     8.9439     8.2225     8.3302
   3124.1000     8.5477     8.3824     8.2909
   3124.2000     7.8472     8.2129     7.9274
   3124.3000     7.1528     7.8352     7.4596
   3124.4000     6.6371     7.3195     7.0702
   3124.5000     6.2841     6.8166     6.8086
   3124.6000     6.0730     6.5102     6.7713
   3124.7000     5.9276     6.4387     6.8922
   3124.8000     5.8142     6.4322     7.0970
   3124.9000     5.6718     6.2360     7.1328
   3125.0000     5.3985     5.8503     6.8979
   3125.1000     4.8967     5.1824     6.1951
   3125.2000     4.4557     4.7500     5.5808
   3125.3000     4.1463     4.5460     5.1689
   3125.4000     4.0402     4.6328     5.0651
   3125.5000     4.1359     4.9684     5.2880
   3125.6000     4.1951     5.1858     5.4607
   3125.7000     4.2463     5.2483     5.6059
   3125.8000     4.1129     4.9453     5.4082
   3125.9000     4.0616     4.7006     5.2675
   3126.0000     4.1110     4.5341     5.2194
   3126.1000     4.2219     4.5950     5.2928
   3126.2000     4.4897     4.8661     5.6373
   3126.3000     4.8404     5.4284     6.1803
   3126.4000     5.5726     6.4118     7.2963
   3126.5000     6.3057     7.5263     8.3676
   3126.6000     6.6983     8.0312     8.7922
   3126.7000     6.6783     7.5825     8.4291
   3126.8000     6.2716     6.6801     7.3953
   3126.9000     5.9019     5.8906     6.5047
   3127.0000     5.6160     5.4330     5.8697
   3127.1000     5.6360     5.4426     5.6765
   3127.2000     5.8831     5.7305     5.7061
   3127.3000     6.1446     6.0263     5.7573
   3127.4000     6.5776     6.4982     5.9646
   3127.5000     7.0357     6.8786     6.2762
   3127.6000     7.8316     7.6907     7.0347
   3127.7000     8.8248     8.8312     8.1216
   3127.8000    10.0092    10.1683     9.5380
   3127.9000    11.4117    11.8705    11.3281
   3128.0000    13.0398    14.0676    13.8316
   3128.1000    15.1940    18.8214    17.7723
   3128.2000    18.9658    25.3536    23.4470
   3128.3000    24.3994    29.3289    30.1419
   3128.4000    31.2494    28.2284    35.4854
   3128.5000    35.5113    26.6897    39.4404
   3128.6000    29.5885    30.4541    33.7148
   3128.7000    21.6881    26.9821    24.1160
   3128.8000    14.7279    15.9683    15.5070
   3128.9000    10.2594     9.6586    10.3434
   3129.0000     7.9496     7.1083     7.8475
   3129.1000     6.7698     6.6193     6.6708
   3129.2000     6.4476     6.9101     6.4276
   3129.3000     6.7879     7.6646     6.9252
   3129.4000     7.2949     8.4982     7.6554
   3129.5000     7.9321     9.2527     8.5715
   3129.6000     8.3849     9.9104     9.2325
   3129.7000     8.9976    10.3832    10.0939
   3129.8000     9.6374    10.6942    10.9434
   3129.9000    10.1225    10.6662    11.6053
   3130.0000    10.2941    10.4958    11.7160
   3130.1000    10.1027    10.1563    11.2311
   3130.2000     9.9281    10.0593    10.6865
   3130.3000    10.0267    10.1874    10.5140
   3130.4000    10.2822    10.4772    10.5639
   3130.5000    10.8391    11.0207    10.9515
   3130.6000    11.1337    11.1943    10.9993
   3130.7000    11.4900    11.3447    11.0260
   3130.8000    11.6830    11.2330    10.9124
   3130.9000    12.1564    11.4878    11.1692
   3131.0000    12.9600    12.3801    11.9600
   3131.1000    14.2626    15.2291    13.9532
   3131.2000    15.8176    19.4473    16.7931
   3131.3000    18.6114    24.9472    21.0894
   3131.4000    23.0079    29.4713    26.4385
   3131.5000    27.9081    31.5373    30.5845
   3131.6000    31.3192    34.4587    33.3188
   3131.7000    34.0432    35.3650    36.1834
   3131.8000    32.8467    31.7321    34.2319
   3131.9000    31.7368    28.2101    32.4145
   3132.0000    31.9200    28.1254    31.9597
   3132.1000    31.1572    29.4074    30.7543
   3132.2000    29.5192    31.6926    28.6531
   3132.3000    28.5759    31.7467    27.4828
   3132.4000    28.0008    30.9626    26.7979
   3132.5000    27.0704    26.3418    25.8485
   3132.6000    25.5770    23.8373    24.4315
   3132.7000    23.7423    22.2354    22.7847
   3132.8000    23.4461    23.3730    22.9086
   3132.9000    25.0747    25.6878    25.2985
   3133.0000    25.6363    27.3424    26.6876
   3133.1000    26.0954    28.3388    28.0974
   3133.2000    24.8850    27.0473    27.4290
   3133.3000    24.3578    26.3225    27.2470
   3133.4000    23.7937    25.1960    26.7419
   3133.5000    23.6371    25.5014    26.5419
   3133.6000    22.9379    25.2945    25.9375
   3133.7000    22.8677    25.1331    26.8292
   3133.8000    24.0156    27.6921    29.7774
   3133.9000    27.9524    32.5926    37.2332
   3134.0000    26.4149    31.0231    36.1424
   3134.1000    20.7607    25.5373    30.1088
   3134.2000    11.2001    17.8501    18.6746
   3134.3000     6.2933    11.0890    10.7900
   3134.4000     4.6388     8.5133     7.9865
   3134.5000     4.1414     7.3173     7.1347
   3134.6000     4.2433     7.6033     7.8004
   3134.7000     4.5347     8.5715     9.2056
   3134.8000     4.7301     9.2966    10.3150
   3134.9000     4.7862     9.6039    10.5493
   3135.0000     4.7389     9.5510    10.2195
   3135.1000     4.5741     9.2868     9.7169
   3135.2000     4.6378     9.4952    10.0337
   3135.3000     4.6110     9.4045    10.2482
   3135.4000     4.4952     8.9578    10.0756
   3135.5000     4.4484     8.6367     9.8883
   3135.6000     4.3480     8.2760     9.5098
   3135.7000     4.4000     8.3620     9.6029
   3135.8000     4.5173     8.5806     9.8541
   3135.9000     4.7718     8.9251    10.4035
   3136.0000     4.8595     8.8604    10.4394
   3136.1000     4.6164     8.3094     9.7369
   3136.2000     4.5124     8.2768     9.5543
   3136.3000     4.6764     8.7625    10.1058
   3136.4000     5.1601     9.9137    11.6222
   3136.5000     5.4309    11.2026    12.8361
   3136.6000     5.3509    11.9588    13.2633
   3136.7000     5.3035    12.0455    13.3621
   3136.8000     5.4185    10.8872    12.6631
   3136.9000     5.5165     9.2015    11.6149
   3137.0000     5.9304     8.5933    12.0715
   3137.1000     7.5033     9.5287    16.5815
   3137.2000    10.2141    13.3128    26.4668
   3137.3000    10.7246    20.3558    29.7061
   3137.4000     8.5026    21.4560    21.0986
   3137.5000     6.0301    16.1035    13.0927
   3137.6000     4.9868    11.3414     9.7663
   3137.7000     4.7413     9.2081     9.0128
   3137.8000     4.5245     9.4283     8.8447
   3137.9000     4.5428     9.9178     9.1173
