~Version Information
 VERS.                  2.0:   CWLS log ASCII Standard -VERSION 2.0
 WRAP.                   NO:   One line per depth step
~Well Information Block
#MNEM.UNIT     VALUE/NAME     DESCRIPTION
#---------     -----------    ---------------------------
 STRT.M              2900.0000: START DEPTH
 STOP.M              3434.8000: STOP DEPTH
 STEP.M                 0.1000: STEP DEPTH
 NULL.               -999.2500: NULL VALUE
 UWI .                 W006102:  UNIQUE WELL IDENTIFIER
 API .                 W006102:  API NUMBER
 DFWT.                        :  DIST FWL TEXT
 DFST.                        :  DIST FSL TEXT
 DMF .             Drill Floor:  DRILL MEAS FROM
 STIM.      12.00.00 12-Nov-21:  START TIME
 DATE.      08.19.12 13-Dec-21:  END TIME
 SPUD.               14-Nov-21:  SPUD DATE
 NREF.                    Grid:  NORTH REFERENCE
 HPTY.       Minimum Curvature:  HOLE POS TYPE
 DMOD.             Drill Model:  DRILL MOD DESC
 SVYD.                  Survey:  SURVEY DESC
 ILTD.               Lithology:  INTERP LTH DESC
 FTOP.          Formation Tops:  FORM TOPS DESC
 WELL.             Walyering 5:  WELL NAME
 COMP.     Strike South West Pty Ltd:  COMPANY
 SON .        PA-XX-0907373664:  JOB NUMBER
 GCDE.     Generic Lat/Long's, Degrees, -180 ==> +180:  GEO COORD DESC
 CCDE.     UTM Zone 50S on Geocentric Datum of Australia 1994, Meters:  CART COORD DESC
 GGSY.                      LL:  GEO GRID SYS
 CGSY.             SS GDA94-50:  CART GRID SYS
 GREF.     Ellipsoid World Geodetic System :  GEO REFERENCE
 CREF.     Datum Geocentric Datum of Austra:  CART REFERENCE
 MMDL.            bggm2021.dat:  MAGNETIC MODEL
 MMDD.       10 November, 2021:  MAG DATA DATE
 MDS .              Win MagUTM:  MAG DATA SOURCE
 LLGR.      Latitude/Longitude:  LLGROUP
 XYGR.     Australia/New Zealand Coordinate Systems:  XYGROUP
 WTYP.                Deviated:  WELL TYPE
 PDAT.          Mean Sea Level:  PERMANENT DATUM
 BASE.                   Perth:  LOGGING EQUIPMENT BASE LOCATION
 REGN.            Asia Pacific:  REGION
 CTRY.               Australia:  COUNTRY NAME
 FLD .             Perth Basin:  FIELD NAME
 SRVC.     Ensign Energy Services:  CONTRACTOR
 MWDS.                Jandakot:  MWD SHOP
 RIG .              Ensign 970:  RIG NAME
 DCON.         Sperry Drilling:  DIRECTNL CONTR
 UNIT.                11741669:  LOGGING EQUIPMENT ID
 CNTY.                        :  COUNTY
 PROV.                        :  PROVINCE
 STAT.                        :  STATE
 LOC .                        :  LOCATION
 DEP .m               0.000000:  DEPTH
 TVDS.m             101.180001:  TVDSS CORRECTN
 LATI.deg           -30.730083:  LATITUDE
 LONG.deg           115.478781:  LONGITUDE
 WHNS.m               0.000000:  WELL HEAD N/S
 WHEW.m               0.000000:  WELL HEAD E/W
 UTMX.m          354359.500000:  UTM X
 UTMY.m         6599322.900000:  UTM Y
 DFWL.m               0.000000:  DISTANCE FWL
 DFSL.m               0.000000:  DISTANCE FSL
 SDEP.m              73.999999:  START DEPTH
 TDD .m            3434.999857:  TOTAL DEPTH (DRILLER)
 VSDR.deg           243.910004:  VERT SEC DIRECT
 GVFD.g               1.000000:  GRAVITY FIELD
 MFLD.nT          57661.890625:  MAGNETIC FIELD
 MDIP.deg           -64.786583:  MAGNETIC DIP
 MDEC.deg            -1.367809:  MAGNETIC DECL
 GRDC.deg             0.777471:  GRID CORRECTION
 AZTC.deg            -2.145280:  AZM TOTAL CORR
 EPD .m              94.030000:  ELEVATION
 EGL .m              94.030000:  GROUND ELEVATION
 WDMS.m               0.000000:  WD ELEV
 APD .m               7.150000:  DEPTH ABOVE PD
 MMDE.m             -30.842712:  MAGUTM CALC DEP
 CMER.deg           117.000000:  CENTRL MERIDIAN
 AGAP.m               7.150000:  AIR GAP
 VSC .                       0:  VS TO CLOSURE
 MAGU.                 1390910:  MAGUTM CHECKSUM
~Curve Information Block
#MNEM.UNIT                 API CODE     Curve Description
#---------               -----------    ---------------------------
 DEPT.M                 00 000 000 000:  Depth
 ALPELC.                00 000 000 000:  ALD LCRB Pe Factor
 XBCS.uspf              00 000 000 000:  XBAT Comp Slowness
 RSPD.m/hr              00 000 000 000:  Running Speed
 PGRC.api               00 000 000 000:  PCG Gamma Ray BCorr
 XBEDX.in               00 000 000 000:  XCAL Eqv Hole Size Cor
 AFRSAC.ohmm             00 000 000 000:  AFR Shall Resistivity BC
 AFRMAC.ohmm             00 000 000 000:  AFR Medium Resistivity BC
 AFRDAC.ohmm             00 000 000 000:  AFR Deep Resistivity BC
 ALCDLC.g/cc            00 000 000 000:  ALD LCRB Comp Density
 TNPL.pu                00 000 000 000:  CTN Porosity Limestone
 ALDCLC.g/cc            00 000 000 000:  ALD LCRB Den Correction
 R09PC.ohmm             00 000 000 000:  9in Phase Resistivity BC
 R15PC.ohmm             00 000 000 000:  15in Phase Resistivity BC
 R27PC.ohmm             00 000 000 000:  27in Phase Resistivity BC
 R39PC.ohmm             00 000 000 000:  39in Phase Resistivity BC
 R09AC.ohmm             00 000 000 000:  9in Atten Resistivity BC
 R15AC.ohmm             00 000 000 000:  15in Atten Resistivity BC
 R27AC.ohmm             00 000 000 000:  27in Atten Resistivity BC
 R39AC.ohmm             00 000 000 000:  39in Atten Resistivity BC
 TVD .m                 00 000 000 000:  True Vertical Depth
#Other Information
#
#WARRANTY: Halliburton will use its best efforts to furnish customers with 
#accurate information and interpretations that are part of, and incident to, the services 
#provided.  However, Halliburton cannot and does not warrant the accuracy 
#or correctness of such information and interpretations.  Under no circumstances should any 
#such information or interpretation be relied upon as the sole basis for any drilling, 
#completion, production, or financial decision or any procedure involving any risk to the 
#safety of any drilling venture, drilling rig or its crew or any other third party.  The 
#Customer has full responsibility for all drilling, completion and production operation.  
#Halliburton makes no representations or warranties, either expressed or 
#implied, including, but not limited to, the implied warranties of merchantability or fitness 
#for a particular purpose, with respect to the services rendered.  In no event will 
#Halliburton be liable for failure to obtain any particular results or for 
#any damages, including, but not limited to, indirect, special or consequential damages, 
#resulting from the use of any information or interpretation provided by Halliburton.
#
~A   DEPT     ALPELC     XBCS      RSPD      PGRC      XBEDX     AFRSAC     AFRMAC     AFRDAC    ALCDLC     TNPL     ALDCLC     R09PC     R15PC     R27PC     R39PC     R09AC     R15AC     R27AC     R39AC      TVD    
# ...
   3101.4000    2.0701   79.4167   24.4161 -999.2500    8.4309    2.3008    4.8234   10.5984    2.2791   10.2761   -0.0035    2.1978    2.4114    3.4730    7.7062    3.5184    5.2431   13.0808   48.1611 3075.9927
   3101.5000    1.9423   79.1174   21.0766 -999.2500    8.4038    2.1962    4.8516   10.3614    2.2814   10.3138   -0.0098    2.1872    2.3514    3.2776    7.4996    3.3539    5.0776   12.5816   42.9935 3076.0769
   3101.6000    1.6853   78.2435   20.2183 -999.2500    8.4038    2.3048    5.1914   11.0136    2.2763   10.9162   -0.0131    2.1307    2.2212    3.1248    7.2056    3.1955    4.7213   12.1693   41.8911 3076.1812
   3101.7000    1.8585   78.2169   22.9334 -999.2500    8.4038    2.2536    5.3070   10.7380    2.2828   10.9948   -0.0098    2.0784    2.1312    2.9880    7.0452    3.1037    4.4648   12.2115   43.4333 3076.2712
   3101.8000    2.1457   78.8902   28.8561 -999.2500    8.4192    2.1497    5.0470   10.1520    2.2848   10.8606   -0.0092    2.0664    2.1538    2.8650    7.1779    3.0905    4.4644   12.9124   50.3389 3076.3679
   3101.9000    2.0016   78.8228   26.9988 -999.2500    8.4192    2.1479    4.8867    9.9994    2.2647   10.8633   -0.0196    2.0727    2.1826    2.8957    7.6261    3.0318    4.3658   13.6277   72.2330 3076.4656
   3102.0000    1.7767   78.6401   26.9340 -999.2500    8.4192    2.2086    4.7885   10.1087    2.2799   11.0190   -0.0137    2.0905    2.1818    2.9700    8.0656    3.0957    4.4670   14.5312  109.2373 3076.5510
   3102.1000    1.9367   78.5647   28.9674 -999.2500    8.4165    2.2059    4.5817   10.0866    2.2894   11.2321   -0.0201    2.1804    2.2941    3.1347    8.8947    3.2035    4.7017   15.5754   93.6656 3076.6548
   3102.2000    2.2842   78.4048   27.5542 -999.2500    8.4139    2.1870    4.5319   10.0687    2.3165   11.1835   -0.0095    2.3088    2.4632    3.3537    9.6710    3.3644    4.9307   16.2761  125.8232 3076.7449
   3102.3000    2.5299   77.7965   29.1894 -999.2500    8.4139    2.3929    4.8589   11.0060    2.3399   11.4027    0.0019    2.4402    2.5973    3.5078   10.0359    3.5414    5.0621   16.4691  177.0982 3076.8416
   3102.4000    2.6004   77.5742   25.0970 -999.2500    8.4139    2.5754    5.1405   11.4034    2.3481   11.9548    0.0040    2.5544    2.6738    3.5482    9.8899    3.7050    5.1670   16.2837  176.0823 3076.9387
   3102.5000    2.5186   77.3445   20.2000 -999.2500    8.4131    2.6021    5.1998   11.0685    2.3401   12.5811    0.0001    2.6638    2.8302    3.6365    9.4334    3.9167    5.6051   15.8968  103.0758 3077.0249
   3102.6000    2.1056   77.2951   26.3105 -999.2500    8.4131    2.6137    5.1814   10.7369    2.3360   12.3120    0.0002    2.6984    2.8469    3.6853    9.2304    4.1489    5.9145   15.2058  122.8331 3077.1279
   3102.7000    2.2163   77.2054   27.0404 -999.2500    8.4131    2.6475    5.0993   10.6350    2.3415   12.1342    0.0038    2.7160    2.8933    3.6811    8.9155    4.2756    6.0855   14.7998  100.5266 3077.2136
   3102.8000    2.2236   78.8967   29.1860 -999.2500    8.4179    2.6329    4.9982   10.4878    2.3464   12.5698    0.0043    2.7248    2.9382    3.7484    8.7046    4.3282    6.1670   14.8624   86.7194 3077.3152
   3102.9000    2.1504   80.5825   26.9886 -999.2500    8.4179    2.6278    4.9855   10.3945    2.3478   12.1436    0.0035    2.7111    2.9462    3.8370    8.5746    4.3333    6.2095   15.2091   82.5970 3077.4128
   3103.0000    2.4519   78.4522   26.9312 -999.2500    8.4179    2.7522    5.1855   10.7384    2.3477   11.5599    0.0071    2.6608    2.9069    3.8410    8.4830    4.3184    6.2880   15.6694   68.4125 3077.4985
   3103.1000    2.2203   77.4772   27.6974 -999.2500    8.4554    2.6955    5.1717   10.3263    2.3508   11.3064    0.0015    2.6605    3.0129    3.9201    8.9072    4.3656    6.5167   16.8742   71.0891 3077.6021
   3103.2000    1.8339   78.4919   16.0087 -999.2500    8.4554    2.6585    5.2005   10.0059    2.3489   11.5494   -0.0032    2.7425    3.0797    4.0752    9.3556    4.3726    6.5862   17.4325  105.7750 3077.6926
   3103.3000    1.8713   77.7326   19.0915 -999.2500    8.4554    2.6489    5.3775    9.7791    2.3549   11.7009   -0.0069    2.8574    3.1784    4.2233    9.7498    4.3032    6.5578   17.6849   93.9196 3077.7837
   3103.4000    1.9899   76.8431   27.3662 -999.2500    8.4315    2.8004    5.8629   10.3921    2.3672   11.6391   -0.0059    2.9231    3.2098    4.2901    9.8191    4.4350    6.6090   17.6289   78.5773 3077.8875
   3103.5000    1.8891   76.8220   27.1105 -999.2500    8.4315    3.0105    6.4756   11.3724    2.3767   11.8329    0.0023    2.9249    3.1813    4.2254    9.6027    4.6945    6.7233   17.6100   77.4531 3077.9722
   3103.6000    2.4613   76.8105   28.9711 -999.2500    8.4315    3.0891    6.6372   11.7875    2.3761   12.0040    0.0103    2.8990    3.1872    4.0264    9.3681    4.8012    6.7913   18.1628   75.3521 3078.0757
   3103.7000    2.4705   75.7319   27.1141 -999.2500    8.4484    3.0005    6.2031   11.2224    2.3789   12.1522    0.0109    2.8818    3.2106    4.1403    9.6088    4.8752    7.0250   18.7321  101.1280 3078.1665
   3103.8000    2.2660   75.3364   27.4789 -999.2500    8.4484    2.8953    5.6688   10.3920    2.3645   12.2908   -0.0002    2.9075    3.2909    4.3894   10.2427    5.0580    7.2778   20.1142  105.5992 3078.2573
   3103.9000    2.2036   74.8794   27.9443 -999.2500    8.4484    2.8640    5.3738    9.8886    2.3616   12.4136   -0.0002    3.0585    3.5298    4.8898   11.7595    5.2738    7.7477   21.2024  125.3604 3078.3611
   3104.0000    2.2987   74.6992   27.1095 -999.2500    8.4738    2.9839    5.5309   10.1465    2.3764   12.3897    0.0080    3.4046    3.9628    5.6208   13.7676    5.4912    8.3764   22.2112  146.4561 3078.4458
   3104.1000    2.2738   74.5255   26.2026 -999.2500    8.4738    3.4230    6.4239   11.6225    2.3909   12.6819   -0.0050    3.8651    4.4540    6.2817   15.0755    5.7836    8.8911   22.9547  152.9994 3078.5493
   3104.2000    2.1321   74.3983   18.4788 -999.2500    8.4738    4.1113    8.0688   14.1275    2.4117   12.9173   -0.0067    4.3574    4.9207    6.7143   15.2755    6.4021    9.2905   22.4149  161.0926 3078.6401
   3104.3000    2.2403   74.3471   25.5188 -999.2500    8.4605    4.2655    8.9713   14.9133    2.4202   13.3033   -0.0035    4.6249    5.1332    6.7201   14.4130    7.2337    9.7789   22.3131  112.6835 3078.7310
   3104.4000    2.0856   72.5577   27.9387 -999.2500    8.4605    4.6098    9.6258   15.6596    2.4228   12.8138    0.0035    4.9334    5.3525    6.4284   13.1533    8.0131   10.4814   23.6079  105.5992 3078.8345
   3104.5000    1.8681   72.4466   27.1223 -999.2500    8.4605    5.3239   10.8194   17.2890    2.4201   12.3973    0.0116    4.8256    5.1623    6.2620   12.2412    8.3667   11.0115   23.3837  102.0809 3078.9192
   3104.6000    2.1756   74.5412   28.9685 -999.2500    8.4814    4.7000    8.7790   13.8773    2.4083   12.0028    0.0149    4.5784    5.0435    6.3314   12.0643    8.2717   11.4681   22.8388   97.4338 3079.0229
   3104.7000    2.1951   73.6178   27.1010 -999.2500    8.4814    3.7784    6.5842   10.4192    2.3923   12.5485    0.0051    4.4383    5.2997    6.7605   12.8952    7.9734   11.9979   23.3568   99.9651 3079.1138
   3104.8000    1.8845   68.5638   27.4576 -999.2500    8.4814    3.8887    6.3879   10.4465    2.3866   12.8395   -0.0120    4.5734    5.7134    7.7475   14.6706    8.4364   12.8043   26.1115  129.7038 3079.2046
   3104.9000    1.8448   68.8930   24.0234 -999.2500    8.4644    4.3827    7.4174   12.2648    2.3999   13.0658   -0.0152    5.0120    6.1092    8.8775   16.5454    8.6690   14.2145   28.8178  137.1817 3079.3086
   3105.0000    1.9799   69.5703   12.8538 -999.2500    8.4644    4.7825    8.7115   14.8405    2.4204   12.7431   -0.0118    5.3289    6.3454    9.4032   16.8125    8.8143   13.8787   29.2842  118.7626 3079.3940
   3105.1000    2.1004   72.1744   25.8665 -999.2500    8.4644    5.3325   10.2250   17.9967    2.4369   12.4693   -0.0081    5.5395    6.4319    9.2079   16.5170    9.0259   13.8371   28.4777  103.6460 3079.4954
