~Version Information
 VERS.                  2.0:   CWLS log ASCII Standard -VERSION 2.0
 WRAP.                   NO:   One line per depth step
~Well Information Block
#MNEM.UNIT     VALUE/NAME     DESCRIPTION
#---------     -----------    ---------------------------
 STRT.M              2900.0000: START DEPTH
 STOP.M              3434.8000: STOP DEPTH
 STEP.M                 0.1000: STEP DEPTH
 NULL.               -999.2500: NULL VALUE
 UWI .                 W006102:  UNIQUE WELL IDENTIFIER
 API .                 W006102:  API NUMBER
 DFWT.                        :  DIST FWL TEXT
 DFST.                        :  DIST FSL TEXT
 DMF .             Drill Floor:  DRILL MEAS FROM
 STIM.      12.00.00 12-Nov-21:  START TIME
 DATE.      08.19.12 13-Dec-21:  END TIME
 SPUD.               14-Nov-21:  SPUD DATE
 NREF.                    Grid:  NORTH REFERENCE
 HPTY.       Minimum Curvature:  HOLE POS TYPE
 DMOD.             Drill Model:  DRILL MOD DESC
 SVYD.                  Survey:  SURVEY DESC
 ILTD.               Lithology:  INTERP LTH DESC
 FTOP.          Formation Tops:  FORM TOPS DESC
 WELL.             Walyering 5:  WELL NAME
 COMP.     Strike South West Pty Ltd:  COMPANY
 SON .        PA-XX-0907373664:  JOB NUMBER
 GCDE.     Generic Lat/Long's, Degrees, -180 ==> +180:  GEO COORD DESC
 CCDE.     UTM Zone 50S on Geocentric Datum of Australia 1994, Meters:  CART COORD DESC
 GGSY.                      LL:  GEO GRID SYS
 CGSY.             SS GDA94-50:  CART GRID SYS
 GREF.     Ellipsoid World Geodetic System :  GEO REFERENCE
 CREF.     Datum Geocentric Datum of Austra:  CART REFERENCE
 MMDL.            bggm2021.dat:  MAGNETIC MODEL
 MMDD.       10 November, 2021:  MAG DATA DATE
 MDS .              Win MagUTM:  MAG DATA SOURCE
 LLGR.      Latitude/Longitude:  LLGROUP
 XYGR.     Australia/New Zealand Coordinate Systems:  XYGROUP
 WTYP.                Deviated:  WELL TYPE
 PDAT.          Mean Sea Level:  PERMANENT DATUM
 BASE.                   Perth:  LOGGING EQUIPMENT BASE LOCATION
 REGN.            Asia Pacific:  REGION
 CTRY.               Australia:  COUNTRY NAME
 FLD .             Perth Basin:  FIELD NAME
 SRVC.     Ensign Energy Services:  CONTRACTOR
 MWDS.                Jandakot:  MWD SHOP
 RIG .              Ensign 970:  RIG NAME
 DCON.         Sperry Drilling:  DIRECTNL CONTR
 UNIT.                11741669:  LOGGING EQUIPMENT ID
 CNTY.                        :  COUNTY
 PROV.                        :  PROVINCE
 STAT.                        :  STATE
 LOC .                        :  LOCATION
 DEP .m               0.000000:  DEPTH
 TVDS.m             101.180001:  TVDSS CORRECTN
 LATI.deg           -30.730083:  LATITUDE
 LONG.deg           115.478781:  LONGITUDE
 WHNS.m               0.000000:  WELL HEAD N/S
 WHEW.m               0.000000:  WELL HEAD E/W
 UTMX.m          354359.500000:  UTM X
 UTMY.m         6599322.900000:  UTM Y
 DFWL.m               0.000000:  DISTANCE FWL
 DFSL.m               0.000000:  DISTANCE FSL
 SDEP.m              73.999999:  START DEPTH
 TDD .m            3434.999857:  TOTAL DEPTH (DRILLER)
 VSDR.deg           243.910004:  VERT SEC DIRECT
 GVFD.g               1.000000:  GRAVITY FIELD
 MFLD.nT          57661.890625:  MAGNETIC FIELD
 MDIP.deg           -64.786583:  MAGNETIC DIP
 MDEC.deg            -1.367809:  MAGNETIC DECL
 GRDC.deg             0.777471:  GRID CORRECTION
 AZTC.deg            -2.145280:  AZM TOTAL CORR
 EPD .m              94.030000:  ELEVATION
 EGL .m              94.030000:  GROUND ELEVATION
 WDMS.m               0.000000:  WD ELEV
 APD .m               7.150000:  DEPTH ABOVE PD
 MMDE.m             -30.842712:  MAGUTM CALC DEP
 CMER.deg           117.000000:  CENTRL MERIDIAN
 AGAP.m               7.150000:  AIR GAP
 VSC .                       0:  VS TO CLOSURE
 MAGU.                 1390910:  MAGUTM CHECKSUM
~Curve Information Block
#MNEM.UNIT                 API CODE     Curve Description
#---------               -----------    ---------------------------
 DEPT.M                 00 000 000 000:  Depth
 ALPELC.                00 000 000 000:  ALD LCRB Pe Factor
 XBCS.uspf              00 000 000 000:  XBAT Comp Slowness
 RSPD.m/hr              00 000 000 000:  Running Speed
 PGRC.api               00 000 000 000:  PCG Gamma Ray BCorr
 XBEDX.in               00 000 000 000:  XCAL Eqv Hole Size Cor
 AFRSAC.ohmm             00 000 000 000:  AFR Shall Resistivity BC
 AFRMAC.ohmm             00 000 000 000:  AFR Medium Resistivity BC
 AFRDAC.ohmm             00 000 000 000:  AFR Deep Resistivity BC
 ALCDLC.g/cc            00 000 000 000:  ALD LCRB Comp Density
 TNPL.pu                00 000 000 000:  CTN Porosity Limestone
 ALDCLC.g/cc            00 000 000 000:  ALD LCRB Den Correction
 R09PC.ohmm             00 000 000 000:  9in Phase Resistivity BC
 R15PC.ohmm             00 000 000 000:  15in Phase Resistivity BC
 R27PC.ohmm             00 000 000 000:  27in Phase Resistivity BC
 R39PC.ohmm             00 000 000 000:  39in Phase Resistivity BC
 R09AC.ohmm             00 000 000 000:  9in Atten Resistivity BC
 R15AC.ohmm             00 000 000 000:  15in Atten Resistivity BC
 R27AC.ohmm             00 000 000 000:  27in Atten Resistivity BC
 R39AC.ohmm             00 000 000 000:  39in Atten Resistivity BC
 TVD .m                 00 000 000 000:  True Vertical Depth
#Other Information
#
#WARRANTY: Halliburton will use its best efforts to furnish customers with 
#accurate information and interpretations that are part of, and incident to, the services 
#provided.  However, Halliburton cannot and does not warrant the accuracy 
#or correctness of such information and interpretations.  Under no circumstances should any 
#such information or interpretation be relied upon as the sole basis for any drilling, 
#completion, production, or financial decision or any procedure involving any risk to the 
#safety of any drilling venture, drilling rig or its crew or any other third party.  The 
#Customer has full responsibility for all drilling, completion and production operation.  
#Halliburton makes no representations or warranties, either expressed or 
#implied, including, but not limited to, the implied warranties of merchantability or fitness 
#for a particular purpose, with respect to the services rendered.  In no event will 
#Halliburton be liable for failure to obtain any particular results or for 
#any damages, including, but not limited to, indirect, special or consequential damages, 
#resulting from the use of any information or interpretation provided by Halliburton.
#
~A   DEPT     ALPELC     XBCS      RSPD      PGRC      XBEDX     AFRSAC     AFRMAC     AFRDAC    ALCDLC     TNPL     ALDCLC     R09PC     R15PC     R27PC     R39PC     R09AC     R15AC     R27AC     R39AC      TVD    
# ...
   3390.2000    4.0295   86.6833   18.5576 -999.2500 -999.2500    0.6526    4.6537    5.2738    2.5597   37.7678    0.0788    1.7023    2.5187    2.6934    3.3896    1.2043    2.4881    3.4147    3.6035 3349.7932
   3390.3000    3.9330   90.2661   25.2014 -999.2500 -999.2500    0.6195    4.2519    4.8768    2.5566   37.7285    0.0620    1.8980    2.7292    3.0998    3.1148    1.1200    2.5605    2.9815    3.0323 3349.9036
   3390.4000    3.6396   92.0603   28.6531 -999.2500 -999.2500    0.5509    3.8855    4.5538    2.5353   38.9687    0.0402    1.5561    2.0169    2.0683    1.8927    0.8183    1.6872    2.0205    2.1415 3349.9946
   3390.5000    3.4263   92.9002   27.2782 -999.2500 -999.2500    0.4228    3.6742    3.9635    2.4982   43.8514    0.0587    1.1860    1.5317    1.7606    1.7021    0.6993    1.3206    1.8587    2.1840 3350.0920
   3390.6000    2.0960   93.8787   28.0582 -999.2500 -999.2500    0.3531    3.2433    3.4408    2.4507   45.1417    0.1710    0.6241    0.7493    0.8060    0.8467    0.4113    0.7362    1.0133    1.5623 3350.1934
   3390.7000    1.2078   92.1197   27.2622 -999.2500 -999.2500    0.2991    2.5372    2.6179    2.4069   45.1779    0.2269    0.3780    0.4238    0.4380    0.5999    0.2922    0.5713    1.0288    2.1586 3350.2795
   3390.8000    3.1640   91.2861   22.1278 -999.2500 -999.2500    0.3166    2.2285    2.2223    2.1621   42.8982    0.1045    0.3248  199.8398  223.0054  251.6977    0.2732    0.9187   30.1127   31.8985 3350.3789
   3390.9000    4.1872   86.7580    4.8984 -999.2500 -999.2500    0.2928    2.0230    1.8795    2.1115   46.2622    0.0183    1.0521 1261.1394 1407.2833 1586.7095    0.3610   16.9816  181.9684  183.1621 3350.4700
   3391.0000    3.6003   85.1277   16.5394 -999.2500 -999.2500    0.2997    2.2698    2.1598    2.2598   48.3219    0.0079    2.5084 1323.0195 1476.4348 1665.0884    0.8012  152.8899  198.4285  194.1555 3350.5669
   3391.1000    2.7888   81.2058   27.6207 -999.2500 -999.2500    0.5173    3.4637    3.6039    2.3471   44.3455    0.0072    1.7683  427.6186  478.3067  544.1736    0.8647   65.6938  161.3627   86.4066 3350.6680
   3391.2000    2.6898   79.7547   27.2715 -999.2500 -999.2500    0.7882    4.4429    4.5704    2.4564   36.4338    0.0428    1.6585    4.3330    9.6859   15.3790    1.0930    4.4997  119.8493   23.6841 3350.7559
   3391.3000    3.0586   76.8459   27.1686 -999.2500 -999.2500    1.0353    5.0445    4.8840    2.5050   32.8297    0.0720    2.5926    3.8811   12.4964   15.8220    1.8762    3.7127   86.0442   12.8236 3350.8542
   3391.4000    3.1084   76.8459   28.6959 -999.2500 -999.2500    1.1557    5.4375    5.3951    2.5258   32.2135    0.0513    2.7524    3.3710    7.0377    8.4522    2.5661    3.5947   21.0563    8.3977 3350.9453
   3391.5000    3.2866   75.8933   27.0297 -999.2500 -999.2500    1.3699    6.9723    6.8093    2.5299   30.1810    0.0142    2.1296    3.0442    4.4665    6.2846    2.2008    3.3442    6.3258    6.5178 3351.0425
   3391.6000    4.1327   75.8933   28.4047 -999.2500 -999.2500    1.3004    6.8941    7.1702    2.5451   29.2945    0.0202    2.1788    3.3938    5.5599   10.3741    2.2467    3.9880    8.8985    8.6029 3351.1433
   3391.7000    3.4037   76.1929   26.2477 -999.2500 -999.2500    1.4022    7.7952    8.5205    2.6582   30.3429    0.0810    2.0366    3.0140    3.9551    6.0151    2.0984    4.0084    5.5384    5.9670 3351.2314
   3391.8000    3.4030   76.3569    5.5431 -999.2500 -999.2500    1.7723    9.0335   10.0531    2.6093   30.7667    0.0815    2.0357    3.0257    3.3637    3.8352    1.9462    3.9184    4.7150    4.8043 3351.4060
   3391.9000    2.7965   78.0235    1.0225 -999.2500 -999.2500    1.4818    6.2730    7.4100    2.5442   31.0713    0.0228    2.3749    3.9995    4.1154    4.5895    2.0465    4.7385    5.6835    5.0385 3351.4409
   3392.0000    2.9006   78.4346    6.3469 -999.2500 -999.2500    1.2681    5.1562    5.6272    2.5164   31.0375    0.0167    2.3818    4.5716    4.5259    4.8543    2.3345    6.3122    6.0668    5.3470 3351.4766
   3392.1000    3.4689   77.9593    9.1384 -999.2500 -999.2500    1.4029    5.3666    5.3905    2.5193   34.4837    0.0538    2.2064    4.1159    4.7857    5.2232    1.9665    6.0883    6.6100    5.6578 3351.6680
   3392.2000    2.6423   79.3898    2.8751 -999.2500 -999.2500    1.3056    5.1090    5.2294    2.5221   35.1047    0.0205    2.0384    3.2487    4.1232    4.5901    1.7497    5.0422    6.1865    5.4618 3351.6995
   3392.3000    3.0947   80.6081    8.3587 -999.2500 -999.2500    1.2346    5.3691    5.0766    2.5416   32.8911    0.0782    1.7617    2.6311    3.4955    3.9478    1.6121    4.1049    5.4422    5.2397 3351.7478
   3392.4000    3.2278   85.3104   22.1671 -999.2500 -999.2500    1.2490    5.3763    4.9578    2.5369   31.9065    0.0856    1.5505    2.5692    3.4597    3.9053    1.4652    3.5154    4.8675    5.2613 3351.8928
   3392.5000    3.0947   86.9355   14.8906 -999.2500 -999.2500    1.3227    5.2881    4.9319    2.5147   32.2035    0.0747    2.1742    3.7486    5.0191    5.5374    1.3992    4.0117    5.7777    5.9244 3351.9944
   3392.6000    2.8765   82.6168   14.8556 -999.2500 -999.2500    1.4138    5.9961    5.3354    2.4970   34.8044    0.0709    2.4930    4.4366    6.7419    7.3625    1.6415    5.7188    8.1826    6.8309 3352.1255
   3392.7000    2.6944   84.8474    6.2152 -999.2500 -999.2500    1.4694    6.8523    6.4897    2.4959   33.6870    0.0803    2.1904    3.8074    5.1510    6.1148    1.8276    7.2505    8.5210    6.8904 3352.1895
   3392.8000    2.4546   86.9259   16.6080 -999.2500 -999.2500    1.2997    6.7195    6.4098    2.4520   33.9339    0.0444    1.8760    3.0702    3.7873    4.5370    1.5745    5.6207    6.4552    5.8918 3352.2295
   3392.9000    2.7584   83.0010   12.1561 -999.2500 -999.2500    1.1032    6.0689    5.7896    2.4154   35.8623    0.0843    1.5972    2.4088    2.9307    3.2794    1.1894    2.8959    3.9470    4.7781 3352.3943
   3393.0000    2.9209   83.1348    3.9467 -999.2500 -999.2500    0.9976    4.2782    4.5655    2.4604   35.0193    0.1142    1.6430    2.9400    4.0357    4.1551    1.2240    3.9116    6.2403    5.6057 3352.4680
   3393.1000    3.2822   83.3855   29.8029 -999.2500 -999.2500    0.9254    3.8790    3.7221    2.4944   35.0430    0.1119    2.3379    6.0957    9.1440    8.2574    1.4870   10.1211   16.5068    8.5711 3352.5615
   3393.2000    3.9839   80.2593   31.9904 -999.2500 -999.2500    0.9117    4.4237    4.1687    2.4663   35.8676    0.0795    3.0380    6.3723   10.4527   11.4897    2.0494   13.1398   17.9309    9.1562 3352.6614
   3393.3000    3.9403   78.1391   35.1220 -999.2500 -999.2500    0.8485    4.9510    4.8770    2.5058   34.0643    0.0624    3.4012    6.8955   10.0405   12.0214    2.1937   16.7403   15.8892    8.4800 3352.7542
   3393.4000    3.5519   79.6209   25.5363 -999.2500 -999.2500    0.9592    5.9276    5.4863    2.5003   32.9824    0.0436    3.6513    6.5509    8.8838   10.2926    2.3384   14.1226   12.1628    7.4225 3352.8550
   3393.5000    3.3802   79.7584   20.3386 -999.2500 -999.2500    1.1983    6.1245    6.1846    2.5410   32.8624    0.0319    3.5965    5.0994    7.4096    7.5316    2.4576    6.3010    8.6585    6.5410 3352.9392
   3393.6000    3.4667   75.4095   41.0032 -999.2500 -999.2500    1.2988    5.6116    6.4882    2.5613   31.9250    0.0386    2.8643    3.7604    5.2169    5.6469    2.1299    4.4524    6.1490    5.6088 3353.0383
   3393.7000    3.7309   74.8146   40.6503 -999.2500 -999.2500    1.5263    4.7850    6.6891    2.5403   30.7826    0.0615    3.0138    3.5876    4.5864    5.2867    2.3148    4.2658    5.7180    5.5644 3353.1360
   3393.8000    4.0672   73.7180   36.6317 -999.2500 -999.2500    1.7448    5.7560    6.6143    2.5450   29.2450    0.0811    2.7894    3.3256    4.0961    4.8282    2.4882    4.4042    5.6998    5.4723 3353.2336
   3393.9000    3.9705   74.9617   19.9203 -999.2500 -999.2500    2.2305    6.3715    7.4182    2.5309   29.4611    0.0652    2.4656    3.1813    3.1726    3.8335    2.6135    4.6918    4.6484    4.6699 3353.3276
