~Version Information
 VERS.                  2.0:   CWLS log ASCII Standard -VERSION 2.0
 WRAP.                   NO:   One line per depth step
~Well Information Block
#MNEM.UNIT     VALUE/NAME     DESCRIPTION
#---------     -----------    ---------------------------
 STRT.M              2900.0000: START DEPTH
 STOP.M              3434.8000: STOP DEPTH
 STEP.M                 0.1000: STEP DEPTH
 NULL.               -999.2500: NULL VALUE
 UWI .                 W006102:  UNIQUE WELL IDENTIFIER
 API .                 W006102:  API NUMBER
 DFWT.                        :  DIST FWL TEXT
 DFST.                        :  DIST FSL TEXT
 DMF .             Drill Floor:  DRILL MEAS FROM
 STIM.      12.00.00 12-Nov-21:  START TIME
 DATE.      08.19.12 13-Dec-21:  END TIME
 SPUD.               14-Nov-21:  SPUD DATE
 NREF.                    Grid:  NORTH REFERENCE
 HPTY.       Minimum Curvature:  HOLE POS TYPE
 DMOD.             Drill Model:  DRILL MOD DESC
 SVYD.                  Survey:  SURVEY DESC
 ILTD.               Lithology:  INTERP LTH DESC
 FTOP.          Formation Tops:  FORM TOPS DESC
 WELL.             Walyering 5:  WELL NAME
 COMP.     Strike South West Pty Ltd:  COMPANY
 SON .        PA-XX-0907373664:  JOB NUMBER
 GCDE.     Generic Lat/Long's, Degrees, -180 ==> +180:  GEO COORD DESC
 CCDE.     UTM Zone 50S on Geocentric Datum of Australia 1994, Meters:  CART COORD DESC
 GGSY.                      LL:  GEO GRID SYS
 CGSY.             SS GDA94-50:  CART GRID SYS
 GREF.     Ellipsoid World Geodetic System :  GEO REFERENCE
 CREF.     Datum Geocentric Datum of Austra:  CART REFERENCE
 MMDL.            bggm2021.dat:  MAGNETIC MODEL
 MMDD.       10 November, 2021:  MAG DATA DATE
 MDS .              Win MagUTM:  MAG DATA SOURCE
 LLGR.      Latitude/Longitude:  LLGROUP
 XYGR.     Australia/New Zealand Coordinate Systems:  XYGROUP
 WTYP.                Deviated:  WELL TYPE
 PDAT.          Mean Sea Level:  PERMANENT DATUM
 BASE.                   Perth:  LOGGING EQUIPMENT BASE LOCATION
 REGN.            Asia Pacific:  REGION
 CTRY.               Australia:  COUNTRY NAME
 FLD .             Perth Basin:  FIELD NAME
 SRVC.     Ensign Energy Services:  CONTRACTOR
 MWDS.                Jandakot:  MWD SHOP
 RIG .              Ensign 970:  RIG NAME
 DCON.         Sperry Drilling:  DIRECTNL CONTR
 UNIT.                11741669:  LOGGING EQUIPMENT ID
 CNTY.                        :  COUNTY
 PROV.                        :  PROVINCE
 STAT.                        :  STATE
 LOC .                        :  LOCATION
 DEP .m               0.000000:  DEPTH
 TVDS.m             101.180001:  TVDSS CORRECTN
 LATI.deg           -30.730083:  LATITUDE
 LONG.deg           115.478781:  LONGITUDE
 WHNS.m               0.000000:  WELL HEAD N/S
 WHEW.m               0.000000:  WELL HEAD E/W
 UTMX.m          354359.500000:  UTM X
 UTMY.m         6599322.900000:  UTM Y
 DFWL.m               0.000000:  DISTANCE FWL
 DFSL.m               0.000000:  DISTANCE FSL
 SDEP.m              73.999999:  START DEPTH
 TDD .m            3434.999857:  TOTAL DEPTH (DRILLER)
 VSDR.deg           243.910004:  VERT SEC DIRECT
 GVFD.g               1.000000:  GRAVITY FIELD
 MFLD.nT          57661.890625:  MAGNETIC FIELD
 MDIP.deg           -64.786583:  MAGNETIC DIP
 MDEC.deg            -1.367809:  MAGNETIC DECL
 GRDC.deg             0.777471:  GRID CORRECTION
 AZTC.deg            -2.145280:  AZM TOTAL CORR
 EPD .m              94.030000:  ELEVATION
 EGL .m              94.030000:  GROUND ELEVATION
 WDMS.m               0.000000:  WD ELEV
 APD .m               7.150000:  DEPTH ABOVE PD
 MMDE.m             -30.842712:  MAGUTM CALC DEP
 CMER.deg           117.000000:  CENTRL MERIDIAN
 AGAP.m               7.150000:  AIR GAP
 VSC .                       0:  VS TO CLOSURE
 MAGU.                 1390910:  MAGUTM CHECKSUM
~Curve Information Block
#MNEM.UNIT                 API CODE     Curve Description
#---------               -----------    ---------------------------
 DEPT.M                 00 000 000 000:  Depth
 ALPELC.                00 000 000 000:  ALD LCRB Pe Factor
 XBCS.uspf              00 000 000 000:  XBAT Comp Slowness
 RSPD.m/hr              00 000 000 000:  Running Speed
 PGRC.api               00 000 000 000:  PCG Gamma Ray BCorr
 XBEDX.in               00 000 000 000:  XCAL Eqv Hole Size Cor
 AFRSAC.ohmm             00 000 000 000:  AFR Shall Resistivity BC
 AFRMAC.ohmm             00 000 000 000:  AFR Medium Resistivity BC
 AFRDAC.ohmm             00 000 000 000:  AFR Deep Resistivity BC
 ALCDLC.g/cc            00 000 000 000:  ALD LCRB Comp Density
 TNPL.pu                00 000 000 000:  CTN Porosity Limestone
 ALDCLC.g/cc            00 000 000 000:  ALD LCRB Den Correction
 R09PC.ohmm             00 000 000 000:  9in Phase Resistivity BC
 R15PC.ohmm             00 000 000 000:  15in Phase Resistivity BC
 R27PC.ohmm             00 000 000 000:  27in Phase Resistivity BC
 R39PC.ohmm             00 000 000 000:  39in Phase Resistivity BC
 R09AC.ohmm             00 000 000 000:  9in Atten Resistivity BC
 R15AC.ohmm             00 000 000 000:  15in Atten Resistivity BC
 R27AC.ohmm             00 000 000 000:  27in Atten Resistivity BC
 R39AC.ohmm             00 000 000 000:  39in Atten Resistivity BC
 TVD .m                 00 000 000 000:  True Vertical Depth
#Other Information
#
#WARRANTY: Halliburton will use its best efforts to furnish customers with 
#accurate information and interpretations that are part of, and incident to, the services 
#provided.  However, Halliburton cannot and does not warrant the accuracy 
#or correctness of such information and interpretations.  Under no circumstances should any 
#such information or interpretation be relied upon as the sole basis for any drilling, 
#completion, production, or financial decision or any procedure involving any risk to the 
#safety of any drilling venture, drilling rig or its crew or any other third party.  The 
#Customer has full responsibility for all drilling, completion and production operation.  
#Halliburton makes no representations or warranties, either expressed or 
#implied, including, but not limited to, the implied warranties of merchantability or fitness 
#for a particular purpose, with respect to the services rendered.  In no event will 
#Halliburton be liable for failure to obtain any particular results or for 
#any damages, including, but not limited to, indirect, special or consequential damages, 
#resulting from the use of any information or interpretation provided by Halliburton.
#
~A   DEPT     ALPELC     XBCS      RSPD      PGRC      XBEDX     AFRSAC     AFRMAC     AFRDAC    ALCDLC     TNPL     ALDCLC     R09PC     R15PC     R27PC     R39PC     R09AC     R15AC     R27AC     R39AC      TVD    
# ...
   3420.6000 -999.2500 -999.2500   27.4321 -999.2500 -999.2500    8.0651  159.0861  525.1596 -999.2500 -999.2500 -999.2500    4.1231    6.7407   16.9514   47.0058   12.2005   26.6634   66.2938   59.7801 3378.7722
   3420.7000 -999.2500 -999.2500   12.1843 -999.2500 -999.2500    6.6542  172.0458  478.1129 -999.2500 -999.2500 -999.2500    3.8308    6.2717   15.5680   43.1094   12.0092   25.4973   65.2424   55.4056 3378.8748
   3420.8000 -999.2500 -999.2500    2.2336 -999.2500 -999.2500    6.1874  175.9944  517.2503 -999.2500 -999.2500 -999.2500    3.6832    6.2804   16.6384   45.3263   11.5508   25.7952   62.5235   52.2466 3378.9502
   3420.9000 -999.2500 -999.2500    7.5129 -999.2500 -999.2500    5.7761  175.3637  555.0396 -999.2500 -999.2500 -999.2500    3.5011    6.5528   18.2317   49.2923   11.1907   26.5844   60.9511   49.7413 3379.0940
   3421.0000 -999.2500 -999.2500    3.1075 -999.2500 -999.2500    5.9013  161.3043  517.6346 -999.2500 -999.2500 -999.2500    3.4468    6.5872   20.3373   59.8848   10.9435   26.5829   62.0997   47.8737 3379.1270
   3421.1000 -999.2500 -999.2500   10.9014 -999.2500 -999.2500    6.8074  132.6191  446.6479 -999.2500 -999.2500 -999.2500    3.4403    6.4552   23.4893   84.7630   11.2623   28.0169   65.7989   48.6247 3379.1843
   3421.2000 -999.2500 -999.2500   19.0754 -999.2500 -999.2500    6.4891  110.2101  242.9699 -999.2500 -999.2500 -999.2500    3.6994    7.1177   41.3446  428.7400   12.5713   30.8193   63.5420   49.9326 3379.3477
   3421.3000 -999.2500 -999.2500   11.2005 -999.2500 -999.2500    7.1152   96.1192  244.4924 -999.2500 -999.2500 -999.2500    4.9528   10.6663  139.9990 1493.7351   14.2307   32.6997   58.9163   39.0624 3379.4407
   3421.4000 -999.2500 -999.2500   11.3129 -999.2500 -999.2500   11.3363  117.6319  355.9517 -999.2500 -999.2500 -999.2500    6.8492   14.0255  178.5840 1731.4734   13.2528   29.2305   50.8109   34.6466 3379.5310
   3421.5000 -999.2500 -999.2500    5.2823 -999.2500 -999.2500   22.4951  161.2063  368.9354 -999.2500 -999.2500 -999.2500    9.1958   15.3358   92.8692 1407.4305   14.2207   28.4285   45.1410   30.6374 3379.6204
   3421.6000 -999.2500 -999.2500   13.0254 -999.2500 -999.2500   29.7257  160.6315  214.7834 -999.2500 -999.2500 -999.2500   10.2550   14.9671   51.6047  364.3770   14.1733   23.3831   35.7344   25.4081 3379.7070
   3421.7000 -999.2500 -999.2500   21.3678 -999.2500 -999.2500   42.9594  146.2754  236.1982 -999.2500 -999.2500 -999.2500    9.2797   13.0093   28.9958   61.3211   12.3317   17.4546   25.6258   19.8980 3379.8074
   3421.8000 -999.2500 -999.2500   24.6824 -999.2500 -999.2500   39.0795  143.9651  184.9470 -999.2500 -999.2500 -999.2500    8.5143   11.8997   18.5274   32.4234   10.1660   13.2964   17.8007   16.2867 3379.9102
   3421.9000 -999.2500 -999.2500   19.7255 -999.2500 -999.2500   46.1546  226.5321  323.7206 -999.2500 -999.2500 -999.2500    7.0485    9.4723   11.6751   18.9503    6.5204    8.5991   11.0940   12.2948 3380.0017
   3422.0000 -999.2500 -999.2500   23.7137 -999.2500 -999.2500   75.7355  536.6685  784.6298 -999.2500 -999.2500 -999.2500    6.2510    8.7807    9.9436   11.9581    4.4995    6.1319    7.8272    9.2652 3380.0999
   3422.1000 -999.2500 -999.2500   16.5845 -999.2500 -999.2500   71.5743  522.4195  539.1150 -999.2500 -999.2500 -999.2500    4.3439    5.5612    5.9557    6.8273    3.0983    4.2240    5.2504    7.0443 3380.2078
   3422.2000 -999.2500 -999.2500   11.9752 -999.2500 -999.2500   43.3799  213.1150  217.8609 -999.2500 -999.2500 -999.2500    1.1811    2.1081    9.3259    3.9615    1.4858    2.5565    4.1402    5.8923 3380.2969
   3422.3000 -999.2500 -999.2500   13.2367 -999.2500 -999.2500   12.2819   22.3305   28.2590 -999.2500 -999.2500 -999.2500   21.0535  111.7442  160.6397   18.0217    1.8014    5.2072   11.3243   10.0110 3380.3647
   3422.4000 -999.2500 -999.2500   13.7163 -999.2500 -999.2500    7.3066    3.6132    3.7793 -999.2500 -999.2500 -999.2500   41.4115  245.3974  233.8477   14.1390    1.9852    5.4439    8.4302    7.8923 3380.4739
   3422.5000 -999.2500 -999.2500   13.7467 -999.2500 -999.2500    2.5259    3.7296    3.9243 -999.2500 -999.2500 -999.2500    6.6823   35.2731   34.3861    5.6130    1.2695    3.0309    5.0306    6.1947 3380.5847
   3422.6000 -999.2500 -999.2500   12.8528 -999.2500 -999.2500    1.3070    3.4619    3.5871 -999.2500 -999.2500 -999.2500    2.8005    5.7314   15.6558   14.0825    1.7883    4.4843    9.1883    9.2621 3380.6711
   3422.7000 -999.2500 -999.2500   16.4090 -999.2500 -999.2500    1.0948    4.4395    4.0928 -999.2500 -999.2500 -999.2500    2.5226    5.7345   12.5980   11.0850    1.4150    4.0922    8.5489    8.2492 3380.7620
   3422.8000 -999.2500 -999.2500   15.8132 -999.2500 -999.2500    1.1293    4.9582    5.1229 -999.2500 -999.2500 -999.2500    1.3243    2.3855    4.3896    5.1267    1.1706    4.3835    7.8115    7.5272 3380.8669
   3422.9000 -999.2500 -999.2500   15.3804 -999.2500 -999.2500    1.0682    4.7112    5.2676 -999.2500 -999.2500 -999.2500    2.0294    3.7600    6.9362   10.2383    1.5500    7.2417   13.0263    8.5651 3380.9636
   3423.0000 -999.2500 -999.2500   10.7872 -999.2500 -999.2500    0.9750    4.8742    4.8257 -999.2500 -999.2500 -999.2500    2.4420    3.3735    5.5717    8.5074    1.9270    5.0048    9.4790    7.6206 3381.0317
   3423.1000 -999.2500 -999.2500   17.4435 -999.2500 -999.2500    0.9386    5.8505    5.3779 -999.2500 -999.2500 -999.2500    1.3741    1.8012    2.5313    3.3670    1.4140    2.4795    4.2978    5.0328 3381.1423
   3423.2000 -999.2500 -999.2500   17.8202 -999.2500 -999.2500    0.8823    5.9703    5.6673 -999.2500 -999.2500 -999.2500    1.6008    2.4805    3.3871    4.2331    1.3281    2.6419    4.1656    5.1555 3381.2454
   3423.3000 -999.2500 -999.2500   19.1203 -999.2500 -999.2500    0.9445    4.7387    4.9281 -999.2500 -999.2500 -999.2500    2.6372    4.2637    5.3406    6.7066    1.6848    4.4876    7.1754    6.7955 3381.3408
   3423.4000 -999.2500 -999.2500   17.9872 -999.2500 -999.2500    1.0113    4.5237    5.2853 -999.2500 -999.2500 -999.2500    2.0152    3.5613    3.8273    5.3009    1.8001    5.7436    7.3011    6.5555 3381.4368
   3423.5000 -999.2500 -999.2500   16.1169 -999.2500 -999.2500    1.0481    4.9333    6.0272 -999.2500 -999.2500 -999.2500    1.4856    2.3255    2.9190    3.5712    1.4566    3.7693    4.7096    5.4434 3381.5293
   3423.6000 -999.2500 -999.2500   16.3540 -999.2500 -999.2500    1.1149    4.8066    5.9088 -999.2500 -999.2500 -999.2500    1.5823    2.4564    3.0926    3.6719    1.4024    2.9850    4.2144    5.0646 3381.6304
   3423.7000 -999.2500 -999.2500   16.5545 -999.2500 -999.2500    1.1703    4.4212    5.2601 -999.2500 -999.2500 -999.2500    1.6185    3.0068    3.5091    4.3280    1.5170    3.3372    4.6202    5.1964 3381.7285
   3423.8000 -999.2500 -999.2500   18.2581 -999.2500 -999.2500    1.2019    4.0150    4.7128 -999.2500 -999.2500 -999.2500    1.7989    2.8955    3.7073    4.6217    2.0791    5.8265    6.1202    5.7335 3381.8118
   3423.9000 -999.2500 -999.2500   21.1994 -999.2500 -999.2500    1.2616    3.5881    4.2903 -999.2500 -999.2500 -999.2500    1.5733    2.8332    3.9190    4.8221    2.0955    8.9740    7.1230    5.9004 3381.9114
   3424.0000 -999.2500 -999.2500   20.0641 -999.2500 -999.2500    1.3184    3.5669    4.0299 -999.2500 -999.2500 -999.2500    1.8553    3.1880    4.8216    5.7111    1.8456    6.9048    6.2196    5.6305 3382.0161
   3424.1000 -999.2500 -999.2500   10.3560 -999.2500 -999.2500    1.5059    3.8495    4.4381 -999.2500 -999.2500 -999.2500    2.9642    6.2405   10.4844   10.2494    2.2612    5.3895    7.1954    5.7233 3382.1199
   3424.2000 -999.2500 -999.2500    9.8196 -999.2500 -999.2500    2.0816    6.0648    6.8251 -999.2500 -999.2500 -999.2500    5.5019   15.1972   21.8085   14.9943    4.1389   10.2310    9.8055    6.2325 3382.2051
   3424.3000 -999.2500 -999.2500   14.8725 -999.2500 -999.2500    3.5918   12.2011   12.8700 -999.2500 -999.2500 -999.2500    3.9522    7.3422    9.1781    6.8004    3.9516    8.8295    6.3977    5.0444 3382.2937
