~Version Information
 VERS.                  2.0:   CWLS log ASCII Standard -VERSION 2.0
 WRAP.                   NO:   One line per depth step
~Well Information Block
#MNEM.UNIT     VALUE/NAME     DESCRIPTION
#---------     -----------    ---------------------------
 STRT.M              2900.0000: START DEPTH
 STOP.M              3434.8000: STOP DEPTH
 STEP.M                 0.1000: STEP DEPTH
 NULL.               -999.2500: NULL VALUE
 UWI .                 W006102:  UNIQUE WELL IDENTIFIER
 API .                 W006102:  API NUMBER
 DFWT.                        :  DIST FWL TEXT
 DFST.                        :  DIST FSL TEXT
 DMF .             Drill Floor:  DRILL MEAS FROM
 STIM.      12.00.00 12-Nov-21:  START TIME
 DATE.      08.19.12 13-Dec-21:  END TIME
 SPUD.               14-Nov-21:  SPUD DATE
 NREF.                    Grid:  NORTH REFERENCE
 HPTY.       Minimum Curvature:  HOLE POS TYPE
 DMOD.             Drill Model:  DRILL MOD DESC
 SVYD.                  Survey:  SURVEY DESC
 ILTD.               Lithology:  INTERP LTH DESC
 FTOP.          Formation Tops:  FORM TOPS DESC
 WELL.             Walyering 5:  WELL NAME
 COMP.     Strike South West Pty Ltd:  COMPANY
 SON .        PA-XX-0907373664:  JOB NUMBER
 GCDE.     Generic Lat/Long's, Degrees, -180 ==> +180:  GEO COORD DESC
 CCDE.     UTM Zone 50S on Geocentric Datum of Australia 1994, Meters:  CART COORD DESC
 GGSY.                      LL:  GEO GRID SYS
 CGSY.             SS GDA94-50:  CART GRID SYS
 GREF.     Ellipsoid World Geodetic System :  GEO REFERENCE
 CREF.     Datum Geocentric Datum of Austra:  CART REFERENCE
 MMDL.            bggm2021.dat:  MAGNETIC MODEL
 MMDD.       10 November, 2021:  MAG DATA DATE
 MDS .              Win MagUTM:  MAG DATA SOURCE
 LLGR.      Latitude/Longitude:  LLGROUP
 XYGR.     Australia/New Zealand Coordinate Systems:  XYGROUP
 WTYP.                Deviated:  WELL TYPE
 PDAT.          Mean Sea Level:  PERMANENT DATUM
 BASE.                   Perth:  LOGGING EQUIPMENT BASE LOCATION
 REGN.            Asia Pacific:  REGION
 CTRY.               Australia:  COUNTRY NAME
 FLD .             Perth Basin:  FIELD NAME
 SRVC.     Ensign Energy Services:  CONTRACTOR
 MWDS.                Jandakot:  MWD SHOP
 RIG .              Ensign 970:  RIG NAME
 DCON.         Sperry Drilling:  DIRECTNL CONTR
 UNIT.                11741669:  LOGGING EQUIPMENT ID
 CNTY.                        :  COUNTY
 PROV.                        :  PROVINCE
 STAT.                        :  STATE
 LOC .                        :  LOCATION
 DEP .m               0.000000:  DEPTH
 TVDS.m             101.180001:  TVDSS CORRECTN
 LATI.deg           -30.730083:  LATITUDE
 LONG.deg           115.478781:  LONGITUDE
 WHNS.m               0.000000:  WELL HEAD N/S
 WHEW.m               0.000000:  WELL HEAD E/W
 UTMX.m          354359.500000:  UTM X
 UTMY.m         6599322.900000:  UTM Y
 DFWL.m               0.000000:  DISTANCE FWL
 DFSL.m               0.000000:  DISTANCE FSL
 SDEP.m              73.999999:  START DEPTH
 TDD .m            3434.999857:  TOTAL DEPTH (DRILLER)
 VSDR.deg           243.910004:  VERT SEC DIRECT
 GVFD.g               1.000000:  GRAVITY FIELD
 MFLD.nT          57661.890625:  MAGNETIC FIELD
 MDIP.deg           -64.786583:  MAGNETIC DIP
 MDEC.deg            -1.367809:  MAGNETIC DECL
 GRDC.deg             0.777471:  GRID CORRECTION
 AZTC.deg            -2.145280:  AZM TOTAL CORR
 EPD .m              94.030000:  ELEVATION
 EGL .m              94.030000:  GROUND ELEVATION
 WDMS.m               0.000000:  WD ELEV
 APD .m               7.150000:  DEPTH ABOVE PD
 MMDE.m             -30.842712:  MAGUTM CALC DEP
 CMER.deg           117.000000:  CENTRL MERIDIAN
 AGAP.m               7.150000:  AIR GAP
 VSC .                       0:  VS TO CLOSURE
 MAGU.                 1390910:  MAGUTM CHECKSUM
~Curve Information Block
#MNEM.UNIT                 API CODE     Curve Description
#---------               -----------    ---------------------------
 DEPT.M                 00 000 000 000:  Depth
 ALPELC.                00 000 000 000:  ALD LCRB Pe Factor
 XBCS.uspf              00 000 000 000:  XBAT Comp Slowness
 RSPD.m/hr              00 000 000 000:  Running Speed
 PGRC.api               00 000 000 000:  PCG Gamma Ray BCorr
 XBEDX.in               00 000 000 000:  XCAL Eqv Hole Size Cor
 AFRSAC.ohmm             00 000 000 000:  AFR Shall Resistivity BC
 AFRMAC.ohmm             00 000 000 000:  AFR Medium Resistivity BC
 AFRDAC.ohmm             00 000 000 000:  AFR Deep Resistivity BC
 ALCDLC.g/cc            00 000 000 000:  ALD LCRB Comp Density
 TNPL.pu                00 000 000 000:  CTN Porosity Limestone
 ALDCLC.g/cc            00 000 000 000:  ALD LCRB Den Correction
 R09PC.ohmm             00 000 000 000:  9in Phase Resistivity BC
 R15PC.ohmm             00 000 000 000:  15in Phase Resistivity BC
 R27PC.ohmm             00 000 000 000:  27in Phase Resistivity BC
 R39PC.ohmm             00 000 000 000:  39in Phase Resistivity BC
 R09AC.ohmm             00 000 000 000:  9in Atten Resistivity BC
 R15AC.ohmm             00 000 000 000:  15in Atten Resistivity BC
 R27AC.ohmm             00 000 000 000:  27in Atten Resistivity BC
 R39AC.ohmm             00 000 000 000:  39in Atten Resistivity BC
 TVD .m                 00 000 000 000:  True Vertical Depth
#Other Information
#
#WARRANTY: Halliburton will use its best efforts to furnish customers with 
#accurate information and interpretations that are part of, and incident to, the services 
#provided.  However, Halliburton cannot and does not warrant the accuracy 
#or correctness of such information and interpretations.  Under no circumstances should any 
#such information or interpretation be relied upon as the sole basis for any drilling, 
#completion, production, or financial decision or any procedure involving any risk to the 
#safety of any drilling venture, drilling rig or its crew or any other third party.  The 
#Customer has full responsibility for all drilling, completion and production operation.  
#Halliburton makes no representations or warranties, either expressed or 
#implied, including, but not limited to, the implied warranties of merchantability or fitness 
#for a particular purpose, with respect to the services rendered.  In no event will 
#Halliburton be liable for failure to obtain any particular results or for 
#any damages, including, but not limited to, indirect, special or consequential damages, 
#resulting from the use of any information or interpretation provided by Halliburton.
#
~A   DEPT     ALPELC     XBCS      RSPD      PGRC      XBEDX     AFRSAC     AFRMAC     AFRDAC    ALCDLC     TNPL     ALDCLC     R09PC     R15PC     R27PC     R39PC     R09AC     R15AC     R27AC     R39AC      TVD    
# ...
   3291.4000    2.1247   76.3652   22.8911 -999.2500    8.9490   13.8693   19.7626   20.5820    2.4416   15.2089    0.0310    7.0665   11.9812   16.7725   22.9290   13.2039   25.6496   28.9153   24.5873 3255.9910
   3291.5000    2.5441   75.7269   33.3265 -999.2500    8.9490   12.8801   19.2011   19.4586    2.4455   17.9210    0.0352    5.7919   35.4681   44.5877   55.4568    8.4517   20.7477   27.2586   27.7277 3256.0779
   3291.6000    2.8066   74.5674   35.5472 -999.2500    8.9490   14.7063   26.9869   27.0536    2.4674   19.1750    0.0688    6.4137  223.7993  255.9064  295.9792    7.9642   48.4450   57.0421   53.2922 3256.1763
   3291.7000    2.2338   72.5782   35.1934 -999.2500    9.2984   21.0724   44.5174   43.0308    2.5264   19.3715    0.0635    9.6178  212.4683  242.8162  297.0948   12.2008   47.0341   74.9787   57.8512 3256.2771
   3291.8000    1.9881   71.4901   30.7711 -999.2500    9.2984   24.5255   56.6270   57.1116    2.5477   21.0544    0.0687   12.1650   40.6487   51.0675   96.7623   14.9238   20.0606   61.2275   40.0479 3256.3652
   3291.9000    2.3103   71.4918   26.9036 -999.2500    9.2984   27.0055   59.0593   68.4953    2.5427   21.0503    0.0675   76.1368  177.4914  202.5974  241.3254   21.3909   36.2362   51.9576   42.9867 3256.4653
   3292.0000    2.9837   69.7058   24.0363 -999.2500    8.5283   30.9965   62.1622   75.1980    2.5302   19.1635    0.0548  469.8829 1197.0217 1300.9066 1421.6874  115.0924  176.3137  176.0042  108.6876 3256.5535
   3292.1000    3.3133   61.1513    6.6152 -999.2500    8.5283   31.8512   59.3373   84.5184    2.5226   17.2063    0.0354  391.0316 1376.2255 1190.0192  829.5027  177.2410  200.9169  198.4285  145.7207 3256.6523
   3292.2000    1.9833   66.9754   17.2072 -999.2500    8.5283   26.6399   48.1275   75.1469    2.5001   15.4446    0.0087  693.5399 1376.2255 1162.5763  996.5006  216.5284  200.9169  198.4285  120.5543 3256.7505
   3292.3000    2.0183   71.5766   23.8326 -999.2500    8.4388   28.3116   51.9167   96.1311    2.4922   13.4820    0.0160 1009.3596  966.1838  835.7661  917.8590  255.7681  181.7275  179.7830   90.6229 3256.8384
   3292.4000    2.2369   71.5097   31.4240 -999.2500    8.4388   23.7940   45.9198  101.2148    2.4952   12.8031    0.0215  102.7606   92.1377   80.9761   90.4625   77.6959  112.5376  111.1385   51.8066 3256.9377
   3292.5000    2.1811   71.7616   28.0245 -999.2500    8.4388   12.2613   25.5358   57.7875    2.4903   11.0900    0.0202   12.3791   13.7946   16.6006   21.5287   19.9665   37.2880   54.4091   45.6483 3257.0371
   3292.6000    2.0585   73.0670   28.8646 -999.2500    8.4570    6.0714   13.6321   31.5450    2.4711    9.2612    0.0155  125.3778   82.9252   19.4533   20.9634   31.0591   35.2166   52.2453   47.2311 3257.1248
   3292.7000    2.3786   73.6022   26.9105 -999.2500    8.4752    5.1898   13.3057   28.2702    2.4429    8.7421    0.0129  418.0911  262.2576   34.1931   26.2733   76.6609   57.6655   70.5076   49.8789 3257.2246
   3292.8000    2.1344   74.7894   26.6009 -999.2500    8.4752    5.1216   15.1295   29.4291    2.4303    9.0417    0.0278  105.0969   68.8006   15.8992   18.1452   26.9792   27.4579   43.2974   50.8073 3257.3127
   3292.9000    1.9367   74.7981   23.6619 -999.2500    8.4752    4.6781   15.1423   28.7187    2.4176    9.2189    0.0154    5.2573    6.5409    9.0649   14.7338   10.0953   16.2300   32.9361   52.8107 3257.4087
   3293.0000    1.8893   74.8590   27.6872 -999.2500    8.3957    3.9650   13.7216   25.1032    2.4060    9.0612    0.0083    3.7605    4.6226    6.9354   13.0232    7.6592   13.0447   32.5673   59.9641 3257.5127
   3293.1000    1.8892   75.3107   33.8907 -999.2500    8.3957    3.3600   12.3840   21.7479    2.3919    9.8852    0.0137    3.6635    4.5068    7.0658   14.4149    7.3875   12.7888   35.3918   60.0191 3257.5986
   3293.2000    1.8485   74.6133   28.5456 -999.2500    8.3957    3.4266   13.2660   22.7635    2.3820   10.4900    0.0223    3.5531    4.5092    7.7213   18.1337    7.0899   12.9718   43.0004   67.6616 3257.6978
   3293.3000    1.7639   73.1631   26.7632 -999.2500    8.4720    3.7465   14.2719   27.4497    2.3900   10.7771    0.0189    3.6261    4.6207    8.2797   21.6893    7.2070   13.3156   50.8517   88.5151 3257.7957
   3293.4000    1.9587   72.4495   27.6481 -999.2500    8.4720    3.8456   13.3280   30.6924    2.3915   10.8388    0.0099    3.6897    4.5843    8.4015   23.1613    7.2488   13.1983   53.2055  114.1652 3257.8865
   3293.5000    1.8466   71.7382   27.5955 -999.2500    8.4720    3.8161   11.8922   31.9776    2.3933   10.9245    0.0259    3.7328    4.5804    8.6012   25.3451    7.4124   13.0578   52.4876   93.8550 3257.9866
   3293.6000    1.8517   72.7104   26.5980 -999.2500    8.4287    3.4623    9.9139   29.9631    2.3929   10.9902    0.0315    3.8947    4.7578    8.5034   24.7120    7.9687   13.5993   51.8187   84.6017 3258.0769
   3293.7000    2.0643   73.1459   25.5607 -999.2500    8.4287    3.7076   10.1305   33.3217    2.3999   10.7681    0.0282    4.3410    5.4694    9.4464   27.9168    8.0410   13.9355   47.2122  107.7188 3258.1689
   3293.8000    2.3161   73.5591   18.2375 -999.2500    8.4287    4.0532   10.9745   35.9775    2.4168   10.8587    0.0293    4.6256    5.8446    9.5133   25.2975    8.5158   14.1396   41.0001  100.7160 3258.2729
   3293.9000    2.2965   74.0171   25.1496 -999.2500    8.4311    4.3853   11.8707   36.4210    2.4115   11.0423    0.0176    4.3661    5.3119    7.9853   18.5955    8.5007   13.3598   35.7868   85.3960 3258.3596
   3294.0000    1.8759   74.7124   26.7169 -999.2500    8.4311    3.9904   10.9516   30.7683    2.4131   10.9649    0.0109    4.2328    5.0790    7.5711   16.7572    8.2755   12.9599   34.7128   74.7782 3258.4580
   3294.1000    2.1473   76.5837   26.6090 -999.2500    8.4311    3.6879    9.8985   26.9145    2.4014   10.6837    0.0163    3.9247    4.8037    7.0945   15.5380    8.0872   12.9766   34.4439   90.3126 3258.5571
   3294.2000    2.0660   76.9074   26.6040 -999.2500    8.4638    3.8226   10.6814   27.2940    2.3898   10.5350    0.0130    3.6523    4.5621    6.8250   15.1103    7.8688   13.0315   35.1137  108.5591 3258.6438
   3294.3000    1.8195   75.5729   26.5968 -999.2500    8.4638    3.3673    9.5699   24.0912    2.3840   10.7559    0.0075    3.5361    4.4139    6.9417   15.6702    7.4781   12.8340   36.9399  110.6582 3258.7432
   3294.4000    2.0214   74.9795   26.5967 -999.2500    8.4638    3.4356    9.7102   24.0377    2.3887   10.4121    0.0169    3.3722    4.2181    6.9991   16.1544    6.6037   12.1745   39.8774   89.9781 3258.8423
   3294.5000    2.3218   73.4225   25.6601 -999.2500    8.5370    3.6122   10.1218   24.1441    2.4185   10.1862    0.0403    3.2502    4.0146    7.1456   17.3087    6.7697   12.3068   44.3843   97.3650 3258.9280
   3294.6000    2.0431   73.5216   18.5107 -999.2500    8.5370    3.2248    9.5954   22.1544    2.3976   10.7244    0.0183    3.3145    4.1396    7.7465   20.7395    7.0376   13.0425   50.9274  135.9920 3259.0320
   3294.7000    2.0444   73.7412   22.3148 -999.2500    8.5370    3.2037    9.6828   22.1860    2.3850   10.3782    0.0102    3.5367    4.5267    8.5051   25.0401    7.2713   13.6340   58.5329  158.7778 3259.1279
   3294.8000    2.2282   74.4108   26.5016 -999.2500    8.5165    3.3874   10.1133   23.8670    2.3889   10.0701    0.0088    3.8475    4.9938    9.0741   28.2043    7.4470   13.6917   62.6754  139.7838 3259.2148
   3294.9000    2.4114   75.0486   28.7141 -999.2500    8.5165    3.7193   10.8166   26.9814    2.4052   10.4812    0.0096    4.0562    5.0357    8.8086   25.6676    7.5070   13.3731   46.9698   97.7217 3259.3184
   3295.0000    2.4264   74.7366   27.2234 -999.2500    8.5165    3.8479   11.2837   30.4154    2.4213   10.8583    0.0171    4.0572    4.9196    7.8614   20.8308    7.8692   12.2377   36.9985   87.9002 3259.4048
   3295.1000    2.0189   74.6549   26.7907 -999.2500    8.5846    3.7920   10.7507   33.1027    2.4012   10.8496    0.0220    3.6989    4.4077    6.5138   15.9074    7.2338   11.2839   31.0473  102.1163 3259.5027
